{
  "type": "FeatureCollection",
  "features": [
    {
      "geometry": {
        "type": "Point",
        "coordinates": [
          31.052041,
          27.314645
        ]
      },
      "type": "Feature",
      "properties": {
        "hierarchy": [
          "tgn:7543270",
          "tgn:7001242",
          "tgn:7001311",
          "tgn:7016833",
          "tgn:7029392"
        ],
        "placetype": [
          "aat:300008347"
        ],
        "name:en": "Nazlat al Ḩarajāt",
        "id": 7543270
      }
    },
    {
      "geometry": {
        "type": "Point",
        "coordinates": [
          31.084159,
          27.264468
        ]
      },
      "type": "Feature",
      "properties": {
        "hierarchy": [
          "tgn:7543271",
          "tgn:7001242",
          "tgn:7016833",
          "tgn:1001114",
          "tgn:7029392"
        ],
        "placetype": [
          "aat:300008347"
        ],
        "name:en": "Naj' 'Abd ar Rasūl",
        "id": 7543271
      }
    },
    {
      "geometry": {
        "type": "Point",
        "coordinates": [
          31.085609,
          27.259949
        ]
      },
      "type": "Feature",
      "properties": {
        "hierarchy": [
          "tgn:7543272",
          "tgn:7001242",
          "tgn:7016833",
          "tgn:1001114",
          "tgn:7029392"
        ],
        "placetype": [
          "aat:300008347"
        ],
        "name:en": "Naj' Thābit",
        "id": 7543272
      }
    },
    {
      "geometry": {
        "type": "Point",
        "coordinates": [
          31.030108,
          27.265791
        ]
      },
      "type": "Feature",
      "properties": {
        "hierarchy": [
          "tgn:7543273",
          "tgn:7001242",
          "tgn:7016833",
          "tgn:1001114",
          "tgn:7029392"
        ],
        "placetype": [
          "aat:300008347"
        ],
        "name:en": "Al Jāwlī",
        "id": 7543273
      }
    },
    {
      "geometry": {
        "type": "Point",
        "coordinates": [
          31.191468,
          27.297501
        ]
      },
      "type": "Feature",
      "properties": {
        "hierarchy": [
          "tgn:7543274",
          "tgn:7001242",
          "tgn:7016833",
          "tgn:1001114",
          "tgn:7029392"
        ],
        "placetype": [
          "aat:300008347"
        ],
        "name:en": "Al 'Awāmir",
        "id": 7543274
      }
    },
    {
      "geometry": {
        "type": "Point",
        "coordinates": [
          31.426384,
          26.701524
        ]
      },
      "type": "Feature",
      "properties": {
        "hierarchy": [
          "tgn:7543275",
          "tgn:7001242",
          "tgn:7016833",
          "tgn:7000124",
          "tgn:7029392"
        ],
        "placetype": [
          "aat:300008347"
        ],
        "name:en": "Qaryat 'Alī Bin Abī Ţālib",
        "id": 7543275
      }
    },
    {
      "geometry": {
        "type": "Point",
        "coordinates": [
          31.473361,
          26.717417
        ]
      },
      "type": "Feature",
      "properties": {
        "hierarchy": [
          "tgn:7543276",
          "tgn:7001242",
          "tgn:7016833",
          "tgn:7000124",
          "tgn:7029392"
        ],
        "placetype": [
          "aat:300006075"
        ],
        "name:en": "Tir'at as Sahāyjah",
        "id": 7543276
      }
    },
    {
      "geometry": {
        "type": "Point",
        "coordinates": [
          30.151513,
          30.708836
        ]
      },
      "type": "Feature",
      "properties": {
        "hierarchy": [
          "tgn:7543277",
          "tgn:7001242",
          "tgn:1001075",
          "tgn:7016833",
          "tgn:7029392"
        ],
        "placetype": [
          "aat:300008347"
        ],
        "name:en": "An Nūr",
        "id": 7543277
      }
    },
    {
      "geometry": {
        "type": "Point",
        "coordinates": [
          30.13668,
          30.691414
        ]
      },
      "type": "Feature",
      "properties": {
        "hierarchy": [
          "tgn:7543278",
          "tgn:7001242",
          "tgn:1001075",
          "tgn:7016833",
          "tgn:7029392"
        ],
        "placetype": [
          "aat:300008347"
        ],
        "name:en": "Abū Bakr aş Şiddīq",
        "id": 7543278
      }
    },
    {
      "geometry": {
        "type": "Point",
        "coordinates": [
          31.760172,
          31.019048
        ]
      },
      "type": "Feature",
      "properties": {
        "hierarchy": [
          "tgn:7543279",
          "tgn:7001242",
          "tgn:7016833",
          "tgn:1001113",
          "tgn:7029392"
        ],
        "placetype": [
          "aat:300000206"
        ],
        "name:en": "'Izbat Suwaylim",
        "id": 7543279
      }
    }
  ]
}
