{
  "type": "FeatureCollection",
  "features": [
    {
      "geometry": {
        "type": "Point",
        "coordinates": [
          -100.070278,
          21.031111
        ]
      },
      "type": "Feature",
      "properties": {
        "hierarchy": [
          "tgn:7415360",
          "tgn:7005584",
          "tgn:1000001",
          "tgn:7005560",
          "tgn:7029392"
        ],
        "placetype": [
          "aat:300008699"
        ],
        "id": 7415360,
        "name:xx": "La Chamacuera, Río"
      }
    },
    {
      "geometry": {
        "type": "Point",
        "coordinates": [
          -100.138889,
          21.036667
        ]
      },
      "type": "Feature",
      "properties": {
        "hierarchy": [
          "tgn:7415361",
          "tgn:7005584",
          "tgn:1000001",
          "tgn:7005560",
          "tgn:7029392"
        ],
        "placetype": [
          "aat:300008347"
        ],
        "id": 7415361,
        "name:xx": "El Sauz"
      }
    },
    {
      "geometry": {
        "type": "Point",
        "coordinates": [
          -100.137222,
          21.023333
        ]
      },
      "type": "Feature",
      "properties": {
        "hierarchy": [
          "tgn:7415362",
          "tgn:7005584",
          "tgn:1000001",
          "tgn:7005560",
          "tgn:7029392"
        ],
        "placetype": [
          "aat:300008347"
        ],
        "id": 7415362,
        "name:xx": "La Silla"
      }
    },
    {
      "geometry": {
        "type": "Point",
        "coordinates": [
          -100.136667,
          21.007778
        ]
      },
      "type": "Feature",
      "properties": {
        "hierarchy": [
          "tgn:7415363",
          "tgn:7005584",
          "tgn:1000001",
          "tgn:7005560",
          "tgn:7029392"
        ],
        "placetype": [
          "aat:300008347"
        ],
        "id": 7415363,
        "name:xx": "La Estancia"
      }
    },
    {
      "geometry": {
        "type": "Point",
        "coordinates": [
          -100.125,
          20.949167
        ]
      },
      "type": "Feature",
      "properties": {
        "hierarchy": [
          "tgn:7415364",
          "tgn:7005584",
          "tgn:1000001",
          "tgn:7005560",
          "tgn:7029392"
        ],
        "placetype": [
          "aat:300008811"
        ],
        "id": 7415364,
        "name:xx": "Pueblo Nuevo, Mesa"
      }
    },
    {
      "geometry": {
        "type": "Point",
        "coordinates": [
          -100.292778,
          20.995833
        ]
      },
      "type": "Feature",
      "properties": {
        "hierarchy": [
          "tgn:7415365",
          "tgn:7005584",
          "tgn:1000001",
          "tgn:7005560",
          "tgn:7029392"
        ],
        "placetype": [
          "aat:300008347"
        ],
        "id": 7415365,
        "name:xx": "Las Tuzas"
      }
    },
    {
      "geometry": {
        "type": "Point",
        "coordinates": [
          -100.265556,
          20.956944
        ]
      },
      "type": "Feature",
      "properties": {
        "hierarchy": [
          "tgn:7415366",
          "tgn:7005584",
          "tgn:1000001",
          "tgn:7005560",
          "tgn:7029392"
        ],
        "placetype": [
          "aat:300008699"
        ],
        "id": 7415366,
        "name:xx": "Zamorano, Río"
      }
    },
    {
      "geometry": {
        "type": "Point",
        "coordinates": [
          -100.313611,
          20.9825
        ]
      },
      "type": "Feature",
      "properties": {
        "hierarchy": [
          "tgn:7415367",
          "tgn:7005584",
          "tgn:1000001",
          "tgn:7005560",
          "tgn:7029392"
        ],
        "placetype": [
          "aat:300008347"
        ],
        "id": 7415367,
        "name:xx": "Rincón de Santa Anita"
      }
    },
    {
      "geometry": {
        "type": "Point",
        "coordinates": [
          -100.359167,
          20.953056
        ]
      },
      "type": "Feature",
      "properties": {
        "hierarchy": [
          "tgn:7415368",
          "tgn:7005584",
          "tgn:1000001",
          "tgn:7005560",
          "tgn:7029392"
        ],
        "placetype": [
          "aat:300008699"
        ],
        "id": 7415368,
        "name:xx": "Rancho Viejo, Río"
      }
    },
    {
      "geometry": {
        "type": "Point",
        "coordinates": [
          -100.394722,
          20.901389
        ]
      },
      "type": "Feature",
      "properties": {
        "hierarchy": [
          "tgn:7415369",
          "tgn:7005584",
          "tgn:1000001",
          "tgn:7005560",
          "tgn:7029392"
        ],
        "placetype": [
          "aat:300008811"
        ],
        "id": 7415369,
        "name:xx": "El Sordo, Mesa"
      }
    }
  ]
}
