{
  "type": "FeatureCollection",
  "features": [
    {
      "geometry": {
        "type": "Point",
        "coordinates": [
          -99.5375,
          20.166667
        ]
      },
      "type": "Feature",
      "properties": {
        "hierarchy": [
          "tgn:7408530",
          "tgn:1000001",
          "tgn:1001893",
          "tgn:7005560",
          "tgn:7029392"
        ],
        "placetype": [
          "aat:300008347"
        ],
        "id": 7408530,
        "name:xx": "San Sebastián de Juárez"
      }
    },
    {
      "geometry": {
        "type": "Point",
        "coordinates": [
          -99.583333,
          20.1875
        ]
      },
      "type": "Feature",
      "properties": {
        "hierarchy": [
          "tgn:7408531",
          "tgn:1000001",
          "tgn:1001893",
          "tgn:7005560",
          "tgn:7029392"
        ],
        "placetype": [
          "aat:300008347"
        ],
        "id": 7408531,
        "name:xx": "Buenavista"
      }
    },
    {
      "geometry": {
        "type": "Point",
        "coordinates": [
          -99.616667,
          20.183333
        ]
      },
      "type": "Feature",
      "properties": {
        "hierarchy": [
          "tgn:7408532",
          "tgn:1000001",
          "tgn:1001893",
          "tgn:7005560",
          "tgn:7029392"
        ],
        "placetype": [
          "aat:300008347"
        ],
        "id": 7408532,
        "name:xx": "Peñafiel"
      }
    },
    {
      "geometry": {
        "type": "Point",
        "coordinates": [
          -99.75,
          20.166667
        ]
      },
      "type": "Feature",
      "properties": {
        "hierarchy": [
          "tgn:7408533",
          "tgn:1000001",
          "tgn:1001893",
          "tgn:7005560",
          "tgn:7029392"
        ],
        "placetype": [
          "aat:300008347"
        ],
        "id": 7408533,
        "name:xx": "La Loma del Pino"
      }
    },
    {
      "geometry": {
        "type": "Point",
        "coordinates": [
          -99.754167,
          20.183333
        ]
      },
      "type": "Feature",
      "properties": {
        "hierarchy": [
          "tgn:7408534",
          "tgn:1000001",
          "tgn:1001893",
          "tgn:7005560",
          "tgn:7029392"
        ],
        "placetype": [
          "aat:300008347"
        ],
        "id": 7408534,
        "name:xx": "El Ruano"
      }
    },
    {
      "geometry": {
        "type": "Point",
        "coordinates": [
          -99.75,
          20.1875
        ]
      },
      "type": "Feature",
      "properties": {
        "hierarchy": [
          "tgn:7408535",
          "tgn:1000001",
          "tgn:1001893",
          "tgn:7005560",
          "tgn:7029392"
        ],
        "placetype": [
          "aat:300008347"
        ],
        "id": 7408535,
        "name:xx": "Pachuquilla"
      }
    },
    {
      "geometry": {
        "type": "Point",
        "coordinates": [
          -99.783333,
          20.166667
        ]
      },
      "type": "Feature",
      "properties": {
        "hierarchy": [
          "tgn:7408536",
          "tgn:1000001",
          "tgn:1001893",
          "tgn:7005560",
          "tgn:7029392"
        ],
        "placetype": [
          "aat:300008699"
        ],
        "id": 7408536,
        "name:xx": "Zarco, Río"
      }
    },
    {
      "geometry": {
        "type": "Point",
        "coordinates": [
          -99.825,
          20.166667
        ]
      },
      "type": "Feature",
      "properties": {
        "hierarchy": [
          "tgn:7408537",
          "tgn:1000001",
          "tgn:1001893",
          "tgn:7005560",
          "tgn:7029392"
        ],
        "placetype": [
          "aat:300008347"
        ],
        "id": 7408537,
        "name:xx": "Higuerillas"
      }
    },
    {
      "geometry": {
        "type": "Point",
        "coordinates": [
          -99.933333,
          20.158333
        ]
      },
      "type": "Feature",
      "properties": {
        "hierarchy": [
          "tgn:7408538",
          "tgn:1000001",
          "tgn:1001893",
          "tgn:7005560",
          "tgn:7029392"
        ],
        "placetype": [
          "aat:300008347"
        ],
        "id": 7408538,
        "name:xx": "Manico"
      }
    },
    {
      "geometry": {
        "type": "Point",
        "coordinates": [
          -99.916667,
          20.1875
        ]
      },
      "type": "Feature",
      "properties": {
        "hierarchy": [
          "tgn:7408539",
          "tgn:1000001",
          "tgn:1001893",
          "tgn:7005560",
          "tgn:7029392"
        ],
        "placetype": [
          "aat:300008347"
        ],
        "id": 7408539,
        "name:xx": "La Pera"
      }
    }
  ]
}
