{
  "type": "FeatureCollection",
  "features": [
    {
      "geometry": {
        "type": "Point",
        "coordinates": [
          71.983333,
          22.766667
        ]
      },
      "type": "Feature",
      "properties": {
        "hierarchy": [
          "tgn:7557451",
          "tgn:1000004",
          "tgn:1001869",
          "tgn:7000198",
          "tgn:7029392"
        ],
        "placetype": [
          "aat:300008347"
        ],
        "name:en": "Ranagadh",
        "id": 7557451
      }
    },
    {
      "geometry": {
        "type": "Point",
        "coordinates": [
          84.433333,
          19.866667
        ]
      },
      "type": "Feature",
      "properties": {
        "hierarchy": [
          "tgn:7557452",
          "tgn:1000004",
          "tgn:7000198",
          "tgn:7016694",
          "tgn:7029392"
        ],
        "placetype": [
          "aat:300008347"
        ],
        "name:en": "Ranaba",
        "id": 7557452
      }
    },
    {
      "geometry": {
        "type": "Point",
        "coordinates": [
          70.471584,
          23.544893
        ]
      },
      "type": "Feature",
      "properties": {
        "hierarchy": [
          "tgn:7557453",
          "tgn:1000004",
          "tgn:1001869",
          "tgn:7000198",
          "tgn:7029392"
        ],
        "placetype": [
          "aat:300008347"
        ],
        "name:en": "Ramwao",
        "id": 7557453
      }
    },
    {
      "geometry": {
        "type": "Point",
        "coordinates": [
          75.154896,
          29.952728
        ]
      },
      "type": "Feature",
      "properties": {
        "hierarchy": [
          "tgn:7557454",
          "tgn:1000004",
          "tgn:7000198",
          "tgn:7016883",
          "tgn:7029392"
        ],
        "placetype": [
          "aat:300008347"
        ],
        "name:en": "Rām Tirāth Jāga",
        "id": 7557454
      }
    },
    {
      "geometry": {
        "type": "Point",
        "coordinates": [
          89.216101,
          26.473049
        ]
      },
      "type": "Feature",
      "properties": {
        "hierarchy": [
          "tgn:7557455",
          "tgn:1000004",
          "tgn:7000198",
          "tgn:1001977",
          "tgn:7029392"
        ],
        "placetype": [
          "aat:300008347"
        ],
        "name:en": "Rāmthenga",
        "id": 7557455
      }
    },
    {
      "geometry": {
        "type": "Point",
        "coordinates": [
          83.112441,
          21.493249
        ]
      },
      "type": "Feature",
      "properties": {
        "hierarchy": [
          "tgn:7557456",
          "tgn:1000004",
          "tgn:7031781",
          "tgn:7000198",
          "tgn:7029392"
        ],
        "placetype": [
          "aat:300008347"
        ],
        "name:en": "Rāmtek",
        "id": 7557456
      }
    },
    {
      "geometry": {
        "type": "Point",
        "coordinates": [
          75.193374,
          33.337747
        ]
      },
      "type": "Feature",
      "properties": {
        "hierarchy": [
          "tgn:7557458",
          "tgn:1000004",
          "tgn:7000198",
          "tgn:7000799",
          "tgn:7029392"
        ],
        "placetype": [
          "aat:300008347"
        ],
        "name:en": "Rāmsu",
        "id": 7557458
      }
    },
    {
      "geometry": {
        "type": "Point",
        "coordinates": [
          75.397269,
          28.925326
        ]
      },
      "type": "Feature",
      "properties": {
        "hierarchy": [
          "tgn:7557459",
          "tgn:1000004",
          "tgn:7000198",
          "tgn:7016788",
          "tgn:7029392"
        ],
        "placetype": [
          "aat:300008347"
        ],
        "name:en": "Rāmsarātāl",
        "id": 7557459
      }
    }
  ]
}
