{
  "type": "FeatureCollection",
  "features": [
    {
      "geometry": {
        "type": "Point",
        "coordinates": [
          121.267796,
          24.878044
        ]
      },
      "type": "Feature",
      "properties": {
        "hierarchy": [
          "tgn:7495201",
          "tgn:1000004",
          "tgn:7001013",
          "tgn:1000141",
          "tgn:7029392"
        ],
        "placetype": [
          "aat:300006610"
        ],
        "id": 7495201,
        "name:xx": "Zhongzheng Ligong Xueyuan"
      }
    },
    {
      "geometry": {
        "type": "Point",
        "coordinates": [
          121.268733,
          24.885632
        ]
      },
      "type": "Feature",
      "properties": {
        "hierarchy": [
          "tgn:7495202",
          "tgn:1000004",
          "tgn:7001013",
          "tgn:1000141",
          "tgn:7029392"
        ],
        "placetype": [
          "aat:300007595"
        ],
        "id": 7495202,
        "name:xx": "Sanyuan Gong"
      }
    },
    {
      "geometry": {
        "type": "Point",
        "coordinates": [
          121.265889,
          24.883472
        ]
      },
      "type": "Feature",
      "properties": {
        "hierarchy": [
          "tgn:7495203",
          "tgn:1000004",
          "tgn:7001013",
          "tgn:1000141",
          "tgn:7029392"
        ],
        "placetype": [
          "aat:300006495"
        ],
        "id": 7495203,
        "name:xx": "Yuanshulin Guoxiao"
      }
    },
    {
      "geometry": {
        "type": "Point",
        "coordinates": [
          121.285048,
          24.881818
        ]
      },
      "type": "Feature",
      "properties": {
        "hierarchy": [
          "tgn:7495204",
          "tgn:1000004",
          "tgn:7001013",
          "tgn:1000141",
          "tgn:7029392"
        ],
        "placetype": [
          "aat:300004792"
        ],
        "id": 7495204,
        "name:xx": "Jianggong Jiniantang"
      }
    },
    {
      "geometry": {
        "type": "Point",
        "coordinates": [
          121.284763,
          24.883452
        ]
      },
      "type": "Feature",
      "properties": {
        "hierarchy": [
          "tgn:7495205",
          "tgn:1000004",
          "tgn:7001013",
          "tgn:1000141",
          "tgn:7029392"
        ],
        "placetype": [
          "aat:300008187"
        ],
        "id": 7495205,
        "name:xx": "Zhongzheng Gongyuan"
      }
    },
    {
      "geometry": {
        "type": "Point",
        "coordinates": [
          121.296214,
          24.878374
        ]
      },
      "type": "Feature",
      "properties": {
        "hierarchy": [
          "tgn:7495206",
          "tgn:1000004",
          "tgn:7001013",
          "tgn:1000141",
          "tgn:7029392"
        ],
        "placetype": [
          "aat:300006495"
        ],
        "id": 7495206,
        "name:xx": "Daxi Guozhong"
      }
    },
    {
      "geometry": {
        "type": "Point",
        "coordinates": [
          121.286474,
          24.883766
        ]
      },
      "type": "Feature",
      "properties": {
        "hierarchy": [
          "tgn:7495207",
          "tgn:1000004",
          "tgn:7001013",
          "tgn:1000141",
          "tgn:7029392"
        ],
        "placetype": [
          "aat:300006495"
        ],
        "id": 7495207,
        "name:xx": "Daxi Guoxiao"
      }
    },
    {
      "geometry": {
        "type": "Point",
        "coordinates": [
          121.283263,
          24.884845
        ]
      },
      "type": "Feature",
      "properties": {
        "hierarchy": [
          "tgn:7495208",
          "tgn:1000004",
          "tgn:7001013",
          "tgn:1000141",
          "tgn:7029392"
        ],
        "placetype": [
          "aat:300007836"
        ],
        "id": 7495208,
        "name:xx": "Daxi Qiao"
      }
    },
    {
      "geometry": {
        "type": "Point",
        "coordinates": [
          121.282362,
          24.889675
        ]
      },
      "type": "Feature",
      "properties": {
        "hierarchy": [
          "tgn:7495209",
          "tgn:1000004",
          "tgn:7001013",
          "tgn:1000141",
          "tgn:7029392"
        ],
        "placetype": [
          "aat:300007836"
        ],
        "id": 7495209,
        "name:xx": "Wuling Qiao"
      }
    }
  ]
}
