{
  "type": "FeatureCollection",
  "features": [
    {
      "geometry": {
        "type": "Point",
        "coordinates": [
          76.702493,
          29.362645
        ]
      },
      "type": "Feature",
      "properties": {
        "hierarchy": [
          "tgn:7580040",
          "tgn:1000004",
          "tgn:1001871",
          "tgn:7000198",
          "tgn:7029392"
        ],
        "placetype": [
          "aat:300008347"
        ],
        "name:en": "Urlāna Khurd",
        "id": 7580040
      }
    },
    {
      "geometry": {
        "type": "Point",
        "coordinates": [
          76.691242,
          29.344667
        ]
      },
      "type": "Feature",
      "properties": {
        "hierarchy": [
          "tgn:7580041",
          "tgn:1000004",
          "tgn:1001871",
          "tgn:7000198",
          "tgn:7029392"
        ],
        "placetype": [
          "aat:300008347"
        ],
        "name:en": "Urlāna Kalān",
        "id": 7580041
      }
    },
    {
      "geometry": {
        "type": "Point",
        "coordinates": [
          77.420036,
          29.614771
        ]
      },
      "type": "Feature",
      "properties": {
        "hierarchy": [
          "tgn:7580042",
          "tgn:1000004",
          "tgn:7000198",
          "tgn:7016722",
          "tgn:7029392"
        ],
        "placetype": [
          "aat:300007783"
        ],
        "name:en": "Thāna Bhawan",
        "id": 7580042
      }
    },
    {
      "geometry": {
        "type": "Point",
        "coordinates": [
          77.41712,
          29.586533
        ]
      },
      "type": "Feature",
      "properties": {
        "hierarchy": [
          "tgn:7580043",
          "tgn:1000004",
          "tgn:7000198",
          "tgn:7016722",
          "tgn:7029392"
        ],
        "placetype": [
          "aat:300008347"
        ],
        "name:en": "Thāna Bhawan",
        "id": 7580043
      }
    },
    {
      "geometry": {
        "type": "Point",
        "coordinates": [
          75.515348,
          33.30634
        ]
      },
      "type": "Feature",
      "properties": {
        "hierarchy": [
          "tgn:7580044",
          "tgn:1000004",
          "tgn:7000198",
          "tgn:7000799",
          "tgn:7029392"
        ],
        "placetype": [
          "aat:300008347"
        ],
        "name:en": "Thāna",
        "id": 7580044
      }
    },
    {
      "geometry": {
        "type": "Point",
        "coordinates": [
          71.183333,
          22.566667
        ]
      },
      "type": "Feature",
      "properties": {
        "hierarchy": [
          "tgn:7580045",
          "tgn:1000004",
          "tgn:1001869",
          "tgn:7000198",
          "tgn:7029392"
        ],
        "placetype": [
          "aat:300008347"
        ],
        "name:en": "Thān",
        "id": 7580045
      }
    },
    {
      "geometry": {
        "type": "Point",
        "coordinates": [
          75.925434,
          34.201984
        ]
      },
      "type": "Feature",
      "properties": {
        "hierarchy": [
          "tgn:7580046",
          "tgn:1000004",
          "tgn:7000198",
          "tgn:7000799",
          "tgn:7029392"
        ],
        "placetype": [
          "aat:300008347"
        ],
        "name:en": "Thamo",
        "id": 7580046
      }
    },
    {
      "geometry": {
        "type": "Point",
        "coordinates": [
          71.816667,
          18.816667
        ]
      },
      "type": "Feature",
      "properties": {
        "hierarchy": [
          "tgn:7580047",
          "tgn:1000004",
          "tgn:7000198",
          "tgn:1001895",
          "tgn:7029392"
        ],
        "placetype": [
          "aat:300387036"
        ],
        "name:en": "Thal Shoal",
        "id": 7580047
      }
    },
    {
      "geometry": {
        "type": "Point",
        "coordinates": [
          72.85,
          19.766667
        ]
      },
      "type": "Feature",
      "properties": {
        "hierarchy": [
          "tgn:7580048",
          "tgn:1000004",
          "tgn:7000198",
          "tgn:1001895",
          "tgn:7029392"
        ],
        "placetype": [
          "aat:300008808"
        ],
        "name:en": "Thal Reef",
        "id": 7580048
      }
    },
    {
      "geometry": {
        "type": "Point",
        "coordinates": [
          75.156116,
          32.755754
        ]
      },
      "type": "Feature",
      "properties": {
        "hierarchy": [
          "tgn:7580049",
          "tgn:1000004",
          "tgn:7000198",
          "tgn:7000799",
          "tgn:7029392"
        ],
        "placetype": [
          "aat:300008347"
        ],
        "name:en": "Thalora",
        "id": 7580049
      }
    }
  ]
}
