{
  "type": "FeatureCollection",
  "features": [
    {
      "geometry": {
        "type": "Point",
        "coordinates": [
          120.580556,
          24.279167
        ]
      },
      "type": "Feature",
      "properties": {
        "hierarchy": [
          "tgn:7484030",
          "tgn:1000004",
          "tgn:7001009",
          "tgn:1000141",
          "tgn:7029392"
        ],
        "placetype": [
          "aat:300008347"
        ],
        "id": 7484030,
        "name:xx": "Xinjiedianzi"
      }
    },
    {
      "geometry": {
        "type": "Point",
        "coordinates": [
          120.602222,
          24.285833
        ]
      },
      "type": "Feature",
      "properties": {
        "hierarchy": [
          "tgn:7484031",
          "tgn:1000004",
          "tgn:7001009",
          "tgn:1000141",
          "tgn:7029392"
        ],
        "placetype": [
          "aat:300008347"
        ],
        "id": 7484031,
        "name:xx": "Wugushan"
      }
    },
    {
      "geometry": {
        "type": "Point",
        "coordinates": [
          120.596944,
          24.295556
        ]
      },
      "type": "Feature",
      "properties": {
        "hierarchy": [
          "tgn:7484032",
          "tgn:1000004",
          "tgn:7001009",
          "tgn:1000141",
          "tgn:7029392"
        ],
        "placetype": [
          "aat:300008347"
        ],
        "id": 7484032,
        "name:xx": "Rongzijiao"
      }
    },
    {
      "geometry": {
        "type": "Point",
        "coordinates": [
          120.589444,
          24.292222
        ]
      },
      "type": "Feature",
      "properties": {
        "hierarchy": [
          "tgn:7484033",
          "tgn:1000004",
          "tgn:7001009",
          "tgn:1000141",
          "tgn:7029392"
        ],
        "placetype": [
          "aat:300008347"
        ],
        "id": 7484033,
        "name:xx": "Qiongzijiao"
      }
    },
    {
      "geometry": {
        "type": "Point",
        "coordinates": [
          120.571389,
          24.285
        ]
      },
      "type": "Feature",
      "properties": {
        "hierarchy": [
          "tgn:7484034",
          "tgn:1000004",
          "tgn:7001009",
          "tgn:1000141",
          "tgn:7029392"
        ],
        "placetype": [
          "aat:300008347"
        ],
        "id": 7484034,
        "name:xx": "Tushiweng"
      }
    },
    {
      "geometry": {
        "type": "Point",
        "coordinates": [
          120.558611,
          24.283889
        ]
      },
      "type": "Feature",
      "properties": {
        "hierarchy": [
          "tgn:7484035",
          "tgn:1000004",
          "tgn:7001009",
          "tgn:1000141",
          "tgn:7029392"
        ],
        "placetype": [
          "aat:300008347"
        ],
        "id": 7484035,
        "name:xx": "Xiagouhou"
      }
    },
    {
      "geometry": {
        "type": "Point",
        "coordinates": [
          120.542778,
          24.271111
        ]
      },
      "type": "Feature",
      "properties": {
        "hierarchy": [
          "tgn:7484036",
          "tgn:1000004",
          "tgn:7001009",
          "tgn:1000141",
          "tgn:7029392"
        ],
        "placetype": [
          "aat:300008347"
        ],
        "id": 7484036,
        "name:xx": "Gonglun"
      }
    },
    {
      "geometry": {
        "type": "Point",
        "coordinates": [
          120.531111,
          24.262778
        ]
      },
      "type": "Feature",
      "properties": {
        "hierarchy": [
          "tgn:7484038",
          "tgn:1000004",
          "tgn:7001009",
          "tgn:1000141",
          "tgn:7029392"
        ],
        "placetype": [
          "aat:300008347"
        ],
        "id": 7484038,
        "name:xx": "Shangliao"
      }
    },
    {
      "geometry": {
        "type": "Point",
        "coordinates": [
          120.53,
          24.264167
        ]
      },
      "type": "Feature",
      "properties": {
        "hierarchy": [
          "tgn:7484039",
          "tgn:1000004",
          "tgn:7001009",
          "tgn:1000141",
          "tgn:7029392"
        ],
        "placetype": [
          "aat:300006676"
        ],
        "id": 7484039,
        "name:xx": "Haijun Yiyuan"
      }
    }
  ]
}
