{
  "type": "FeatureCollection",
  "features": [
    {
      "geometry": {
        "type": "Point",
        "coordinates": [
          120.49336,
          23.740817
        ]
      },
      "type": "Feature",
      "properties": {
        "hierarchy": [
          "tgn:7493170",
          "tgn:1000004",
          "tgn:7001014",
          "tgn:1000141",
          "tgn:7029392"
        ],
        "placetype": [
          "aat:300006075"
        ],
        "id": 7493170,
        "name:xx": "Huilaicuo Paishui"
      }
    },
    {
      "geometry": {
        "type": "Point",
        "coordinates": [
          120.502953,
          23.599736
        ]
      },
      "type": "Feature",
      "properties": {
        "hierarchy": [
          "tgn:7493171",
          "tgn:7468018",
          "tgn:1000004",
          "tgn:1000141",
          "tgn:7029392"
        ],
        "placetype": [
          "aat:300008699"
        ],
        "id": 7493171,
        "name:xx": "Dabumei Xi"
      }
    },
    {
      "geometry": {
        "type": "Point",
        "coordinates": [
          120.464809,
          23.603628
        ]
      },
      "type": "Feature",
      "properties": {
        "hierarchy": [
          "tgn:7493172",
          "tgn:7468018",
          "tgn:1000004",
          "tgn:1000141",
          "tgn:7029392"
        ],
        "placetype": [
          "aat:300008688"
        ],
        "id": 7493172,
        "name:xx": "Xin Pi"
      }
    },
    {
      "geometry": {
        "type": "Point",
        "coordinates": [
          120.458643,
          23.607775
        ]
      },
      "type": "Feature",
      "properties": {
        "hierarchy": [
          "tgn:7493173",
          "tgn:7468018",
          "tgn:1000004",
          "tgn:1000141",
          "tgn:7029392"
        ],
        "placetype": [
          "aat:300006075"
        ],
        "id": 7493173,
        "name:xx": "Xinpi Paishui"
      }
    },
    {
      "geometry": {
        "type": "Point",
        "coordinates": [
          120.406624,
          23.611072
        ]
      },
      "type": "Feature",
      "properties": {
        "hierarchy": [
          "tgn:7493174",
          "tgn:7468018",
          "tgn:1000004",
          "tgn:1000141",
          "tgn:7029392"
        ],
        "placetype": [
          "aat:300006156"
        ],
        "id": 7493174,
        "name:xx": "Zhujiao Ti"
      }
    },
    {
      "geometry": {
        "type": "Point",
        "coordinates": [
          120.406508,
          23.608824
        ]
      },
      "type": "Feature",
      "properties": {
        "hierarchy": [
          "tgn:7493175",
          "tgn:7468018",
          "tgn:1000004",
          "tgn:1000141",
          "tgn:7029392"
        ],
        "placetype": [
          "aat:300006156"
        ],
        "id": 7493175,
        "name:xx": "Chenjingliao Ti"
      }
    },
    {
      "geometry": {
        "type": "Point",
        "coordinates": [
          120.479237,
          23.716416
        ]
      },
      "type": "Feature",
      "properties": {
        "hierarchy": [
          "tgn:7493176",
          "tgn:1000004",
          "tgn:7001014",
          "tgn:1000141",
          "tgn:7029392"
        ],
        "placetype": [
          "aat:300006075"
        ],
        "id": 7493176,
        "name:xx": "Anqing Zhen Daofenxian"
      }
    },
    {
      "geometry": {
        "type": "Point",
        "coordinates": [
          120.364536,
          23.58492
        ]
      },
      "type": "Feature",
      "properties": {
        "hierarchy": [
          "tgn:7493177",
          "tgn:7468018",
          "tgn:1000004",
          "tgn:1000141",
          "tgn:7029392"
        ],
        "placetype": [
          "aat:300007836"
        ],
        "id": 7493177,
        "name:xx": "Guogang Qiao"
      }
    },
    {
      "geometry": {
        "type": "Point",
        "coordinates": [
          120.401442,
          23.67708
        ]
      },
      "type": "Feature",
      "properties": {
        "hierarchy": [
          "tgn:7493178",
          "tgn:1000004",
          "tgn:7001014",
          "tgn:1000141",
          "tgn:7029392"
        ],
        "placetype": [
          "aat:300006075"
        ],
        "id": 7493178,
        "name:xx": "Nanda Zhen Ganxian"
      }
    },
    {
      "geometry": {
        "type": "Point",
        "coordinates": [
          120.412759,
          23.677603
        ]
      },
      "type": "Feature",
      "properties": {
        "hierarchy": [
          "tgn:7493179",
          "tgn:1000004",
          "tgn:7001014",
          "tgn:1000141",
          "tgn:7029392"
        ],
        "placetype": [
          "aat:300006156"
        ],
        "id": 7493179,
        "name:xx": "Yingchuan Tifang"
      }
    }
  ]
}
