{
  "type": "FeatureCollection",
  "features": [
    {
      "geometry": {
        "type": "Point",
        "coordinates": [
          74.238889,
          33.152778
        ]
      },
      "type": "Feature",
      "properties": {
        "hierarchy": [
          "tgn:7592020",
          "tgn:1000004",
          "tgn:7000198",
          "tgn:7000799",
          "tgn:7029392"
        ],
        "placetype": [
          "aat:300008347"
        ],
        "name:en": "Hāthi Danad",
        "id": 7592020
      }
    },
    {
      "geometry": {
        "type": "Point",
        "coordinates": [
          74.233333,
          33.158333
        ]
      },
      "type": "Feature",
      "properties": {
        "hierarchy": [
          "tgn:7592021",
          "tgn:1000004",
          "tgn:7000198",
          "tgn:7000799",
          "tgn:7029392"
        ],
        "placetype": [
          "aat:300008347"
        ],
        "name:en": "Tapiāla",
        "id": 7592021
      }
    },
    {
      "geometry": {
        "type": "Point",
        "coordinates": [
          74.222222,
          33.158333
        ]
      },
      "type": "Feature",
      "properties": {
        "hierarchy": [
          "tgn:7592022",
          "tgn:1000004",
          "tgn:7000198",
          "tgn:7000799",
          "tgn:7029392"
        ],
        "placetype": [
          "aat:300008347"
        ],
        "name:en": "Rediān",
        "id": 7592022
      }
    },
    {
      "geometry": {
        "type": "Point",
        "coordinates": [
          74.219444,
          33.147222
        ]
      },
      "type": "Feature",
      "properties": {
        "hierarchy": [
          "tgn:7592023",
          "tgn:1000004",
          "tgn:7000198",
          "tgn:7000799",
          "tgn:7029392"
        ],
        "placetype": [
          "aat:300008699"
        ],
        "name:en": "Jambhār",
        "id": 7592023
      }
    },
    {
      "geometry": {
        "type": "Point",
        "coordinates": [
          74.208333,
          33.147222
        ]
      },
      "type": "Feature",
      "properties": {
        "hierarchy": [
          "tgn:7592024",
          "tgn:1000004",
          "tgn:7000198",
          "tgn:7000799",
          "tgn:7029392"
        ],
        "placetype": [
          "aat:300008347"
        ],
        "name:en": "Dalori",
        "id": 7592024
      }
    },
    {
      "geometry": {
        "type": "Point",
        "coordinates": [
          74.215278,
          33.148611
        ]
      },
      "type": "Feature",
      "properties": {
        "hierarchy": [
          "tgn:7592025",
          "tgn:1000004",
          "tgn:7000198",
          "tgn:7000799",
          "tgn:7029392"
        ],
        "placetype": [
          "aat:300008347"
        ],
        "name:en": "Potha",
        "id": 7592025
      }
    },
    {
      "geometry": {
        "type": "Point",
        "coordinates": [
          74.20943,
          33.15135
        ]
      },
      "type": "Feature",
      "properties": {
        "hierarchy": [
          "tgn:7592026",
          "tgn:1000004",
          "tgn:7000198",
          "tgn:7000799",
          "tgn:7029392"
        ],
        "placetype": [
          "aat:300008347"
        ],
        "name:en": "Nuniāl",
        "id": 7592026
      }
    },
    {
      "geometry": {
        "type": "Point",
        "coordinates": [
          74.794444,
          32.709722
        ]
      },
      "type": "Feature",
      "properties": {
        "hierarchy": [
          "tgn:7592027",
          "tgn:1000004",
          "tgn:7000198",
          "tgn:7000799",
          "tgn:7029392"
        ],
        "placetype": [
          "aat:300008347"
        ],
        "name:en": "Chhanni Nanak",
        "id": 7592027
      }
    },
    {
      "geometry": {
        "type": "Point",
        "coordinates": [
          74.804167,
          32.708333
        ]
      },
      "type": "Feature",
      "properties": {
        "hierarchy": [
          "tgn:7592028",
          "tgn:1000004",
          "tgn:7000198",
          "tgn:7000799",
          "tgn:7029392"
        ],
        "placetype": [
          "aat:300008347"
        ],
        "name:en": "Nandpur Gujrān",
        "id": 7592028
      }
    },
    {
      "geometry": {
        "type": "Point",
        "coordinates": [
          74.825,
          32.706944
        ]
      },
      "type": "Feature",
      "properties": {
        "hierarchy": [
          "tgn:7592029",
          "tgn:1000004",
          "tgn:7000198",
          "tgn:7000799",
          "tgn:7029392"
        ],
        "placetype": [
          "aat:300008347"
        ],
        "name:en": "Karnalle Chak",
        "id": 7592029
      }
    }
  ]
}
