{
  "type": "FeatureCollection",
  "features": [
    {
      "geometry": {
        "type": "Point",
        "coordinates": [
          -98.769444,
          20.358333
        ]
      },
      "type": "Feature",
      "properties": {
        "hierarchy": [
          "tgn:7413380",
          "tgn:7005587",
          "tgn:1000001",
          "tgn:7005560",
          "tgn:7029392"
        ],
        "placetype": [
          "aat:300008347"
        ],
        "id": 7413380,
        "name:es": "Sauz y Sabino"
      }
    },
    {
      "geometry": {
        "type": "Point",
        "coordinates": [
          -98.788889,
          20.333333
        ]
      },
      "type": "Feature",
      "properties": {
        "hierarchy": [
          "tgn:7413381",
          "tgn:7005587",
          "tgn:1000001",
          "tgn:7005560",
          "tgn:7029392"
        ],
        "placetype": [
          "aat:300008347"
        ],
        "id": 7413381,
        "name:es": "Doñana"
      }
    },
    {
      "geometry": {
        "type": "Point",
        "coordinates": [
          -98.666667,
          20.297222
        ]
      },
      "type": "Feature",
      "properties": {
        "hierarchy": [
          "tgn:7413383",
          "tgn:7005587",
          "tgn:1000001",
          "tgn:7005560",
          "tgn:7029392"
        ],
        "placetype": [
          "aat:300008347"
        ],
        "id": 7413383,
        "name:es": "La Puebla"
      }
    },
    {
      "geometry": {
        "type": "Point",
        "coordinates": [
          -98.719444,
          20.315278
        ]
      },
      "type": "Feature",
      "properties": {
        "hierarchy": [
          "tgn:7413384",
          "tgn:7005587",
          "tgn:1000001",
          "tgn:7005560",
          "tgn:7029392"
        ],
        "placetype": [
          "aat:300008699"
        ],
        "id": 7413384,
        "name:es": "Amajac, Río"
      }
    },
    {
      "geometry": {
        "type": "Point",
        "coordinates": [
          -98.675,
          20.283333
        ]
      },
      "type": "Feature",
      "properties": {
        "hierarchy": [
          "tgn:7413385",
          "tgn:7005587",
          "tgn:1000001",
          "tgn:7005560",
          "tgn:7029392"
        ],
        "placetype": [
          "aat:300008347"
        ],
        "id": 7413385,
        "name:es": "San Miguel"
      }
    },
    {
      "geometry": {
        "type": "Point",
        "coordinates": [
          -98.733333,
          20.329167
        ]
      },
      "type": "Feature",
      "properties": {
        "hierarchy": [
          "tgn:7413386",
          "tgn:7005587",
          "tgn:1000001",
          "tgn:7005560",
          "tgn:7029392"
        ],
        "placetype": [
          "aat:300008347"
        ],
        "id": 7413386,
        "name:es": "Santa María Amajac"
      }
    },
    {
      "geometry": {
        "type": "Point",
        "coordinates": [
          -98.688889,
          20.373611
        ]
      },
      "type": "Feature",
      "properties": {
        "hierarchy": [
          "tgn:7413387",
          "tgn:7005587",
          "tgn:1000001",
          "tgn:7005560",
          "tgn:7029392"
        ],
        "placetype": [
          "aat:300008347"
        ],
        "id": 7413387,
        "name:es": "El Cortadero"
      }
    },
    {
      "geometry": {
        "type": "Point",
        "coordinates": [
          -98.705556,
          20.408333
        ]
      },
      "type": "Feature",
      "properties": {
        "hierarchy": [
          "tgn:7413388",
          "tgn:7005587",
          "tgn:1000001",
          "tgn:7005560",
          "tgn:7029392"
        ],
        "placetype": [
          "aat:300008347"
        ],
        "id": 7413388,
        "name:es": "Cerro Colorado"
      }
    },
    {
      "geometry": {
        "type": "Point",
        "coordinates": [
          -98.675,
          20.458333
        ]
      },
      "type": "Feature",
      "properties": {
        "hierarchy": [
          "tgn:7413389",
          "tgn:7005587",
          "tgn:1000001",
          "tgn:7005560",
          "tgn:7029392"
        ],
        "placetype": [
          "aat:300008347"
        ],
        "id": 7413389,
        "name:es": "Cacalomé"
      }
    }
  ]
}
