{
  "type": "FeatureCollection",
  "features": [
    {
      "geometry": {
        "type": "Point",
        "coordinates": [
          47.9167,
          56.6667
        ]
      },
      "type": "Feature",
      "properties": {
        "hierarchy": [
          "tgn:1054750",
          "tgn:1000004",
          "tgn:7014795",
          "tgn:7002435",
          "tgn:7029392"
        ],
        "placetype": [
          "aat:300008347",
          "aat:300008389",
          "aat:300387220",
          "aat:300387270"
        ],
        "id": 1054750,
        "name:xx": "Yoshkar-Ola"
      }
    },
    {
      "geometry": {
        "type": "Point",
        "coordinates": [
          24.3167,
          55.0667
        ]
      },
      "type": "Feature",
      "properties": {
        "hierarchy": [
          "tgn:1054751",
          "tgn:7006558",
          "tgn:1000003",
          "tgn:7006542",
          "tgn:7029392"
        ],
        "placetype": [
          "aat:300008347",
          "aat:300387222"
        ],
        "id": 1054751,
        "name:xx": "Jonava"
      }
    },
    {
      "geometry": {
        "type": "Point",
        "coordinates": [
          24.1667,
          56.0333
        ]
      },
      "type": "Feature",
      "properties": {
        "hierarchy": [
          "tgn:1054752",
          "tgn:1000003",
          "tgn:7006597",
          "tgn:7006542",
          "tgn:7029392"
        ],
        "placetype": [
          "aat:300008347"
        ],
        "id": 1054752,
        "name:xx": "Joniškėlis"
      }
    },
    {
      "geometry": {
        "type": "Point",
        "coordinates": [
          23.5333,
          56.2667
        ]
      },
      "type": "Feature",
      "properties": {
        "hierarchy": [
          "tgn:1054753",
          "tgn:7006559",
          "tgn:1000003",
          "tgn:7006542",
          "tgn:7029392"
        ],
        "placetype": [
          "aat:300008347",
          "aat:300387222"
        ],
        "id": 1054753,
        "name:xx": "Joniskis"
      }
    },
    {
      "geometry": {
        "type": "Point",
        "coordinates": [
          64.2833,
          57.0667
        ]
      },
      "type": "Feature",
      "properties": {
        "hierarchy": [
          "tgn:1054754",
          "tgn:1000004",
          "tgn:7011600",
          "tgn:7018214",
          "tgn:7002435",
          "tgn:7029392"
        ],
        "placetype": [
          "aat:300008347"
        ],
        "id": 1054754,
        "name:xx": "Yushala"
      }
    },
    {
      "geometry": {
        "type": "Point",
        "coordinates": [
          45.1833,
          59.7667
        ]
      },
      "type": "Feature",
      "properties": {
        "hierarchy": [
          "tgn:1054755",
          "tgn:1000004",
          "tgn:7017317",
          "tgn:7018214",
          "tgn:7002435",
          "tgn:7029392"
        ],
        "placetype": [
          "aat:300008347"
        ],
        "id": 1054755,
        "name:xx": "Yushkovo"
      }
    },
    {
      "geometry": {
        "type": "Point",
        "coordinates": [
          32.05,
          64.75
        ]
      },
      "type": "Feature",
      "properties": {
        "hierarchy": [
          "tgn:1054756",
          "tgn:1000004",
          "tgn:7011509",
          "tgn:7002435",
          "tgn:7029392"
        ],
        "placetype": [
          "aat:300008347"
        ],
        "id": 1054756,
        "name:xx": "Yushkozero"
      }
    },
    {
      "geometry": {
        "type": "Point",
        "coordinates": [
          42.0167,
          56.5667
        ]
      },
      "type": "Feature",
      "properties": {
        "hierarchy": [
          "tgn:1054757",
          "tgn:1000004",
          "tgn:7011566",
          "tgn:7018214",
          "tgn:7002435",
          "tgn:7029392"
        ],
        "placetype": [
          "aat:300008347"
        ],
        "id": 1054757,
        "name:xx": "Yuzha"
      }
    },
    {
      "geometry": {
        "type": "Point",
        "coordinates": [
          96.1667,
          55.85
        ]
      },
      "type": "Feature",
      "properties": {
        "hierarchy": [
          "tgn:1054758",
          "tgn:1000004",
          "tgn:1003314",
          "tgn:7018214",
          "tgn:7002435",
          "tgn:7029392"
        ],
        "placetype": [
          "aat:300008347"
        ],
        "id": 1054758,
        "name:xx": "Yuzhno-Aleksandrovka"
      }
    },
    {
      "geometry": {
        "type": "Point",
        "coordinates": [
          94.55,
          58.8167
        ]
      },
      "type": "Feature",
      "properties": {
        "hierarchy": [
          "tgn:1054759",
          "tgn:1000004",
          "tgn:1003314",
          "tgn:7018214",
          "tgn:7002435",
          "tgn:7029392"
        ],
        "placetype": [
          "aat:300008347"
        ],
        "id": 1054759,
        "name:xx": "Yuzhno-Yeniseyskiy"
      }
    }
  ]
}
