{
  "type": "FeatureCollection",
  "features": [
    {
      "geometry": {
        "type": "Point",
        "coordinates": [
          120.604366,
          23.957968
        ]
      },
      "type": "Feature",
      "properties": {
        "hierarchy": [
          "tgn:7475470",
          "tgn:1000004",
          "tgn:7467799",
          "tgn:1000141",
          "tgn:7029392"
        ],
        "placetype": [
          "aat:300006610"
        ],
        "id": 7475470,
        "name:xx": "Zhongzhou Jishu Xueyuan"
      }
    },
    {
      "geometry": {
        "type": "Point",
        "coordinates": [
          120.6273,
          23.963
        ]
      },
      "type": "Feature",
      "properties": {
        "hierarchy": [
          "tgn:7475471",
          "tgn:7488858",
          "tgn:1000004",
          "tgn:1000141",
          "tgn:7029392"
        ],
        "placetype": [
          "aat:300006495"
        ],
        "id": 7475471,
        "name:xx": "Wende Guoxiao"
      }
    },
    {
      "geometry": {
        "type": "Point",
        "coordinates": [
          120.58763,
          23.961835
        ]
      },
      "type": "Feature",
      "properties": {
        "hierarchy": [
          "tgn:7475472",
          "tgn:1000004",
          "tgn:7467799",
          "tgn:1000141",
          "tgn:7029392"
        ],
        "placetype": [
          "aat:300007836"
        ],
        "id": 7475472,
        "name:xx": "Dongsantiao Qiao"
      }
    },
    {
      "geometry": {
        "type": "Point",
        "coordinates": [
          120.5803,
          23.7581
        ]
      },
      "type": "Feature",
      "properties": {
        "hierarchy": [
          "tgn:7475473",
          "tgn:1000004",
          "tgn:7001014",
          "tgn:1000141",
          "tgn:7029392"
        ],
        "placetype": [
          "aat:300387033"
        ],
        "id": 7475473,
        "name:xx": "Jiuxionglin"
      }
    },
    {
      "geometry": {
        "type": "Point",
        "coordinates": [
          120.615602,
          23.753106
        ]
      },
      "type": "Feature",
      "properties": {
        "hierarchy": [
          "tgn:7475474",
          "tgn:1000004",
          "tgn:7001014",
          "tgn:1000141",
          "tgn:7029392"
        ],
        "placetype": [
          "aat:300007595"
        ],
        "id": 7475474,
        "name:xx": "Kongzi Miao"
      }
    },
    {
      "geometry": {
        "type": "Point",
        "coordinates": [
          120.618547,
          23.759541
        ]
      },
      "type": "Feature",
      "properties": {
        "hierarchy": [
          "tgn:7475475",
          "tgn:1000004",
          "tgn:7001014",
          "tgn:1000141",
          "tgn:7029392"
        ],
        "placetype": [
          "aat:300006495"
        ],
        "id": 7475475,
        "name:xx": "Linnei Guoxiao"
      }
    },
    {
      "geometry": {
        "type": "Point",
        "coordinates": [
          120.622409,
          23.763154
        ]
      },
      "type": "Feature",
      "properties": {
        "hierarchy": [
          "tgn:7475476",
          "tgn:1000004",
          "tgn:7001014",
          "tgn:1000141",
          "tgn:7029392"
        ],
        "placetype": [
          "aat:300007595"
        ],
        "id": 7475476,
        "name:xx": "Guoxing Miao"
      }
    },
    {
      "geometry": {
        "type": "Point",
        "coordinates": [
          120.6198,
          23.7669
        ]
      },
      "type": "Feature",
      "properties": {
        "hierarchy": [
          "tgn:7475477",
          "tgn:1000004",
          "tgn:7001014",
          "tgn:1000141",
          "tgn:7029392"
        ],
        "placetype": [
          "aat:300007836"
        ],
        "id": 7475477,
        "name:xx": "Xinkai Qiao"
      }
    },
    {
      "geometry": {
        "type": "Point",
        "coordinates": [
          120.613974,
          23.764895
        ]
      },
      "type": "Feature",
      "properties": {
        "hierarchy": [
          "tgn:7475478",
          "tgn:1000004",
          "tgn:7001014",
          "tgn:1000141",
          "tgn:7029392"
        ],
        "placetype": [
          "aat:300007836"
        ],
        "id": 7475478,
        "name:xx": "Linxi Qiao"
      }
    },
    {
      "geometry": {
        "type": "Point",
        "coordinates": [
          120.608647,
          23.768515
        ]
      },
      "type": "Feature",
      "properties": {
        "hierarchy": [
          "tgn:7475479",
          "tgn:1000004",
          "tgn:7001014",
          "tgn:1000141",
          "tgn:7029392"
        ],
        "placetype": [
          "aat:300007836"
        ],
        "id": 7475479,
        "name:xx": "Ren'ai Qiao"
      }
    }
  ]
}
