{
  "type": "FeatureCollection",
  "features": [
    {
      "geometry": {
        "type": "Point",
        "coordinates": [
          120.810261,
          24.445632
        ]
      },
      "type": "Feature",
      "properties": {
        "hierarchy": [
          "tgn:7496370",
          "tgn:7487020",
          "tgn:1000004",
          "tgn:1000141",
          "tgn:7029392"
        ],
        "placetype": [
          "aat:300008347"
        ],
        "id": 7496370,
        "name:xx": "Gaoqiaokeng"
      }
    },
    {
      "geometry": {
        "type": "Point",
        "coordinates": [
          120.813523,
          24.46588
        ]
      },
      "type": "Feature",
      "properties": {
        "hierarchy": [
          "tgn:7496371",
          "tgn:7487020",
          "tgn:1000004",
          "tgn:1000141",
          "tgn:7029392"
        ],
        "placetype": [
          "aat:300008347"
        ],
        "id": 7496371,
        "name:xx": "Dabu"
      }
    },
    {
      "geometry": {
        "type": "Point",
        "coordinates": [
          120.763211,
          24.335559
        ]
      },
      "type": "Feature",
      "properties": {
        "hierarchy": [
          "tgn:7496372",
          "tgn:7487020",
          "tgn:1000004",
          "tgn:1000141",
          "tgn:7029392"
        ],
        "placetype": [
          "aat:300007899"
        ],
        "id": 7496372,
        "name:xx": "Diqihao Suidao"
      }
    },
    {
      "geometry": {
        "type": "Point",
        "coordinates": [
          120.768573,
          24.349365
        ]
      },
      "type": "Feature",
      "properties": {
        "hierarchy": [
          "tgn:7496373",
          "tgn:7487020",
          "tgn:1000004",
          "tgn:1000141",
          "tgn:7029392"
        ],
        "placetype": [
          "aat:300007899"
        ],
        "id": 7496373,
        "name:xx": "Disihao Suidao"
      }
    },
    {
      "geometry": {
        "type": "Point",
        "coordinates": [
          120.883794,
          24.467998
        ]
      },
      "type": "Feature",
      "properties": {
        "hierarchy": [
          "tgn:7496374",
          "tgn:7487020",
          "tgn:1000004",
          "tgn:1000141",
          "tgn:7029392"
        ],
        "placetype": [
          "aat:300007595"
        ],
        "id": 7496374,
        "name:xx": "Hongfayuan"
      }
    },
    {
      "geometry": {
        "type": "Point",
        "coordinates": [
          120.900056,
          24.403114
        ]
      },
      "type": "Feature",
      "properties": {
        "hierarchy": [
          "tgn:7496375",
          "tgn:7487020",
          "tgn:1000004",
          "tgn:1000141",
          "tgn:7029392"
        ],
        "placetype": [
          "aat:300008347"
        ],
        "id": 7496375,
        "name:xx": "Shangfanshui"
      }
    },
    {
      "geometry": {
        "type": "Point",
        "coordinates": [
          120.899399,
          24.418341
        ]
      },
      "type": "Feature",
      "properties": {
        "hierarchy": [
          "tgn:7496376",
          "tgn:7487020",
          "tgn:1000004",
          "tgn:1000141",
          "tgn:7029392"
        ],
        "placetype": [
          "aat:300008347"
        ],
        "id": 7496376,
        "name:xx": "Zhepoukeng"
      }
    },
    {
      "geometry": {
        "type": "Point",
        "coordinates": [
          120.89473,
          24.426413
        ]
      },
      "type": "Feature",
      "properties": {
        "hierarchy": [
          "tgn:7496377",
          "tgn:7487020",
          "tgn:1000004",
          "tgn:1000141",
          "tgn:7029392"
        ],
        "placetype": [
          "aat:300008347"
        ],
        "id": 7496377,
        "name:xx": "Qiedongshu"
      }
    },
    {
      "geometry": {
        "type": "Point",
        "coordinates": [
          120.848374,
          24.406416
        ]
      },
      "type": "Feature",
      "properties": {
        "hierarchy": [
          "tgn:7496378",
          "tgn:7487020",
          "tgn:1000004",
          "tgn:1000141",
          "tgn:7029392"
        ],
        "placetype": [
          "aat:300008798"
        ],
        "id": 7496378,
        "name:xx": "Maohe Shan"
      }
    },
    {
      "geometry": {
        "type": "Point",
        "coordinates": [
          120.859445,
          24.486229
        ]
      },
      "type": "Feature",
      "properties": {
        "hierarchy": [
          "tgn:7496379",
          "tgn:7487020",
          "tgn:1000004",
          "tgn:1000141",
          "tgn:7029392"
        ],
        "placetype": [
          "aat:300008347"
        ],
        "id": 7496379,
        "name:xx": "Hengping"
      }
    }
  ]
}
