{
  "type": "FeatureCollection",
  "features": [
    {
      "geometry": {
        "type": "Point",
        "coordinates": [
          120.717366,
          23.271754
        ]
      },
      "type": "Feature",
      "properties": {
        "hierarchy": [
          "tgn:7472061",
          "tgn:7001004",
          "tgn:1000004",
          "tgn:1000141",
          "tgn:7029392"
        ],
        "placetype": [
          "aat:300008347"
        ],
        "id": 7472061,
        "name:xx": "Minsheng"
      }
    },
    {
      "geometry": {
        "type": "Point",
        "coordinates": [
          119.453333,
          24.991389
        ]
      },
      "type": "Feature",
      "properties": {
        "hierarchy": [
          "tgn:7472062",
          "tgn:7469009",
          "tgn:1000004",
          "tgn:1000141",
          "tgn:7029392"
        ],
        "placetype": [
          "aat:300008791"
        ],
        "id": 7472062,
        "name:xx": "Wuqiu Yu"
      }
    },
    {
      "geometry": {
        "type": "Point",
        "coordinates": [
          120.404656,
          23.803837
        ]
      },
      "type": "Feature",
      "properties": {
        "hierarchy": [
          "tgn:7472063",
          "tgn:1000004",
          "tgn:7001014",
          "tgn:1000141",
          "tgn:7029392"
        ],
        "placetype": [
          "aat:300008347"
        ],
        "id": 7472063,
        "name:xx": "Wujiucuo"
      }
    },
    {
      "geometry": {
        "type": "Point",
        "coordinates": [
          121.351852,
          24.897854
        ]
      },
      "type": "Feature",
      "properties": {
        "hierarchy": [
          "tgn:7472064",
          "tgn:1000004",
          "tgn:1000454",
          "tgn:1000141",
          "tgn:7029392"
        ],
        "placetype": [
          "aat:300008347"
        ],
        "id": 7472064,
        "name:xx": "Wujiu"
      }
    },
    {
      "geometry": {
        "type": "Point",
        "coordinates": [
          120.379167,
          22.749722
        ]
      },
      "type": "Feature",
      "properties": {
        "hierarchy": [
          "tgn:7472065",
          "tgn:7001004",
          "tgn:1000004",
          "tgn:1000141",
          "tgn:7029392"
        ],
        "placetype": [
          "aat:300008347"
        ],
        "id": 7472065,
        "name:xx": "Wuqitan"
      }
    },
    {
      "geometry": {
        "type": "Point",
        "coordinates": [
          120.416111,
          22.951389
        ]
      },
      "type": "Feature",
      "properties": {
        "hierarchy": [
          "tgn:7472066",
          "tgn:7001004",
          "tgn:1000004",
          "tgn:1000141",
          "tgn:7029392"
        ],
        "placetype": [
          "aat:300008347"
        ],
        "id": 7472066,
        "name:xx": "Wuqibu"
      }
    },
    {
      "geometry": {
        "type": "Point",
        "coordinates": [
          118.316667,
          24.433333
        ]
      },
      "type": "Feature",
      "properties": {
        "hierarchy": [
          "tgn:7472067",
          "tgn:7469009",
          "tgn:1000004",
          "tgn:1000141",
          "tgn:7029392"
        ],
        "placetype": [
          "aat:300008699"
        ],
        "id": 7472067,
        "name:xx": "Wujin Jiang"
      }
    },
    {
      "geometry": {
        "type": "Point",
        "coordinates": [
          120.303842,
          23.123058
        ]
      },
      "type": "Feature",
      "properties": {
        "hierarchy": [
          "tgn:7472068",
          "tgn:1000004",
          "tgn:7490934",
          "tgn:1000141",
          "tgn:7029392"
        ],
        "placetype": [
          "aat:300008347"
        ],
        "id": 7472068,
        "name:xx": "Zuojia"
      }
    },
    {
      "geometry": {
        "type": "Point",
        "coordinates": [
          120.407548,
          23.057276
        ]
      },
      "type": "Feature",
      "properties": {
        "hierarchy": [
          "tgn:7472069",
          "tgn:1000004",
          "tgn:7490934",
          "tgn:1000141",
          "tgn:7029392"
        ],
        "placetype": [
          "aat:300008347"
        ],
        "id": 7472069,
        "name:xx": "Zuozhen"
      }
    }
  ]
}
