{
  "type": "FeatureCollection",
  "features": [
    {
      "geometry": {
        "type": "Point",
        "coordinates": [
          120.968041,
          24.684164
        ]
      },
      "type": "Feature",
      "properties": {
        "hierarchy": [
          "tgn:7475710",
          "tgn:7487020",
          "tgn:1000004",
          "tgn:1000141",
          "tgn:7029392"
        ],
        "placetype": [
          "aat:300006610"
        ],
        "id": 7475710,
        "name:xx": "Qinmin Gongzhuan"
      }
    },
    {
      "geometry": {
        "type": "Point",
        "coordinates": [
          120.939683,
          24.682978
        ]
      },
      "type": "Feature",
      "properties": {
        "hierarchy": [
          "tgn:7475711",
          "tgn:7487020",
          "tgn:1000004",
          "tgn:1000141",
          "tgn:7029392"
        ],
        "placetype": [
          "aat:300008347"
        ],
        "id": 7475711,
        "name:xx": "Xiaxindian"
      }
    },
    {
      "geometry": {
        "type": "Point",
        "coordinates": [
          120.931243,
          24.686183
        ]
      },
      "type": "Feature",
      "properties": {
        "hierarchy": [
          "tgn:7475712",
          "tgn:7487020",
          "tgn:1000004",
          "tgn:1000141",
          "tgn:7029392"
        ],
        "placetype": [
          "aat:300008347"
        ],
        "id": 7475712,
        "name:xx": "Qizitou"
      }
    },
    {
      "geometry": {
        "type": "Point",
        "coordinates": [
          120.907918,
          24.680391
        ]
      },
      "type": "Feature",
      "properties": {
        "hierarchy": [
          "tgn:7475713",
          "tgn:7487020",
          "tgn:1000004",
          "tgn:1000141",
          "tgn:7029392"
        ],
        "placetype": [
          "aat:300007836"
        ],
        "id": 7475713,
        "name:xx": "Dongxing Daqiao"
      }
    },
    {
      "geometry": {
        "type": "Point",
        "coordinates": [
          120.898215,
          24.683913
        ]
      },
      "type": "Feature",
      "properties": {
        "hierarchy": [
          "tgn:7475714",
          "tgn:7487020",
          "tgn:1000004",
          "tgn:1000141",
          "tgn:7029392"
        ],
        "placetype": [
          "aat:300387302"
        ],
        "id": 7475714,
        "name:xx": "Toufen Gongyequ"
      }
    },
    {
      "geometry": {
        "type": "Point",
        "coordinates": [
          120.879173,
          24.700808
        ]
      },
      "type": "Feature",
      "properties": {
        "hierarchy": [
          "tgn:7475715",
          "tgn:7487020",
          "tgn:1000004",
          "tgn:1000141",
          "tgn:7029392"
        ],
        "placetype": [
          "aat:300008347"
        ],
        "id": 7475715,
        "name:xx": "Kantou"
      }
    },
    {
      "geometry": {
        "type": "Point",
        "coordinates": [
          120.922224,
          24.693063
        ]
      },
      "type": "Feature",
      "properties": {
        "hierarchy": [
          "tgn:7475716",
          "tgn:7487020",
          "tgn:1000004",
          "tgn:1000141",
          "tgn:7029392"
        ],
        "placetype": [
          "aat:300008347"
        ],
        "id": 7475716,
        "name:xx": "Shangbu"
      }
    },
    {
      "geometry": {
        "type": "Point",
        "coordinates": [
          120.999109,
          24.590452
        ]
      },
      "type": "Feature",
      "properties": {
        "hierarchy": [
          "tgn:7475717",
          "tgn:7487020",
          "tgn:1000004",
          "tgn:1000141",
          "tgn:7029392"
        ],
        "placetype": [
          "aat:300008347"
        ],
        "id": 7475717,
        "name:xx": "Lijinguan"
      }
    },
    {
      "geometry": {
        "type": "Point",
        "coordinates": [
          120.958395,
          24.705411
        ]
      },
      "type": "Feature",
      "properties": {
        "hierarchy": [
          "tgn:7475718",
          "tgn:1000004",
          "tgn:7471332",
          "tgn:1000141",
          "tgn:7029392"
        ],
        "placetype": [
          "aat:300008347"
        ],
        "id": 7475718,
        "name:xx": "Fengluque"
      }
    },
    {
      "geometry": {
        "type": "Point",
        "coordinates": [
          120.942453,
          24.701257
        ]
      },
      "type": "Feature",
      "properties": {
        "hierarchy": [
          "tgn:7475719",
          "tgn:1000004",
          "tgn:7471332",
          "tgn:1000141",
          "tgn:7029392"
        ],
        "placetype": [
          "aat:300008347"
        ],
        "id": 7475719,
        "name:xx": "Shangping"
      }
    }
  ]
}
