{
  "type": "FeatureCollection",
  "features": [
    {
      "geometry": {
        "type": "Point",
        "coordinates": [
          78.265239,
          24.909512
        ]
      },
      "type": "Feature",
      "properties": {
        "hierarchy": [
          "tgn:7582060",
          "tgn:1000004",
          "tgn:7000198",
          "tgn:7016722",
          "tgn:7029392"
        ],
        "placetype": [
          "aat:300008347"
        ],
        "name:en": "Menw훮ra",
        "id": 7582060
      }
    },
    {
      "geometry": {
        "type": "Point",
        "coordinates": [
          78.404446,
          24.84349
        ]
      },
      "type": "Feature",
      "properties": {
        "hierarchy": [
          "tgn:7582061",
          "tgn:1000004",
          "tgn:7000198",
          "tgn:7016722",
          "tgn:7029392"
        ],
        "placetype": [
          "aat:300008347"
        ],
        "name:en": "Arw훮ho",
        "id": 7582061
      }
    },
    {
      "geometry": {
        "type": "Point",
        "coordinates": [
          78.380131,
          24.844571
        ]
      },
      "type": "Feature",
      "properties": {
        "hierarchy": [
          "tgn:7582062",
          "tgn:1000004",
          "tgn:7000198",
          "tgn:7016722",
          "tgn:7029392"
        ],
        "placetype": [
          "aat:300008347"
        ],
        "name:en": "Dharampura",
        "id": 7582062
      }
    },
    {
      "geometry": {
        "type": "Point",
        "coordinates": [
          78.35922,
          24.85866
        ]
      },
      "type": "Feature",
      "properties": {
        "hierarchy": [
          "tgn:7582063",
          "tgn:1000004",
          "tgn:7000198",
          "tgn:7016722",
          "tgn:7029392"
        ],
        "placetype": [
          "aat:300008699"
        ],
        "name:en": "Bhati",
        "id": 7582063
      }
    },
    {
      "geometry": {
        "type": "Point",
        "coordinates": [
          78.359106,
          24.858202
        ]
      },
      "type": "Feature",
      "properties": {
        "hierarchy": [
          "tgn:7582064",
          "tgn:1000004",
          "tgn:7000198",
          "tgn:7016722",
          "tgn:7029392"
        ],
        "placetype": [
          "aat:300008699"
        ],
        "name:en": "Parara N훮la",
        "id": 7582064
      }
    },
    {
      "geometry": {
        "type": "Point",
        "coordinates": [
          78.362546,
          24.846788
        ]
      },
      "type": "Feature",
      "properties": {
        "hierarchy": [
          "tgn:7582065",
          "tgn:1000004",
          "tgn:7000198",
          "tgn:7016722",
          "tgn:7029392"
        ],
        "placetype": [
          "aat:300008865"
        ],
        "name:en": "Sirsi East Reserved Forest",
        "id": 7582065
      }
    },
    {
      "geometry": {
        "type": "Point",
        "coordinates": [
          78.347286,
          24.83831
        ]
      },
      "type": "Feature",
      "properties": {
        "hierarchy": [
          "tgn:7582066",
          "tgn:1000004",
          "tgn:7000198",
          "tgn:7016722",
          "tgn:7029392"
        ],
        "placetype": [
          "aat:300008347"
        ],
        "name:en": "Rasoi",
        "id": 7582066
      }
    },
    {
      "geometry": {
        "type": "Point",
        "coordinates": [
          78.34453,
          24.843085
        ]
      },
      "type": "Feature",
      "properties": {
        "hierarchy": [
          "tgn:7582067",
          "tgn:1000004",
          "tgn:7000198",
          "tgn:7016722",
          "tgn:7029392"
        ],
        "placetype": [
          "aat:300008347"
        ],
        "name:en": "Sati",
        "id": 7582067
      }
    },
    {
      "geometry": {
        "type": "Point",
        "coordinates": [
          78.333439,
          24.855662
        ]
      },
      "type": "Feature",
      "properties": {
        "hierarchy": [
          "tgn:7582068",
          "tgn:1000004",
          "tgn:7000198",
          "tgn:7016722",
          "tgn:7029392"
        ],
        "placetype": [
          "aat:300008699"
        ],
        "name:en": "Jogna N훮la",
        "id": 7582068
      }
    },
    {
      "geometry": {
        "type": "Point",
        "coordinates": [
          78.400768,
          24.87191
        ]
      },
      "type": "Feature",
      "properties": {
        "hierarchy": [
          "tgn:7582069",
          "tgn:1000004",
          "tgn:7000198",
          "tgn:7016722",
          "tgn:7029392"
        ],
        "placetype": [
          "aat:300007783"
        ],
        "name:en": "Jakhaura Railway Station",
        "id": 7582069
      }
    }
  ]
}
