{
  "type": "FeatureCollection",
  "features": [
    {
      "geometry": {
        "type": "Point",
        "coordinates": [
          77.75,
          12.416667
        ]
      },
      "type": "Feature",
      "properties": {
        "hierarchy": [
          "tgn:7554640",
          "tgn:1000004",
          "tgn:7000198",
          "tgn:7001797",
          "tgn:7029392"
        ],
        "placetype": [
          "aat:300008777"
        ],
        "name:en": "Melagiri Hills",
        "id": 7554640
      }
    },
    {
      "geometry": {
        "type": "Point",
        "coordinates": [
          91.329753,
          23.495487
        ]
      },
      "type": "Feature",
      "properties": {
        "hierarchy": [
          "tgn:7554641",
          "tgn:1000004",
          "tgn:7000198",
          "tgn:1001578",
          "tgn:7029392"
        ],
        "placetype": [
          "aat:300008347"
        ],
        "name:en": "MelƒÅghar",
        "id": 7554641
      }
    },
    {
      "geometry": {
        "type": "Point",
        "coordinates": [
          95.839341,
          28.139143
        ]
      },
      "type": "Feature",
      "properties": {
        "hierarchy": [
          "tgn:7554642",
          "tgn:7001819",
          "tgn:1000004",
          "tgn:7000198",
          "tgn:7029392"
        ],
        "placetype": [
          "aat:300008347"
        ],
        "name:en": "Mekha",
        "id": 7554642
      }
    },
    {
      "geometry": {
        "type": "Point",
        "coordinates": [
          76.292158,
          25.675053
        ]
      },
      "type": "Feature",
      "properties": {
        "hierarchy": [
          "tgn:7554643",
          "tgn:1000004",
          "tgn:7000198",
          "tgn:7016788",
          "tgn:7029392"
        ],
        "placetype": [
          "aat:300008699"
        ],
        "name:en": "Mej River",
        "id": 7554643
      }
    },
    {
      "geometry": {
        "type": "Point",
        "coordinates": [
          87.25,
          23.55
        ]
      },
      "type": "Feature",
      "properties": {
        "hierarchy": [
          "tgn:7554645",
          "tgn:1000004",
          "tgn:7000198",
          "tgn:1001977",
          "tgn:7029392"
        ],
        "placetype": [
          "aat:300008347"
        ],
        "name:en": "Mejedihi",
        "id": 7554645
      }
    },
    {
      "geometry": {
        "type": "Point",
        "coordinates": [
          74.558332,
          25.415712
        ]
      },
      "type": "Feature",
      "properties": {
        "hierarchy": [
          "tgn:7554646",
          "tgn:1000004",
          "tgn:7000198",
          "tgn:7016788",
          "tgn:7029392"
        ],
        "placetype": [
          "aat:300008347"
        ],
        "name:en": "Meja",
        "id": 7554646
      }
    },
    {
      "geometry": {
        "type": "Point",
        "coordinates": [
          82.104195,
          25.142466
        ]
      },
      "type": "Feature",
      "properties": {
        "hierarchy": [
          "tgn:7554647",
          "tgn:1000004",
          "tgn:7000198",
          "tgn:7016722",
          "tgn:7029392"
        ],
        "placetype": [
          "aat:300008347"
        ],
        "name:en": "Meja",
        "id": 7554647
      }
    },
    {
      "geometry": {
        "type": "Point",
        "coordinates": [
          94.485277,
          24.699682
        ]
      },
      "type": "Feature",
      "properties": {
        "hierarchy": [
          "tgn:7554648",
          "tgn:1000004",
          "tgn:7000198",
          "tgn:1001997",
          "tgn:7029392"
        ],
        "placetype": [
          "aat:300008347"
        ],
        "name:en": "Meiti",
        "id": 7554648
      }
    },
    {
      "geometry": {
        "type": "Point",
        "coordinates": [
          94.33791,
          24.74617
        ]
      },
      "type": "Feature",
      "properties": {
        "hierarchy": [
          "tgn:7554649",
          "tgn:1000004",
          "tgn:7000198",
          "tgn:1001997",
          "tgn:7029392"
        ],
        "placetype": [
          "aat:300008347"
        ],
        "name:en": "Meiring",
        "id": 7554649
      }
    }
  ]
}
