{
  "type": "FeatureCollection",
  "features": [
    {
      "geometry": {
        "type": "Point",
        "coordinates": [
          25.186546,
          30.849806
        ]
      },
      "type": "Feature",
      "properties": {
        "hierarchy": [
          "tgn:7536420",
          "tgn:7001242",
          "tgn:7016833",
          "tgn:1001418",
          "tgn:7029392"
        ],
        "placetype": [
          "aat:300008777"
        ],
        "name:en": "Gidaîy, Kûlet el-",
        "id": 7536420
      }
    },
    {
      "geometry": {
        "type": "Point",
        "coordinates": [
          31.508127,
          29.330637
        ]
      },
      "type": "Feature",
      "properties": {
        "hierarchy": [
          "tgn:7536421",
          "tgn:7001242",
          "tgn:7016833",
          "tgn:7029392"
        ],
        "placetype": [
          "aat:300379998"
        ],
        "name:en": "Gibw, Wâdi el-",
        "id": 7536421
      }
    },
    {
      "geometry": {
        "type": "Point",
        "coordinates": [
          31.533333,
          29.316667
        ]
      },
      "type": "Feature",
      "properties": {
        "hierarchy": [
          "tgn:7536422",
          "tgn:7001242",
          "tgn:7016833",
          "tgn:1001083",
          "tgn:7029392"
        ],
        "placetype": [
          "aat:300006191"
        ],
        "name:en": "Makhzan el-Gibw",
        "id": 7536422
      }
    },
    {
      "geometry": {
        "type": "Point",
        "coordinates": [
          31.555888,
          29.862646
        ]
      },
      "type": "Feature",
      "properties": {
        "hierarchy": [
          "tgn:7536423",
          "tgn:7001242",
          "tgn:7016833",
          "tgn:7029392"
        ],
        "placetype": [
          "aat:300008795"
        ],
        "id": 7536423,
        "name:xx": "Jibw, Jabal"
      }
    },
    {
      "geometry": {
        "type": "Point",
        "coordinates": [
          34.429679,
          28.790083
        ]
      },
      "type": "Feature",
      "properties": {
        "hierarchy": [
          "tgn:7536424",
          "tgn:7001242",
          "tgn:7016833",
          "tgn:7001336",
          "tgn:7029392"
        ],
        "placetype": [
          "aat:300132339"
        ],
        "name:en": "Chulaybī, Haḑabat al",
        "id": 7536424
      }
    },
    {
      "geometry": {
        "type": "Point",
        "coordinates": [
          28.823004,
          30.974125
        ]
      },
      "type": "Feature",
      "properties": {
        "hierarchy": [
          "tgn:7536425",
          "tgn:7001242",
          "tgn:7016833",
          "tgn:1001418",
          "tgn:7029392"
        ],
        "placetype": [
          "aat:300008808"
        ],
        "name:en": "Gibeisa, Sha'b",
        "id": 7536425
      }
    },
    {
      "geometry": {
        "type": "Point",
        "coordinates": [
          26.416667,
          31.283333
        ]
      },
      "type": "Feature",
      "properties": {
        "hierarchy": [
          "tgn:7536426",
          "tgn:7001242",
          "tgn:7016833",
          "tgn:1001418",
          "tgn:7029392"
        ],
        "placetype": [
          "aat:300008777"
        ],
        "name:en": "Gibârât, Alam el",
        "id": 7536426
      }
    },
    {
      "geometry": {
        "type": "Point",
        "coordinates": [
          33.894563,
          28.533938
        ]
      },
      "type": "Feature",
      "properties": {
        "hierarchy": [
          "tgn:7536427",
          "tgn:7001242",
          "tgn:7016833",
          "tgn:7001336",
          "tgn:7029392"
        ],
        "placetype": [
          "aat:300008795"
        ],
        "name:en": "Jibāl, Ra's",
        "id": 7536427
      }
    },
    {
      "geometry": {
        "type": "Point",
        "coordinates": [
          32.978348,
          27.381795
        ]
      },
      "type": "Feature",
      "properties": {
        "hierarchy": [
          "tgn:7536428",
          "tgn:7001242",
          "tgn:7001311",
          "tgn:7016833",
          "tgn:7029392"
        ],
        "placetype": [
          "aat:300008795"
        ],
        "name:en": "Giala, Gebel",
        "id": 7536428
      }
    },
    {
      "geometry": {
        "type": "Point",
        "coordinates": [
          33.047422,
          26.862102
        ]
      },
      "type": "Feature",
      "properties": {
        "hierarchy": [
          "tgn:7536429",
          "tgn:7001242",
          "tgn:7001311",
          "tgn:7016833",
          "tgn:7029392"
        ],
        "placetype": [
          "aat:300379998"
        ],
        "name:en": "Ghuzz, Wādī al",
        "id": 7536429
      }
    }
  ]
}
