{
  "type": "FeatureCollection",
  "features": [
    {
      "geometry": {
        "type": "Point",
        "coordinates": [
          78.908427,
          24.660369
        ]
      },
      "type": "Feature",
      "properties": {
        "hierarchy": [
          "tgn:7585090",
          "tgn:1000004",
          "tgn:7000198",
          "tgn:1001894",
          "tgn:7029392"
        ],
        "placetype": [
          "aat:300008347"
        ],
        "name:en": "Gudanwāra",
        "id": 7585090
      }
    },
    {
      "geometry": {
        "type": "Point",
        "coordinates": [
          78.883488,
          24.650881
        ]
      },
      "type": "Feature",
      "properties": {
        "hierarchy": [
          "tgn:7585091",
          "tgn:1000004",
          "tgn:7000198",
          "tgn:1001894",
          "tgn:7029392"
        ],
        "placetype": [
          "aat:300008347"
        ],
        "name:en": "Mānikchauk",
        "id": 7585091
      }
    },
    {
      "geometry": {
        "type": "Point",
        "coordinates": [
          78.882487,
          24.624229
        ]
      },
      "type": "Feature",
      "properties": {
        "hierarchy": [
          "tgn:7585092",
          "tgn:1000004",
          "tgn:7000198",
          "tgn:7016722",
          "tgn:7029392"
        ],
        "placetype": [
          "aat:300008347"
        ],
        "name:en": "Chhāpchhol",
        "id": 7585092
      }
    },
    {
      "geometry": {
        "type": "Point",
        "coordinates": [
          78.858034,
          24.628548
        ]
      },
      "type": "Feature",
      "properties": {
        "hierarchy": [
          "tgn:7585093",
          "tgn:1000004",
          "tgn:7000198",
          "tgn:1001894",
          "tgn:7029392"
        ],
        "placetype": [
          "aat:300008347"
        ],
        "name:en": "Pratāpnagar",
        "id": 7585093
      }
    },
    {
      "geometry": {
        "type": "Point",
        "coordinates": [
          78.864162,
          24.649828
        ]
      },
      "type": "Feature",
      "properties": {
        "hierarchy": [
          "tgn:7585094",
          "tgn:1000004",
          "tgn:7000198",
          "tgn:1001894",
          "tgn:7029392"
        ],
        "placetype": [
          "aat:300008347"
        ],
        "name:en": "Bamori Mariya",
        "id": 7585094
      }
    },
    {
      "geometry": {
        "type": "Point",
        "coordinates": [
          78.872073,
          24.663499
        ]
      },
      "type": "Feature",
      "properties": {
        "hierarchy": [
          "tgn:7585095",
          "tgn:1000004",
          "tgn:7000198",
          "tgn:1001894",
          "tgn:7029392"
        ],
        "placetype": [
          "aat:300008347"
        ],
        "name:en": "Hīrānagar",
        "id": 7585095
      }
    },
    {
      "geometry": {
        "type": "Point",
        "coordinates": [
          78.834528,
          24.662689
        ]
      },
      "type": "Feature",
      "properties": {
        "hierarchy": [
          "tgn:7585096",
          "tgn:1000004",
          "tgn:7000198",
          "tgn:1001894",
          "tgn:7029392"
        ],
        "placetype": [
          "aat:300008347"
        ],
        "name:en": "Brijpura",
        "id": 7585096
      }
    },
    {
      "geometry": {
        "type": "Point",
        "coordinates": [
          78.836713,
          24.65458
        ]
      },
      "type": "Feature",
      "properties": {
        "hierarchy": [
          "tgn:7585097",
          "tgn:1000004",
          "tgn:7000198",
          "tgn:1001894",
          "tgn:7029392"
        ],
        "placetype": [
          "aat:300008347"
        ],
        "name:en": "Jurāwān",
        "id": 7585097
      }
    },
    {
      "geometry": {
        "type": "Point",
        "coordinates": [
          78.850024,
          24.640432
        ]
      },
      "type": "Feature",
      "properties": {
        "hierarchy": [
          "tgn:7585098",
          "tgn:1000004",
          "tgn:7000198",
          "tgn:1001894",
          "tgn:7029392"
        ],
        "placetype": [
          "aat:300008680"
        ],
        "name:en": "Nagda Sāgar",
        "id": 7585098
      }
    },
    {
      "geometry": {
        "type": "Point",
        "coordinates": [
          78.841906,
          24.635452
        ]
      },
      "type": "Feature",
      "properties": {
        "hierarchy": [
          "tgn:7585099",
          "tgn:1000004",
          "tgn:7000198",
          "tgn:1001894",
          "tgn:7029392"
        ],
        "placetype": [
          "aat:300008347"
        ],
        "name:en": "Sagarwāra",
        "id": 7585099
      }
    }
  ]
}
