{
  "type": "FeatureCollection",
  "features": [
    {
      "geometry": {
        "type": "Point",
        "coordinates": [
          121.533277,
          25.143321
        ]
      },
      "type": "Feature",
      "properties": {
        "hierarchy": [
          "tgn:7498920",
          "tgn:1000004",
          "tgn:1000959",
          "tgn:1000141",
          "tgn:7029392"
        ],
        "placetype": [
          "aat:300008347"
        ],
        "id": 7498920,
        "name:xx": "Xiabanling"
      }
    },
    {
      "geometry": {
        "type": "Point",
        "coordinates": [
          121.6008,
          25.066762
        ]
      },
      "type": "Feature",
      "properties": {
        "hierarchy": [
          "tgn:7498922",
          "tgn:1000004",
          "tgn:1000959",
          "tgn:1000141",
          "tgn:7029392"
        ],
        "placetype": [
          "aat:300008347"
        ],
        "id": 7498922,
        "name:xx": "Jiangcuo"
      }
    },
    {
      "geometry": {
        "type": "Point",
        "coordinates": [
          121.174367,
          22.99321
        ]
      },
      "type": "Feature",
      "properties": {
        "hierarchy": [
          "tgn:7498923",
          "tgn:1000004",
          "tgn:7491221",
          "tgn:1000141",
          "tgn:7029392"
        ],
        "placetype": [
          "aat:300008347"
        ],
        "id": 7498923,
        "name:xx": "Nanxing"
      }
    },
    {
      "geometry": {
        "type": "Point",
        "coordinates": [
          121.1752,
          22.99704
        ]
      },
      "type": "Feature",
      "properties": {
        "hierarchy": [
          "tgn:7498924",
          "tgn:1000004",
          "tgn:7491221",
          "tgn:1000141",
          "tgn:7029392"
        ],
        "placetype": [
          "aat:300387173"
        ],
        "id": 7498924,
        "name:xx": "Dianguang Li"
      }
    },
    {
      "geometry": {
        "type": "Point",
        "coordinates": [
          121.127747,
          22.9991
        ]
      },
      "type": "Feature",
      "properties": {
        "hierarchy": [
          "tgn:7498925",
          "tgn:1000004",
          "tgn:7491221",
          "tgn:1000141",
          "tgn:7029392"
        ],
        "placetype": [
          "aat:300008347"
        ],
        "id": 7498925,
        "name:xx": "Jiaping"
      }
    },
    {
      "geometry": {
        "type": "Point",
        "coordinates": [
          120.642833,
          22.873442
        ]
      },
      "type": "Feature",
      "properties": {
        "hierarchy": [
          "tgn:7498926",
          "tgn:1000004",
          "tgn:7492971",
          "tgn:1000141",
          "tgn:7029392"
        ],
        "placetype": [
          "aat:300008347"
        ],
        "id": 7498926,
        "name:xx": "Changxing"
      }
    },
    {
      "geometry": {
        "type": "Point",
        "coordinates": [
          120.537652,
          22.82486
        ]
      },
      "type": "Feature",
      "properties": {
        "hierarchy": [
          "tgn:7498928",
          "tgn:1000004",
          "tgn:7492971",
          "tgn:1000141",
          "tgn:7029392"
        ],
        "placetype": [
          "aat:300008347"
        ],
        "id": 7498928,
        "name:xx": "Xinguocun"
      }
    },
    {
      "geometry": {
        "type": "Point",
        "coordinates": [
          120.618713,
          22.887891
        ]
      },
      "type": "Feature",
      "properties": {
        "hierarchy": [
          "tgn:7498929",
          "tgn:7001004",
          "tgn:1000004",
          "tgn:1000141",
          "tgn:7029392"
        ],
        "placetype": [
          "aat:300008347"
        ],
        "id": 7498929,
        "name:xx": "Pingding"
      }
    }
  ]
}
