{
  "type": "FeatureCollection",
  "features": [
    {
      "geometry": {
        "type": "Point",
        "coordinates": [
          -99.3625,
          20.1375
        ]
      },
      "type": "Feature",
      "properties": {
        "hierarchy": [
          "tgn:7423551",
          "tgn:7005587",
          "tgn:1000001",
          "tgn:7005560",
          "tgn:7029392"
        ],
        "placetype": [
          "aat:300006191"
        ],
        "id": 7423551,
        "name:xx": "Presa Endho"
      }
    },
    {
      "geometry": {
        "type": "Point",
        "coordinates": [
          -99.033333,
          20.175
        ]
      },
      "type": "Feature",
      "properties": {
        "hierarchy": [
          "tgn:7423552",
          "tgn:7005587",
          "tgn:1000001",
          "tgn:7005560",
          "tgn:7029392"
        ],
        "placetype": [
          "aat:300008347"
        ],
        "id": 7423552,
        "name:xx": "San Nicolás Tecomatlán"
      }
    },
    {
      "geometry": {
        "type": "Point",
        "coordinates": [
          -99.9875,
          20.304167
        ]
      },
      "type": "Feature",
      "properties": {
        "hierarchy": [
          "tgn:7423553",
          "tgn:7005587",
          "tgn:1000001",
          "tgn:7005560",
          "tgn:7029392"
        ],
        "placetype": [
          "aat:300008347"
        ],
        "id": 7423553,
        "name:xx": "Caxuxi"
      }
    },
    {
      "geometry": {
        "type": "Point",
        "coordinates": [
          -105.106389,
          22.868056
        ]
      },
      "type": "Feature",
      "properties": {
        "hierarchy": [
          "tgn:7423556",
          "tgn:1000001",
          "tgn:1001906",
          "tgn:7005560",
          "tgn:7029392"
        ],
        "placetype": [
          "aat:300008699"
        ],
        "id": 7423556,
        "name:xx": "La Chichigua"
      }
    },
    {
      "geometry": {
        "type": "Point",
        "coordinates": [
          -110.033333,
          28.866667
        ]
      },
      "type": "Feature",
      "properties": {
        "hierarchy": [
          "tgn:7423557",
          "tgn:1000001",
          "tgn:1001960",
          "tgn:7005560",
          "tgn:7029392"
        ],
        "placetype": [
          "aat:300008347"
        ],
        "id": 7423557,
        "name:xx": "San Pablo"
      }
    },
    {
      "geometry": {
        "type": "Point",
        "coordinates": [
          -110.183333,
          28.85
        ]
      },
      "type": "Feature",
      "properties": {
        "hierarchy": [
          "tgn:7423558",
          "tgn:1000001",
          "tgn:1001960",
          "tgn:7005560",
          "tgn:7029392"
        ],
        "placetype": [
          "aat:300008795"
        ],
        "id": 7423558,
        "name:xx": "Colorado, Picacho"
      }
    },
    {
      "geometry": {
        "type": "Point",
        "coordinates": [
          -110.366667,
          28.866667
        ]
      },
      "type": "Feature",
      "properties": {
        "hierarchy": [
          "tgn:7423559",
          "tgn:1000001",
          "tgn:1001960",
          "tgn:7005560",
          "tgn:7029392"
        ],
        "placetype": [
          "aat:300008347"
        ],
        "id": 7423559,
        "name:xx": "La Potranca"
      }
    }
  ]
}
