{
  "type": "FeatureCollection",
  "features": [
    {
      "geometry": {
        "type": "Point",
        "coordinates": [
          78.997456,
          24.965725
        ]
      },
      "type": "Feature",
      "properties": {
        "hierarchy": [
          "tgn:7583920",
          "tgn:1000004",
          "tgn:7000198",
          "tgn:1001894",
          "tgn:7029392"
        ],
        "placetype": [
          "aat:300387086"
        ],
        "name:en": "Phūta Tāl",
        "id": 7583920
      }
    },
    {
      "geometry": {
        "type": "Point",
        "coordinates": [
          78.973355,
          24.96085
        ]
      },
      "type": "Feature",
      "properties": {
        "hierarchy": [
          "tgn:7583921",
          "tgn:1000004",
          "tgn:7000198",
          "tgn:1001894",
          "tgn:7029392"
        ],
        "placetype": [
          "aat:300008347"
        ],
        "name:en": "Biklampura",
        "id": 7583921
      }
    },
    {
      "geometry": {
        "type": "Point",
        "coordinates": [
          78.959372,
          24.956813
        ]
      },
      "type": "Feature",
      "properties": {
        "hierarchy": [
          "tgn:7583922",
          "tgn:1000004",
          "tgn:7000198",
          "tgn:1001894",
          "tgn:7029392"
        ],
        "placetype": [
          "aat:300008347"
        ],
        "name:en": "Kunwarpura",
        "id": 7583922
      }
    },
    {
      "geometry": {
        "type": "Point",
        "coordinates": [
          78.9488,
          24.9453
        ]
      },
      "type": "Feature",
      "properties": {
        "hierarchy": [
          "tgn:7583923",
          "tgn:1000004",
          "tgn:7000198",
          "tgn:1001894",
          "tgn:7029392"
        ],
        "placetype": [
          "aat:300008865"
        ],
        "name:en": "Kunwarpura Protected Forest",
        "id": 7583923
      }
    },
    {
      "geometry": {
        "type": "Point",
        "coordinates": [
          78.932089,
          24.958483
        ]
      },
      "type": "Feature",
      "properties": {
        "hierarchy": [
          "tgn:7583924",
          "tgn:1000004",
          "tgn:7000198",
          "tgn:1001894",
          "tgn:7029392"
        ],
        "placetype": [
          "aat:300167671"
        ],
        "name:en": "Mathūpura",
        "id": 7583924
      }
    },
    {
      "geometry": {
        "type": "Point",
        "coordinates": [
          78.891227,
          24.958684
        ]
      },
      "type": "Feature",
      "properties": {
        "hierarchy": [
          "tgn:7583925",
          "tgn:1000004",
          "tgn:7000198",
          "tgn:1001894",
          "tgn:7029392"
        ],
        "placetype": [
          "aat:300008347"
        ],
        "name:en": "Gadariyāna",
        "id": 7583925
      }
    },
    {
      "geometry": {
        "type": "Point",
        "coordinates": [
          78.93431,
          24.831273
        ]
      },
      "type": "Feature",
      "properties": {
        "hierarchy": [
          "tgn:7583926",
          "tgn:1000004",
          "tgn:7000198",
          "tgn:1001894",
          "tgn:7029392"
        ],
        "placetype": [
          "aat:300008865"
        ],
        "name:en": "Rāigīr Protected Forest",
        "id": 7583926
      }
    },
    {
      "geometry": {
        "type": "Point",
        "coordinates": [
          78.849482,
          24.955799
        ]
      },
      "type": "Feature",
      "properties": {
        "hierarchy": [
          "tgn:7583927",
          "tgn:1000004",
          "tgn:7000198",
          "tgn:1001894",
          "tgn:7029392"
        ],
        "placetype": [
          "aat:300008680"
        ],
        "name:en": "Jaichār Tāl",
        "id": 7583927
      }
    },
    {
      "geometry": {
        "type": "Point",
        "coordinates": [
          78.829749,
          24.949504
        ]
      },
      "type": "Feature",
      "properties": {
        "hierarchy": [
          "tgn:7583928",
          "tgn:1000004",
          "tgn:7000198",
          "tgn:1001894",
          "tgn:7029392"
        ],
        "placetype": [
          "aat:300008347"
        ],
        "name:en": "Bigha",
        "id": 7583928
      }
    },
    {
      "geometry": {
        "type": "Point",
        "coordinates": [
          78.806855,
          24.949423
        ]
      },
      "type": "Feature",
      "properties": {
        "hierarchy": [
          "tgn:7583929",
          "tgn:1000004",
          "tgn:7000198",
          "tgn:1001894",
          "tgn:7029392"
        ],
        "placetype": [
          "aat:300008347"
        ],
        "name:en": "Nādia",
        "id": 7583929
      }
    }
  ]
}
