{
  "type": "FeatureCollection",
  "features": [
    {
      "geometry": {
        "type": "Point",
        "coordinates": [
          73.958333,
          30.094444
        ]
      },
      "type": "Feature",
      "properties": {
        "hierarchy": [
          "tgn:7589300",
          "tgn:1000004",
          "tgn:7000198",
          "tgn:7016883",
          "tgn:7029392"
        ],
        "placetype": [
          "aat:300008347"
        ],
        "name:en": "Panjāwa",
        "id": 7589300
      }
    },
    {
      "geometry": {
        "type": "Point",
        "coordinates": [
          73.991667,
          30.022222
        ]
      },
      "type": "Feature",
      "properties": {
        "hierarchy": [
          "tgn:7589301",
          "tgn:1000004",
          "tgn:7000198",
          "tgn:7016883",
          "tgn:7029392"
        ],
        "placetype": [
          "aat:300004792"
        ],
        "name:en": "Jandwāla Inspection Bungalow",
        "id": 7589301
      }
    },
    {
      "geometry": {
        "type": "Point",
        "coordinates": [
          73.986111,
          30.0625
        ]
      },
      "type": "Feature",
      "properties": {
        "hierarchy": [
          "tgn:7589302",
          "tgn:1000004",
          "tgn:7000198",
          "tgn:7016883",
          "tgn:7029392"
        ],
        "placetype": [
          "aat:300008347"
        ],
        "name:en": "Maujgarh",
        "id": 7589302
      }
    },
    {
      "geometry": {
        "type": "Point",
        "coordinates": [
          73.948611,
          30.052778
        ]
      },
      "type": "Feature",
      "properties": {
        "hierarchy": [
          "tgn:7589303",
          "tgn:1000004",
          "tgn:7000198",
          "tgn:7016883",
          "tgn:7029392"
        ],
        "placetype": [
          "aat:300008347"
        ],
        "name:en": "Tūtwāla",
        "id": 7589303
      }
    },
    {
      "geometry": {
        "type": "Point",
        "coordinates": [
          73.954167,
          30.044444
        ]
      },
      "type": "Feature",
      "properties": {
        "hierarchy": [
          "tgn:7589304",
          "tgn:1000004",
          "tgn:7000198",
          "tgn:7016883",
          "tgn:7029392"
        ],
        "placetype": [
          "aat:300008347"
        ],
        "name:en": "Kallar Khera",
        "id": 7589304
      }
    },
    {
      "geometry": {
        "type": "Point",
        "coordinates": [
          73.902778,
          30.020833
        ]
      },
      "type": "Feature",
      "properties": {
        "hierarchy": [
          "tgn:7589305",
          "tgn:1000004",
          "tgn:7000198",
          "tgn:7016883",
          "tgn:7029392"
        ],
        "placetype": [
          "aat:300008347"
        ],
        "name:en": "Usmān Khera",
        "id": 7589305
      }
    },
    {
      "geometry": {
        "type": "Point",
        "coordinates": [
          73.990278,
          30.166667
        ]
      },
      "type": "Feature",
      "properties": {
        "hierarchy": [
          "tgn:7589306",
          "tgn:1000004",
          "tgn:7000198",
          "tgn:7016883",
          "tgn:7029392"
        ],
        "placetype": [
          "aat:300008347"
        ],
        "name:en": "Bhangar Khera",
        "id": 7589306
      }
    },
    {
      "geometry": {
        "type": "Point",
        "coordinates": [
          73.963889,
          30.166667
        ]
      },
      "type": "Feature",
      "properties": {
        "hierarchy": [
          "tgn:7589307",
          "tgn:1000004",
          "tgn:7000198",
          "tgn:7016883",
          "tgn:7029392"
        ],
        "placetype": [
          "aat:300008347"
        ],
        "name:en": "Pannīwāla",
        "id": 7589307
      }
    },
    {
      "geometry": {
        "type": "Point",
        "coordinates": [
          73.910008,
          29.999265
        ]
      },
      "type": "Feature",
      "properties": {
        "hierarchy": [
          "tgn:7589308",
          "tgn:1000004",
          "tgn:7000198",
          "tgn:7016883",
          "tgn:7029392"
        ],
        "placetype": [
          "aat:300008347"
        ],
        "name:en": "Gumjā",
        "id": 7589308
      }
    },
    {
      "geometry": {
        "type": "Point",
        "coordinates": [
          73.780556,
          30.005556
        ]
      },
      "type": "Feature",
      "properties": {
        "hierarchy": [
          "tgn:7589309",
          "tgn:1000004",
          "tgn:7000198",
          "tgn:7016788",
          "tgn:7029392"
        ],
        "placetype": [
          "aat:300008347"
        ],
        "name:en": "Chak Seven",
        "id": 7589309
      }
    }
  ]
}
