{
  "type": "FeatureCollection",
  "features": [
    {
      "geometry": {
        "type": "Point",
        "coordinates": [
          76.962236,
          29.402935
        ]
      },
      "type": "Feature",
      "properties": {
        "hierarchy": [
          "tgn:7566890",
          "tgn:1000004",
          "tgn:1001871",
          "tgn:7000198",
          "tgn:7029392"
        ],
        "placetype": [
          "aat:300008699"
        ],
        "name:en": "Ganda N훮la",
        "id": 7566890
      }
    },
    {
      "geometry": {
        "type": "Point",
        "coordinates": [
          76.953097,
          29.435483
        ]
      },
      "type": "Feature",
      "properties": {
        "hierarchy": [
          "tgn:7566891",
          "tgn:1000004",
          "tgn:1001871",
          "tgn:7000198",
          "tgn:7029392"
        ],
        "placetype": [
          "aat:300008347"
        ],
        "name:en": "Far카dpur",
        "id": 7566891
      }
    },
    {
      "geometry": {
        "type": "Point",
        "coordinates": [
          76.940826,
          29.45504
        ]
      },
      "type": "Feature",
      "properties": {
        "hierarchy": [
          "tgn:7566892",
          "tgn:1000004",
          "tgn:1001871",
          "tgn:7000198",
          "tgn:7029392"
        ],
        "placetype": [
          "aat:300008347"
        ],
        "name:en": "Muhammadpur",
        "id": 7566892
      }
    },
    {
      "geometry": {
        "type": "Point",
        "coordinates": [
          76.946789,
          29.459297
        ]
      },
      "type": "Feature",
      "properties": {
        "hierarchy": [
          "tgn:7566893",
          "tgn:1000004",
          "tgn:1001871",
          "tgn:7000198",
          "tgn:7029392"
        ],
        "placetype": [
          "aat:300008347"
        ],
        "name:en": "Kachrauli",
        "id": 7566893
      }
    },
    {
      "geometry": {
        "type": "Point",
        "coordinates": [
          76.904785,
          29.431981
        ]
      },
      "type": "Feature",
      "properties": {
        "hierarchy": [
          "tgn:7566894",
          "tgn:1000004",
          "tgn:1001871",
          "tgn:7000198",
          "tgn:7029392"
        ],
        "placetype": [
          "aat:300008347"
        ],
        "name:en": "Jitgarh",
        "id": 7566894
      }
    },
    {
      "geometry": {
        "type": "Point",
        "coordinates": [
          76.902476,
          29.447243
        ]
      },
      "type": "Feature",
      "properties": {
        "hierarchy": [
          "tgn:7566895",
          "tgn:1000004",
          "tgn:1001871",
          "tgn:7000198",
          "tgn:7029392"
        ],
        "placetype": [
          "aat:300008347"
        ],
        "name:en": "Sith훮na",
        "id": 7566895
      }
    },
    {
      "geometry": {
        "type": "Point",
        "coordinates": [
          76.908561,
          29.451116
        ]
      },
      "type": "Feature",
      "properties": {
        "hierarchy": [
          "tgn:7566896",
          "tgn:1000004",
          "tgn:1001871",
          "tgn:7000198",
          "tgn:7029392"
        ],
        "placetype": [
          "aat:300008347"
        ],
        "name:en": "Singhpura",
        "id": 7566896
      }
    },
    {
      "geometry": {
        "type": "Point",
        "coordinates": [
          76.955871,
          29.463648
        ]
      },
      "type": "Feature",
      "properties": {
        "hierarchy": [
          "tgn:7566897",
          "tgn:1000004",
          "tgn:1001871",
          "tgn:7000198",
          "tgn:7029392"
        ],
        "placetype": [
          "aat:300008347"
        ],
        "name:en": "B훮barpur",
        "id": 7566897
      }
    },
    {
      "geometry": {
        "type": "Point",
        "coordinates": [
          76.963428,
          29.468472
        ]
      },
      "type": "Feature",
      "properties": {
        "hierarchy": [
          "tgn:7566898",
          "tgn:1000004",
          "tgn:1001871",
          "tgn:7000198",
          "tgn:7029392"
        ],
        "placetype": [
          "aat:300008347"
        ],
        "name:en": "Baraoli",
        "id": 7566898
      }
    },
    {
      "geometry": {
        "type": "Point",
        "coordinates": [
          76.965512,
          29.477755
        ]
      },
      "type": "Feature",
      "properties": {
        "hierarchy": [
          "tgn:7566899",
          "tgn:1000004",
          "tgn:1001871",
          "tgn:7000198",
          "tgn:7029392"
        ],
        "placetype": [
          "aat:300008347"
        ],
        "name:en": "Ganjbar",
        "id": 7566899
      }
    }
  ]
}
