{
  "type": "FeatureCollection",
  "features": [
    {
      "geometry": {
        "type": "Point",
        "coordinates": [
          74.463894,
          33.94036
        ]
      },
      "type": "Feature",
      "properties": {
        "hierarchy": [
          "tgn:7590860",
          "tgn:1000004",
          "tgn:7000198",
          "tgn:7000799",
          "tgn:7029392"
        ],
        "placetype": [
          "aat:300259572"
        ],
        "name:en": "Basam Gali",
        "id": 7590860
      }
    },
    {
      "geometry": {
        "type": "Point",
        "coordinates": [
          74.475,
          33.951389
        ]
      },
      "type": "Feature",
      "properties": {
        "hierarchy": [
          "tgn:7590861",
          "tgn:1000004",
          "tgn:7000198",
          "tgn:7000799",
          "tgn:7029392"
        ],
        "placetype": [
          "aat:300008795"
        ],
        "name:en": "Krāla Sangar",
        "id": 7590861
      }
    },
    {
      "geometry": {
        "type": "Point",
        "coordinates": [
          74.491667,
          33.968056
        ]
      },
      "type": "Feature",
      "properties": {
        "hierarchy": [
          "tgn:7590862",
          "tgn:1000004",
          "tgn:7000198",
          "tgn:7000799",
          "tgn:7029392"
        ],
        "placetype": [
          "aat:300008863"
        ],
        "name:en": "Sugan Forest",
        "id": 7590862
      }
    },
    {
      "geometry": {
        "type": "Point",
        "coordinates": [
          74.431944,
          33.972222
        ]
      },
      "type": "Feature",
      "properties": {
        "hierarchy": [
          "tgn:7590863",
          "tgn:1000004",
          "tgn:7000198",
          "tgn:7000799",
          "tgn:7029392"
        ],
        "placetype": [
          "aat:300008347"
        ],
        "name:en": "Keodalah",
        "id": 7590863
      }
    },
    {
      "geometry": {
        "type": "Point",
        "coordinates": [
          74.464731,
          33.974305
        ]
      },
      "type": "Feature",
      "properties": {
        "hierarchy": [
          "tgn:7590864",
          "tgn:1000004",
          "tgn:7000198",
          "tgn:7000799",
          "tgn:7029392"
        ],
        "placetype": [
          "aat:300008347"
        ],
        "name:en": "Wāhoān Baihk",
        "id": 7590864
      }
    },
    {
      "geometry": {
        "type": "Point",
        "coordinates": [
          74.452296,
          33.969167
        ]
      },
      "type": "Feature",
      "properties": {
        "hierarchy": [
          "tgn:7590865",
          "tgn:1000004",
          "tgn:7000198",
          "tgn:7000799",
          "tgn:7029392"
        ],
        "placetype": [
          "aat:300008347"
        ],
        "name:en": "Pejanpathri",
        "id": 7590865
      }
    },
    {
      "geometry": {
        "type": "Point",
        "coordinates": [
          74.483333,
          33.977778
        ]
      },
      "type": "Feature",
      "properties": {
        "hierarchy": [
          "tgn:7590866",
          "tgn:1000004",
          "tgn:7000198",
          "tgn:7000799",
          "tgn:7029392"
        ],
        "placetype": [
          "aat:300008795"
        ],
        "name:en": "Dumkūt",
        "id": 7590866
      }
    },
    {
      "geometry": {
        "type": "Point",
        "coordinates": [
          74.490677,
          33.996148
        ]
      },
      "type": "Feature",
      "properties": {
        "hierarchy": [
          "tgn:7590867",
          "tgn:1000004",
          "tgn:7000198",
          "tgn:7000799",
          "tgn:7029392"
        ],
        "placetype": [
          "aat:300008863"
        ],
        "name:en": "Khāg Forest",
        "id": 7590867
      }
    },
    {
      "geometry": {
        "type": "Point",
        "coordinates": [
          74.441667,
          33.993056
        ]
      },
      "type": "Feature",
      "properties": {
        "hierarchy": [
          "tgn:7590868",
          "tgn:1000004",
          "tgn:7000198",
          "tgn:7000799",
          "tgn:7029392"
        ],
        "placetype": [
          "aat:300008347"
        ],
        "name:en": "Peth Dhanwās",
        "id": 7590868
      }
    },
    {
      "geometry": {
        "type": "Point",
        "coordinates": [
          74.417979,
          33.977382
        ]
      },
      "type": "Feature",
      "properties": {
        "hierarchy": [
          "tgn:7590869",
          "tgn:1000004",
          "tgn:7000198",
          "tgn:7000799",
          "tgn:7029392"
        ],
        "placetype": [
          "aat:300008347"
        ],
        "name:en": "Kasdal",
        "id": 7590869
      }
    }
  ]
}
