{
  "type": "FeatureCollection",
  "features": [
    {
      "geometry": {
        "type": "Point",
        "coordinates": [
          74.2875,
          34.366667
        ]
      },
      "type": "Feature",
      "properties": {
        "hierarchy": [
          "tgn:7586040",
          "tgn:1000004",
          "tgn:7000198",
          "tgn:7000799",
          "tgn:7029392"
        ],
        "placetype": [
          "aat:300008347"
        ],
        "name:en": "Talwāri",
        "id": 7586040
      }
    },
    {
      "geometry": {
        "type": "Point",
        "coordinates": [
          74.277778,
          34.370833
        ]
      },
      "type": "Feature",
      "properties": {
        "hierarchy": [
          "tgn:7586041",
          "tgn:1000004",
          "tgn:7000198",
          "tgn:7000799",
          "tgn:7029392"
        ],
        "placetype": [
          "aat:300008347"
        ],
        "name:en": "Sudurgund",
        "id": 7586041
      }
    },
    {
      "geometry": {
        "type": "Point",
        "coordinates": [
          74.371246,
          34.367395
        ]
      },
      "type": "Feature",
      "properties": {
        "hierarchy": [
          "tgn:7586042",
          "tgn:1000004",
          "tgn:7000198",
          "tgn:7000799",
          "tgn:7029392"
        ],
        "placetype": [
          "aat:300008699"
        ],
        "name:en": "Māwar River",
        "id": 7586042
      }
    },
    {
      "geometry": {
        "type": "Point",
        "coordinates": [
          74.28622,
          34.380142
        ]
      },
      "type": "Feature",
      "properties": {
        "hierarchy": [
          "tgn:7586043",
          "tgn:1000004",
          "tgn:7000198",
          "tgn:7000799",
          "tgn:7029392"
        ],
        "placetype": [
          "aat:300008347"
        ],
        "name:en": "Mārotgain",
        "id": 7586043
      }
    },
    {
      "geometry": {
        "type": "Point",
        "coordinates": [
          74.288453,
          34.381892
        ]
      },
      "type": "Feature",
      "properties": {
        "hierarchy": [
          "tgn:7586044",
          "tgn:1000004",
          "tgn:7000198",
          "tgn:7000799",
          "tgn:7029392"
        ],
        "placetype": [
          "aat:300008347"
        ],
        "name:en": "Hanjipur",
        "id": 7586044
      }
    },
    {
      "geometry": {
        "type": "Point",
        "coordinates": [
          74.294567,
          34.384789
        ]
      },
      "type": "Feature",
      "properties": {
        "hierarchy": [
          "tgn:7586045",
          "tgn:1000004",
          "tgn:7000198",
          "tgn:7000799",
          "tgn:7029392"
        ],
        "placetype": [
          "aat:300008347"
        ],
        "name:en": "Kargom",
        "id": 7586045
      }
    },
    {
      "geometry": {
        "type": "Point",
        "coordinates": [
          74.308358,
          34.383845
        ]
      },
      "type": "Feature",
      "properties": {
        "hierarchy": [
          "tgn:7586046",
          "tgn:1000004",
          "tgn:7000198",
          "tgn:7000799",
          "tgn:7029392"
        ],
        "placetype": [
          "aat:300008347"
        ],
        "name:en": "Kohor",
        "id": 7586046
      }
    },
    {
      "geometry": {
        "type": "Point",
        "coordinates": [
          74.300229,
          34.386819
        ]
      },
      "type": "Feature",
      "properties": {
        "hierarchy": [
          "tgn:7586047",
          "tgn:1000004",
          "tgn:7000198",
          "tgn:7000799",
          "tgn:7029392"
        ],
        "placetype": [
          "aat:300008347"
        ],
        "name:en": "Gund Kohor",
        "id": 7586047
      }
    },
    {
      "geometry": {
        "type": "Point",
        "coordinates": [
          74.322958,
          34.382465
        ]
      },
      "type": "Feature",
      "properties": {
        "hierarchy": [
          "tgn:7586048",
          "tgn:1000004",
          "tgn:7000198",
          "tgn:7000799",
          "tgn:7029392"
        ],
        "placetype": [
          "aat:300008347"
        ],
        "name:en": "Batapur",
        "id": 7586048
      }
    },
    {
      "geometry": {
        "type": "Point",
        "coordinates": [
          74.318559,
          34.39022
        ]
      },
      "type": "Feature",
      "properties": {
        "hierarchy": [
          "tgn:7586049",
          "tgn:1000004",
          "tgn:7000198",
          "tgn:7000799",
          "tgn:7029392"
        ],
        "placetype": [
          "aat:300008347"
        ],
        "name:en": "Gulur",
        "id": 7586049
      }
    }
  ]
}
