{
  "type": "FeatureCollection",
  "features": [
    {
      "geometry": {
        "type": "Point",
        "coordinates": [
          120.9125,
          24.2583
        ]
      },
      "type": "Feature",
      "properties": {
        "hierarchy": [
          "tgn:7503510",
          "tgn:1000004",
          "tgn:7001009",
          "tgn:1000141",
          "tgn:7029392"
        ],
        "placetype": [
          "aat:300008347"
        ],
        "id": 7503510,
        "name:xx": "Sanchakengxitou"
      }
    },
    {
      "geometry": {
        "type": "Point",
        "coordinates": [
          120.935598,
          24.258332
        ]
      },
      "type": "Feature",
      "properties": {
        "hierarchy": [
          "tgn:7503511",
          "tgn:1000004",
          "tgn:7001009",
          "tgn:1000141",
          "tgn:7029392"
        ],
        "placetype": [
          "aat:300387002"
        ],
        "id": 7503511,
        "name:xx": "Dadong Shan"
      }
    },
    {
      "geometry": {
        "type": "Point",
        "coordinates": [
          121.000291,
          24.266553
        ]
      },
      "type": "Feature",
      "properties": {
        "hierarchy": [
          "tgn:7503512",
          "tgn:1000004",
          "tgn:7001009",
          "tgn:1000141",
          "tgn:7029392"
        ],
        "placetype": [
          "aat:300387503"
        ],
        "id": 7503512,
        "name:xx": "Daxue Shan Gongzuozhan"
      }
    },
    {
      "geometry": {
        "type": "Point",
        "coordinates": [
          120.950082,
          24.314449
        ]
      },
      "type": "Feature",
      "properties": {
        "hierarchy": [
          "tgn:7503513",
          "tgn:1000004",
          "tgn:7001009",
          "tgn:1000141",
          "tgn:7029392"
        ],
        "placetype": [
          "aat:300008798"
        ],
        "id": 7503513,
        "name:xx": "Beigao Shan"
      }
    },
    {
      "geometry": {
        "type": "Point",
        "coordinates": [
          120.939889,
          24.279698
        ]
      },
      "type": "Feature",
      "properties": {
        "hierarchy": [
          "tgn:7503514",
          "tgn:1000004",
          "tgn:7001009",
          "tgn:1000141",
          "tgn:7029392"
        ],
        "placetype": [
          "aat:300007836"
        ],
        "id": 7503514,
        "name:xx": "Changqing Qiao"
      }
    },
    {
      "geometry": {
        "type": "Point",
        "coordinates": [
          120.945651,
          24.297109
        ]
      },
      "type": "Feature",
      "properties": {
        "hierarchy": [
          "tgn:7503515",
          "tgn:1000004",
          "tgn:7001009",
          "tgn:1000141",
          "tgn:7029392"
        ],
        "placetype": [
          "aat:300008347"
        ],
        "id": 7503515,
        "name:xx": "Tangshanliao"
      }
    },
    {
      "geometry": {
        "type": "Point",
        "coordinates": [
          120.933237,
          24.300027
        ]
      },
      "type": "Feature",
      "properties": {
        "hierarchy": [
          "tgn:7503516",
          "tgn:1000004",
          "tgn:7001009",
          "tgn:1000141",
          "tgn:7029392"
        ],
        "placetype": [
          "aat:300008347"
        ],
        "id": 7503516,
        "name:xx": "Pingding"
      }
    },
    {
      "geometry": {
        "type": "Point",
        "coordinates": [
          120.929277,
          24.294273
        ]
      },
      "type": "Feature",
      "properties": {
        "hierarchy": [
          "tgn:7503517",
          "tgn:1000004",
          "tgn:7001009",
          "tgn:1000141",
          "tgn:7029392"
        ],
        "placetype": [
          "aat:300007595"
        ],
        "id": 7503517,
        "name:xx": "Wubao Gong"
      }
    },
    {
      "geometry": {
        "type": "Point",
        "coordinates": [
          120.924198,
          24.296838
        ]
      },
      "type": "Feature",
      "properties": {
        "hierarchy": [
          "tgn:7503518",
          "tgn:1000004",
          "tgn:7001009",
          "tgn:1000141",
          "tgn:7029392"
        ],
        "placetype": [
          "aat:300007836"
        ],
        "id": 7503518,
        "name:xx": "Wushikeng Qiao"
      }
    },
    {
      "geometry": {
        "type": "Point",
        "coordinates": [
          120.910022,
          24.293668
        ]
      },
      "type": "Feature",
      "properties": {
        "hierarchy": [
          "tgn:7503519",
          "tgn:1000004",
          "tgn:7001009",
          "tgn:1000141",
          "tgn:7029392"
        ],
        "placetype": [
          "aat:300007836"
        ],
        "id": 7503519,
        "name:xx": "Baibufan Daqiao"
      }
    }
  ]
}
