{
  "type": "FeatureCollection",
  "features": [
    {
      "geometry": {
        "type": "Point",
        "coordinates": [
          95.540245,
          28.027903
        ]
      },
      "type": "Feature",
      "properties": {
        "hierarchy": [
          "tgn:7547760",
          "tgn:1000004",
          "tgn:1001832",
          "tgn:7000198",
          "tgn:7029392"
        ],
        "placetype": [
          "aat:300008347"
        ],
        "name:en": "Bānguk",
        "id": 7547760
      }
    },
    {
      "geometry": {
        "type": "Point",
        "coordinates": [
          90.735167,
          25.860081
        ]
      },
      "type": "Feature",
      "properties": {
        "hierarchy": [
          "tgn:7547761",
          "tgn:1000004",
          "tgn:7000198",
          "tgn:1003539",
          "tgn:7029392"
        ],
        "placetype": [
          "aat:300008347"
        ],
        "name:en": "Bangsi",
        "id": 7547761
      }
    },
    {
      "geometry": {
        "type": "Point",
        "coordinates": [
          75.10669,
          23.405809
        ]
      },
      "type": "Feature",
      "properties": {
        "hierarchy": [
          "tgn:7547762",
          "tgn:1000004",
          "tgn:7000198",
          "tgn:1001894",
          "tgn:7029392"
        ],
        "placetype": [
          "aat:300008347"
        ],
        "name:en": "Bāngrod",
        "id": 7547762
      }
    },
    {
      "geometry": {
        "type": "Point",
        "coordinates": [
          79.171084,
          26.200331
        ]
      },
      "type": "Feature",
      "properties": {
        "hierarchy": [
          "tgn:7547764",
          "tgn:1000004",
          "tgn:7000198",
          "tgn:7016722",
          "tgn:7029392"
        ],
        "placetype": [
          "aat:300008347"
        ],
        "name:en": "Bangrā",
        "id": 7547764
      }
    },
    {
      "geometry": {
        "type": "Point",
        "coordinates": [
          74.883333,
          16.85
        ]
      },
      "type": "Feature",
      "properties": {
        "hierarchy": [
          "tgn:7547765",
          "tgn:1000004",
          "tgn:7000198",
          "tgn:1001895",
          "tgn:7029392"
        ],
        "placetype": [
          "aat:300007783"
        ],
        "name:en": "Athni Road",
        "id": 7547765
      }
    },
    {
      "geometry": {
        "type": "Point",
        "coordinates": [
          85.601386,
          25.457157
        ]
      },
      "type": "Feature",
      "properties": {
        "hierarchy": [
          "tgn:7547767",
          "tgn:1000004",
          "tgn:1001842",
          "tgn:7000198",
          "tgn:7029392"
        ],
        "placetype": [
          "aat:300008347"
        ],
        "name:en": "Athmalgola",
        "id": 7547767
      }
    },
    {
      "geometry": {
        "type": "Point",
        "coordinates": [
          94.654967,
          26.796161
        ]
      },
      "type": "Feature",
      "properties": {
        "hierarchy": [
          "tgn:7547768",
          "tgn:1000004",
          "tgn:1001832",
          "tgn:7000198",
          "tgn:7029392"
        ],
        "placetype": [
          "aat:300008347"
        ],
        "name:en": "Āthkhel",
        "id": 7547768
      }
    },
    {
      "geometry": {
        "type": "Point",
        "coordinates": [
          91.748682,
          26.72142
        ]
      },
      "type": "Feature",
      "properties": {
        "hierarchy": [
          "tgn:7547769",
          "tgn:1000004",
          "tgn:1001832",
          "tgn:7000198",
          "tgn:7029392"
        ],
        "placetype": [
          "aat:300008347"
        ],
        "name:en": "Atharikhāt",
        "id": 7547769
      }
    }
  ]
}
