{
  "type": "FeatureCollection",
  "features": [
    {
      "geometry": {
        "type": "Point",
        "coordinates": [
          70.916667,
          23.083333
        ]
      },
      "type": "Feature",
      "properties": {
        "hierarchy": [
          "tgn:7574130",
          "tgn:1000004",
          "tgn:1001869",
          "tgn:7000198",
          "tgn:7029392"
        ],
        "placetype": [
          "aat:300008347"
        ],
        "name:en": "Kākreji",
        "id": 7574130
      }
    },
    {
      "geometry": {
        "type": "Point",
        "coordinates": [
          74.461649,
          22.053737
        ]
      },
      "type": "Feature",
      "properties": {
        "hierarchy": [
          "tgn:7574131",
          "tgn:1000004",
          "tgn:7000198",
          "tgn:1001894",
          "tgn:7029392"
        ],
        "placetype": [
          "aat:300008347"
        ],
        "name:en": "Kakrana",
        "id": 7574131
      }
    },
    {
      "geometry": {
        "type": "Point",
        "coordinates": [
          76.090011,
          30.36973
        ]
      },
      "type": "Feature",
      "properties": {
        "hierarchy": [
          "tgn:7574132",
          "tgn:1000004",
          "tgn:7000198",
          "tgn:7016883",
          "tgn:7029392"
        ],
        "placetype": [
          "aat:300008347"
        ],
        "name:en": "Kakrāla",
        "id": 7574132
      }
    },
    {
      "geometry": {
        "type": "Point",
        "coordinates": [
          72.975507,
          28.611729
        ]
      },
      "type": "Feature",
      "properties": {
        "hierarchy": [
          "tgn:7574133",
          "tgn:1000004",
          "tgn:7000198",
          "tgn:7016788",
          "tgn:7029392"
        ],
        "placetype": [
          "aat:300008347"
        ],
        "name:en": "Kakrāla",
        "id": 7574133
      }
    },
    {
      "geometry": {
        "type": "Point",
        "coordinates": [
          91.398856,
          23.485636
        ]
      },
      "type": "Feature",
      "properties": {
        "hierarchy": [
          "tgn:7574135",
          "tgn:1000004",
          "tgn:7000198",
          "tgn:1001578",
          "tgn:7029392"
        ],
        "placetype": [
          "aat:300008347"
        ],
        "name:en": "Kākrāban",
        "id": 7574135
      }
    },
    {
      "geometry": {
        "type": "Point",
        "coordinates": [
          72.30311,
          24.003963
        ]
      },
      "type": "Feature",
      "properties": {
        "hierarchy": [
          "tgn:7574136",
          "tgn:1000004",
          "tgn:1001869",
          "tgn:7000198",
          "tgn:7029392"
        ],
        "placetype": [
          "aat:300008347"
        ],
        "name:en": "Kakoski",
        "id": 7574136
      }
    },
    {
      "geometry": {
        "type": "Point",
        "coordinates": [
          72.304527,
          24.008083
        ]
      },
      "type": "Feature",
      "properties": {
        "hierarchy": [
          "tgn:7574137",
          "tgn:1000004",
          "tgn:1001869",
          "tgn:7000198",
          "tgn:7029392"
        ],
        "placetype": [
          "aat:300007783"
        ],
        "name:en": "Kākoshi Metrāna Road",
        "id": 7574137
      }
    },
    {
      "geometry": {
        "type": "Point",
        "coordinates": [
          80.800185,
          26.884589
        ]
      },
      "type": "Feature",
      "properties": {
        "hierarchy": [
          "tgn:7574138",
          "tgn:1000004",
          "tgn:7000198",
          "tgn:7016722",
          "tgn:7029392"
        ],
        "placetype": [
          "aat:300007783"
        ],
        "name:en": "Kākori",
        "id": 7574138
      }
    },
    {
      "geometry": {
        "type": "Point",
        "coordinates": [
          80.785702,
          26.867995
        ]
      },
      "type": "Feature",
      "properties": {
        "hierarchy": [
          "tgn:7574139",
          "tgn:1000004",
          "tgn:7000198",
          "tgn:7016722",
          "tgn:7029392"
        ],
        "placetype": [
          "aat:300008347"
        ],
        "name:en": "Kākori",
        "id": 7574139
      }
    }
  ]
}
