{
  "type": "FeatureCollection",
  "features": [
    {
      "geometry": {
        "type": "Point",
        "coordinates": [
          92.183333,
          26.416667
        ]
      },
      "type": "Feature",
      "properties": {
        "hierarchy": [
          "tgn:7557391",
          "tgn:1000004",
          "tgn:1001832",
          "tgn:7000198",
          "tgn:7029392"
        ],
        "placetype": [
          "aat:300008347"
        ],
        "name:en": "Pithākhāitigaon",
        "id": 7557391
      }
    },
    {
      "geometry": {
        "type": "Point",
        "coordinates": [
          70.566667,
          22.683333
        ]
      },
      "type": "Feature",
      "properties": {
        "hierarchy": [
          "tgn:7557392",
          "tgn:1000004",
          "tgn:1001869",
          "tgn:7000198",
          "tgn:7029392"
        ],
        "placetype": [
          "aat:300008347"
        ],
        "name:en": "Pitar",
        "id": 7557392
      }
    },
    {
      "geometry": {
        "type": "Point",
        "coordinates": [
          79.538825,
          28.199818
        ]
      },
      "type": "Feature",
      "properties": {
        "hierarchy": [
          "tgn:7557393",
          "tgn:1000004",
          "tgn:7000198",
          "tgn:7016722",
          "tgn:7029392"
        ],
        "placetype": [
          "aat:300007783"
        ],
        "name:en": "Pitambarpur",
        "id": 7557393
      }
    },
    {
      "geometry": {
        "type": "Point",
        "coordinates": [
          74.083333,
          15.516667
        ]
      },
      "type": "Feature",
      "properties": {
        "hierarchy": [
          "tgn:7557394",
          "tgn:1000004",
          "tgn:7018318",
          "tgn:7000198",
          "tgn:7029392"
        ],
        "placetype": [
          "aat:300008347"
        ],
        "name:en": "Pissurlem",
        "id": 7557394
      }
    },
    {
      "geometry": {
        "type": "Point",
        "coordinates": [
          74.778765,
          18.730716
        ]
      },
      "type": "Feature",
      "properties": {
        "hierarchy": [
          "tgn:7557395",
          "tgn:1000004",
          "tgn:7000198",
          "tgn:1001895",
          "tgn:7029392"
        ],
        "placetype": [
          "aat:300008347"
        ],
        "name:en": "Pisore Khānd",
        "id": 7557395
      }
    },
    {
      "geometry": {
        "type": "Point",
        "coordinates": [
          85.2029,
          23.329551
        ]
      },
      "type": "Feature",
      "properties": {
        "hierarchy": [
          "tgn:7557396",
          "tgn:1000004",
          "tgn:7000198",
          "tgn:7031783",
          "tgn:7029392"
        ],
        "placetype": [
          "aat:300007783"
        ],
        "name:en": "Piska",
        "id": 7557396
      }
    },
    {
      "geometry": {
        "type": "Point",
        "coordinates": [
          72.466667,
          22.65
        ]
      },
      "type": "Feature",
      "properties": {
        "hierarchy": [
          "tgn:7557397",
          "tgn:1000004",
          "tgn:1001869",
          "tgn:7000198",
          "tgn:7029392"
        ],
        "placetype": [
          "aat:300008347"
        ],
        "name:en": "Pisāwāra",
        "id": 7557397
      }
    },
    {
      "geometry": {
        "type": "Point",
        "coordinates": [
          77.761193,
          28.10994
        ]
      },
      "type": "Feature",
      "properties": {
        "hierarchy": [
          "tgn:7557398",
          "tgn:1000004",
          "tgn:7000198",
          "tgn:7016722",
          "tgn:7029392"
        ],
        "placetype": [
          "aat:300008347"
        ],
        "name:en": "Pisāwa",
        "id": 7557398
      }
    },
    {
      "geometry": {
        "type": "Point",
        "coordinates": [
          74.382321,
          26.395674
        ]
      },
      "type": "Feature",
      "properties": {
        "hierarchy": [
          "tgn:7557399",
          "tgn:1000004",
          "tgn:7000198",
          "tgn:7016788",
          "tgn:7029392"
        ],
        "placetype": [
          "aat:300008347"
        ],
        "name:en": "Pisāngan",
        "id": 7557399
      }
    }
  ]
}
