{
  "type": "FeatureCollection",
  "features": [
    {
      "geometry": {
        "type": "Point",
        "coordinates": [
          120.648333,
          22.322778
        ]
      },
      "type": "Feature",
      "properties": {
        "hierarchy": [
          "tgn:7483820",
          "tgn:1000004",
          "tgn:7492971",
          "tgn:1000141",
          "tgn:7029392"
        ],
        "placetype": [
          "aat:300008777"
        ],
        "id": 7483820,
        "name:xx": "Cuo Shan"
      }
    },
    {
      "geometry": {
        "type": "Point",
        "coordinates": [
          120.520556,
          22.465278
        ]
      },
      "type": "Feature",
      "properties": {
        "hierarchy": [
          "tgn:7483821",
          "tgn:1000004",
          "tgn:7492971",
          "tgn:1000141",
          "tgn:7029392"
        ],
        "placetype": [
          "aat:300008347"
        ],
        "id": 7483821,
        "name:xx": "Tianliao"
      }
    },
    {
      "geometry": {
        "type": "Point",
        "coordinates": [
          120.607778,
          22.360833
        ]
      },
      "type": "Feature",
      "properties": {
        "hierarchy": [
          "tgn:7483822",
          "tgn:1000004",
          "tgn:7492971",
          "tgn:1000141",
          "tgn:7029392"
        ],
        "placetype": [
          "aat:300007836"
        ],
        "id": 7483822,
        "name:xx": "Fangliao Luqiao"
      }
    },
    {
      "geometry": {
        "type": "Point",
        "coordinates": [
          120.578333,
          22.411944
        ]
      },
      "type": "Feature",
      "properties": {
        "hierarchy": [
          "tgn:7483823",
          "tgn:1000004",
          "tgn:7492971",
          "tgn:1000141",
          "tgn:7029392"
        ],
        "placetype": [
          "aat:300387302"
        ],
        "id": 7483823,
        "name:xx": "Pingnan Gongyequ"
      }
    },
    {
      "geometry": {
        "type": "Point",
        "coordinates": [
          120.678889,
          22.445833
        ]
      },
      "type": "Feature",
      "properties": {
        "hierarchy": [
          "tgn:7483824",
          "tgn:1000004",
          "tgn:7492971",
          "tgn:1000141",
          "tgn:7029392"
        ],
        "placetype": [
          "aat:300007836"
        ],
        "id": 7483824,
        "name:xx": "Bailu Diaoqiao"
      }
    },
    {
      "geometry": {
        "type": "Point",
        "coordinates": [
          120.511944,
          22.491389
        ]
      },
      "type": "Feature",
      "properties": {
        "hierarchy": [
          "tgn:7483825",
          "tgn:1000004",
          "tgn:7492971",
          "tgn:1000141",
          "tgn:7029392"
        ],
        "placetype": [
          "aat:300007783"
        ],
        "id": 7483825,
        "name:xx": "Nanzhou Zhan"
      }
    },
    {
      "geometry": {
        "type": "Point",
        "coordinates": [
          120.638333,
          22.3075
        ]
      },
      "type": "Feature",
      "properties": {
        "hierarchy": [
          "tgn:7483826",
          "tgn:1000004",
          "tgn:7492971",
          "tgn:1000141",
          "tgn:7029392"
        ],
        "placetype": [
          "aat:300387057"
        ],
        "id": 7483826,
        "name:xx": "Nanshihu Xikou"
      }
    },
    {
      "geometry": {
        "type": "Point",
        "coordinates": [
          120.642778,
          22.296389
        ]
      },
      "type": "Feature",
      "properties": {
        "hierarchy": [
          "tgn:7483827",
          "tgn:1000004",
          "tgn:7492971",
          "tgn:1000141",
          "tgn:7029392"
        ],
        "placetype": [
          "aat:300387057"
        ],
        "id": 7483827,
        "name:xx": "Qili Xikou"
      }
    },
    {
      "geometry": {
        "type": "Point",
        "coordinates": [
          120.576111,
          22.476111
        ]
      },
      "type": "Feature",
      "properties": {
        "hierarchy": [
          "tgn:7483828",
          "tgn:1000004",
          "tgn:7492971",
          "tgn:1000141",
          "tgn:7029392"
        ],
        "placetype": [
          "aat:300387033"
        ],
        "id": 7483828,
        "name:xx": "Benjihu"
      }
    },
    {
      "geometry": {
        "type": "Point",
        "coordinates": [
          120.605278,
          22.466111
        ]
      },
      "type": "Feature",
      "properties": {
        "hierarchy": [
          "tgn:7483829",
          "tgn:1000004",
          "tgn:7492971",
          "tgn:1000141",
          "tgn:7029392"
        ],
        "placetype": [
          "aat:300008699"
        ],
        "id": 7483829,
        "name:xx": "Doukadan Xi"
      }
    }
  ]
}
