{
  "type": "FeatureCollection",
  "features": [
    {
      "geometry": {
        "type": "Point",
        "coordinates": [
          120.349722,
          22.873889
        ]
      },
      "type": "Feature",
      "properties": {
        "hierarchy": [
          "tgn:7502680",
          "tgn:7001004",
          "tgn:1000004",
          "tgn:1000141",
          "tgn:7029392"
        ],
        "placetype": [
          "aat:300008347"
        ],
        "id": 7502680,
        "name:xx": "Jianguo"
      }
    },
    {
      "geometry": {
        "type": "Point",
        "coordinates": [
          121.220556,
          23.781944
        ]
      },
      "type": "Feature",
      "properties": {
        "hierarchy": [
          "tgn:7502681",
          "tgn:7001010",
          "tgn:1000004",
          "tgn:1000141",
          "tgn:7029392"
        ],
        "placetype": [
          "aat:300008798"
        ],
        "id": 7502681,
        "name:xx": "Kashe Dashan"
      }
    },
    {
      "geometry": {
        "type": "Point",
        "coordinates": [
          121.231389,
          23.804444
        ]
      },
      "type": "Feature",
      "properties": {
        "hierarchy": [
          "tgn:7502682",
          "tgn:7001010",
          "tgn:1000004",
          "tgn:1000141",
          "tgn:7029392"
        ],
        "placetype": [
          "aat:300387503"
        ],
        "id": 7502682,
        "name:xx": "Zaolin Jiangongliao"
      }
    },
    {
      "geometry": {
        "type": "Point",
        "coordinates": [
          121.24,
          23.821111
        ]
      },
      "type": "Feature",
      "properties": {
        "hierarchy": [
          "tgn:7502683",
          "tgn:7001010",
          "tgn:1000004",
          "tgn:1000141",
          "tgn:7029392"
        ],
        "placetype": [
          "aat:300008798"
        ],
        "id": 7502683,
        "name:xx": "Cao Shan"
      }
    },
    {
      "geometry": {
        "type": "Point",
        "coordinates": [
          121.211111,
          23.843333
        ]
      },
      "type": "Feature",
      "properties": {
        "hierarchy": [
          "tgn:7502684",
          "tgn:7488858",
          "tgn:1000004",
          "tgn:1000141",
          "tgn:7029392"
        ],
        "placetype": [
          "aat:300008798"
        ],
        "id": 7502684,
        "name:xx": "Wandong Shan"
      }
    },
    {
      "geometry": {
        "type": "Point",
        "coordinates": [
          121.219722,
          23.873611
        ]
      },
      "type": "Feature",
      "properties": {
        "hierarchy": [
          "tgn:7502685",
          "tgn:7488858",
          "tgn:1000004",
          "tgn:1000141",
          "tgn:7029392"
        ],
        "placetype": [
          "aat:300008798"
        ],
        "id": 7502685,
        "name:xx": "Wumaozi Shan"
      }
    },
    {
      "geometry": {
        "type": "Point",
        "coordinates": [
          121.2175,
          23.932778
        ]
      },
      "type": "Feature",
      "properties": {
        "hierarchy": [
          "tgn:7502686",
          "tgn:7488858",
          "tgn:1000004",
          "tgn:1000141",
          "tgn:7029392"
        ],
        "placetype": [
          "aat:300008798"
        ],
        "id": 7502686,
        "name:xx": "Xinenwa'er Shan"
      }
    },
    {
      "geometry": {
        "type": "Point",
        "coordinates": [
          121.228611,
          23.928611
        ]
      },
      "type": "Feature",
      "properties": {
        "hierarchy": [
          "tgn:7502687",
          "tgn:7488858",
          "tgn:1000004",
          "tgn:1000141",
          "tgn:7029392"
        ],
        "placetype": [
          "aat:300008798"
        ],
        "id": 7502687,
        "name:xx": "Majun Shan"
      }
    },
    {
      "geometry": {
        "type": "Point",
        "coordinates": [
          121.239167,
          23.96
        ]
      },
      "type": "Feature",
      "properties": {
        "hierarchy": [
          "tgn:7502688",
          "tgn:7488858",
          "tgn:1000004",
          "tgn:1000141",
          "tgn:7029392"
        ],
        "placetype": [
          "aat:300387033"
        ],
        "id": 7502688,
        "name:xx": "Beixi Shan"
      }
    },
    {
      "geometry": {
        "type": "Point",
        "coordinates": [
          121.176389,
          23.804167
        ]
      },
      "type": "Feature",
      "properties": {
        "hierarchy": [
          "tgn:7502689",
          "tgn:7488858",
          "tgn:1000004",
          "tgn:1000141",
          "tgn:7029392"
        ],
        "placetype": [
          "aat:300000206"
        ],
        "id": 7502689,
        "name:xx": "Danye Nongchang"
      }
    }
  ]
}
