{
  "type": "FeatureCollection",
  "features": [
    {
      "geometry": {
        "type": "Point",
        "coordinates": [
          120.893333,
          22.513056
        ]
      },
      "type": "Feature",
      "properties": {
        "hierarchy": [
          "tgn:7500260",
          "tgn:1000004",
          "tgn:7491221",
          "tgn:1000141",
          "tgn:7029392"
        ],
        "placetype": [
          "aat:300132356"
        ],
        "id": 7500260,
        "name:xx": "Dikelun"
      }
    },
    {
      "geometry": {
        "type": "Point",
        "coordinates": [
          120.879167,
          22.52
        ]
      },
      "type": "Feature",
      "properties": {
        "hierarchy": [
          "tgn:7500261",
          "tgn:1000004",
          "tgn:7491221",
          "tgn:1000141",
          "tgn:7029392"
        ],
        "placetype": [
          "aat:300008347"
        ],
        "id": 7500261,
        "name:xx": "Jinhuang"
      }
    },
    {
      "geometry": {
        "type": "Point",
        "coordinates": [
          120.885278,
          22.515
        ]
      },
      "type": "Feature",
      "properties": {
        "hierarchy": [
          "tgn:7500262",
          "tgn:1000004",
          "tgn:7491221",
          "tgn:1000141",
          "tgn:7029392"
        ],
        "placetype": [
          "aat:300387057"
        ],
        "id": 7500262,
        "name:xx": "Dulaolao'enxikou"
      }
    },
    {
      "geometry": {
        "type": "Point",
        "coordinates": [
          120.831389,
          22.516667
        ]
      },
      "type": "Feature",
      "properties": {
        "hierarchy": [
          "tgn:7500263",
          "tgn:1000004",
          "tgn:7491221",
          "tgn:1000141",
          "tgn:7029392"
        ],
        "placetype": [
          "aat:300387033"
        ],
        "id": 7500263,
        "name:xx": "Tuoheiluo"
      }
    },
    {
      "geometry": {
        "type": "Point",
        "coordinates": [
          120.858611,
          22.513056
        ]
      },
      "type": "Feature",
      "properties": {
        "hierarchy": [
          "tgn:7500264",
          "tgn:1000004",
          "tgn:7491221",
          "tgn:1000141",
          "tgn:7029392"
        ],
        "placetype": [
          "aat:300008697"
        ],
        "id": 7500264,
        "name:xx": "Dufeilu Wenquan"
      }
    },
    {
      "geometry": {
        "type": "Point",
        "coordinates": [
          120.864722,
          22.515278
        ]
      },
      "type": "Feature",
      "properties": {
        "hierarchy": [
          "tgn:7500265",
          "tgn:1000004",
          "tgn:7491221",
          "tgn:1000141",
          "tgn:7029392"
        ],
        "placetype": [
          "aat:300132356"
        ],
        "id": 7500265,
        "name:xx": "Feilong"
      }
    },
    {
      "geometry": {
        "type": "Point",
        "coordinates": [
          120.865833,
          22.518333
        ]
      },
      "type": "Feature",
      "properties": {
        "hierarchy": [
          "tgn:7500266",
          "tgn:1000004",
          "tgn:7491221",
          "tgn:1000141",
          "tgn:7029392"
        ],
        "placetype": [
          "aat:300132356"
        ],
        "id": 7500266,
        "name:xx": "Du'ouli"
      }
    },
    {
      "geometry": {
        "type": "Point",
        "coordinates": [
          120.703222,
          24.196488
        ]
      },
      "type": "Feature",
      "properties": {
        "hierarchy": [
          "tgn:7500267",
          "tgn:1000004",
          "tgn:7001009",
          "tgn:1000141",
          "tgn:7029392"
        ],
        "placetype": [
          "aat:300008347"
        ],
        "id": 7500267,
        "name:xx": "Toujiacuo"
      }
    },
    {
      "geometry": {
        "type": "Point",
        "coordinates": [
          120.714713,
          24.175672
        ]
      },
      "type": "Feature",
      "properties": {
        "hierarchy": [
          "tgn:7500268",
          "tgn:1000004",
          "tgn:7001009",
          "tgn:1000141",
          "tgn:7029392"
        ],
        "placetype": [
          "aat:300000498"
        ],
        "id": 7500268,
        "name:xx": "Dahua Xincun"
      }
    },
    {
      "geometry": {
        "type": "Point",
        "coordinates": [
          120.7322,
          24.1769
        ]
      },
      "type": "Feature",
      "properties": {
        "hierarchy": [
          "tgn:7500269",
          "tgn:1000004",
          "tgn:7001009",
          "tgn:1000141",
          "tgn:7029392"
        ],
        "placetype": [
          "aat:300000498"
        ],
        "id": 7500269,
        "name:xx": "Yuanshan Xincun"
      }
    }
  ]
}
