{
  "type": "FeatureCollection",
  "features": [
    {
      "geometry": {
        "type": "Point",
        "coordinates": [
          75.723369,
          29.678797
        ]
      },
      "type": "Feature",
      "properties": {
        "hierarchy": [
          "tgn:7549940",
          "tgn:1000004",
          "tgn:1001871",
          "tgn:7000198",
          "tgn:7029392"
        ],
        "placetype": [
          "aat:300008347"
        ],
        "name:en": "Dhārsul",
        "id": 7549940
      }
    },
    {
      "geometry": {
        "type": "Point",
        "coordinates": [
          76.083333,
          28.116667
        ]
      },
      "type": "Feature",
      "properties": {
        "hierarchy": [
          "tgn:7549941",
          "tgn:1000004",
          "tgn:1001871",
          "tgn:7000198",
          "tgn:7029392"
        ],
        "placetype": [
          "aat:300008347"
        ],
        "name:en": "Dharson",
        "id": 7549941
      }
    },
    {
      "geometry": {
        "type": "Point",
        "coordinates": [
          81.65,
          21.416667
        ]
      },
      "type": "Feature",
      "properties": {
        "hierarchy": [
          "tgn:7549942",
          "tgn:1000004",
          "tgn:7031781",
          "tgn:7000198",
          "tgn:7029392"
        ],
        "placetype": [
          "aat:300008347"
        ],
        "name:en": "Dharsīnwa",
        "id": 7549942
      }
    },
    {
      "geometry": {
        "type": "Point",
        "coordinates": [
          73.233333,
          21.616667
        ]
      },
      "type": "Feature",
      "properties": {
        "hierarchy": [
          "tgn:7549943",
          "tgn:1000004",
          "tgn:1001869",
          "tgn:7000198",
          "tgn:7029392"
        ],
        "placetype": [
          "aat:300008347"
        ],
        "name:en": "Dhāroli",
        "id": 7549943
      }
    },
    {
      "geometry": {
        "type": "Point",
        "coordinates": [
          83.592053,
          25.521258
        ]
      },
      "type": "Feature",
      "properties": {
        "hierarchy": [
          "tgn:7549944",
          "tgn:1000004",
          "tgn:7000198",
          "tgn:7016722",
          "tgn:7029392"
        ],
        "placetype": [
          "aat:300008347"
        ],
        "name:en": "Dharnīpatti",
        "id": 7549944
      }
    },
    {
      "geometry": {
        "type": "Point",
        "coordinates": [
          77.097413,
          24.589361
        ]
      },
      "type": "Feature",
      "properties": {
        "hierarchy": [
          "tgn:7549946",
          "tgn:1000004",
          "tgn:7000198",
          "tgn:1001894",
          "tgn:7029392"
        ],
        "placetype": [
          "aat:300008347"
        ],
        "name:en": "Dharnaoda",
        "id": 7549946
      }
    },
    {
      "geometry": {
        "type": "Point",
        "coordinates": [
          74.407179,
          33.138855
        ]
      },
      "type": "Feature",
      "properties": {
        "hierarchy": [
          "tgn:7549947",
          "tgn:1000004",
          "tgn:7000198",
          "tgn:7000799",
          "tgn:7029392"
        ],
        "placetype": [
          "aat:300008347"
        ],
        "name:en": "Dharmsāla",
        "id": 7549947
      }
    },
    {
      "geometry": {
        "type": "Point",
        "coordinates": [
          86.163498,
          20.778535
        ]
      },
      "type": "Feature",
      "properties": {
        "hierarchy": [
          "tgn:7549949",
          "tgn:1000004",
          "tgn:7000198",
          "tgn:7016694",
          "tgn:7029392"
        ],
        "placetype": [
          "aat:300008347"
        ],
        "name:en": "Dharmsāla",
        "id": 7549949
      }
    }
  ]
}
