{
  "type": "FeatureCollection",
  "features": [
    {
      "geometry": {
        "type": "Point",
        "coordinates": [
          121.661428,
          24.9836
        ]
      },
      "type": "Feature",
      "properties": {
        "hierarchy": [
          "tgn:7487490",
          "tgn:1000004",
          "tgn:1000454",
          "tgn:1000141",
          "tgn:7029392"
        ],
        "placetype": [
          "aat:300008347"
        ],
        "id": 7487490,
        "name:xx": "Moruxiang"
      }
    },
    {
      "geometry": {
        "type": "Point",
        "coordinates": [
          120.553516,
          23.883829
        ]
      },
      "type": "Feature",
      "properties": {
        "hierarchy": [
          "tgn:7487491",
          "tgn:1000004",
          "tgn:7467799",
          "tgn:1000141",
          "tgn:7029392"
        ],
        "placetype": [
          "aat:300008347"
        ],
        "id": 7487491,
        "name:xx": "Molizhuang"
      }
    },
    {
      "geometry": {
        "type": "Point",
        "coordinates": [
          120.702942,
          23.785817
        ]
      },
      "type": "Feature",
      "properties": {
        "hierarchy": [
          "tgn:7487492",
          "tgn:7488858",
          "tgn:1000004",
          "tgn:1000141",
          "tgn:7029392"
        ],
        "placetype": [
          "aat:300008347"
        ],
        "id": 7487492,
        "name:xx": "Mujiliao"
      }
    },
    {
      "geometry": {
        "type": "Point",
        "coordinates": [
          121.566667,
          24.983333
        ]
      },
      "type": "Feature",
      "properties": {
        "hierarchy": [
          "tgn:7487494",
          "tgn:1000004",
          "tgn:1000959",
          "tgn:1000141",
          "tgn:7029392"
        ],
        "placetype": [
          "aat:300387173"
        ],
        "id": 7487494,
        "name:xx": "Muzha Qu"
      }
    },
    {
      "geometry": {
        "type": "Point",
        "coordinates": [
          121.568876,
          24.986439
        ]
      },
      "type": "Feature",
      "properties": {
        "hierarchy": [
          "tgn:7487495",
          "tgn:1000004",
          "tgn:1000959",
          "tgn:1000141",
          "tgn:7029392"
        ],
        "placetype": [
          "aat:300000745"
        ],
        "id": 7487495,
        "name:xx": "Muzha"
      }
    },
    {
      "geometry": {
        "type": "Point",
        "coordinates": [
          120.389444,
          23.319167
        ]
      },
      "type": "Feature",
      "properties": {
        "hierarchy": [
          "tgn:7487496",
          "tgn:1000004",
          "tgn:7490934",
          "tgn:1000141",
          "tgn:7029392"
        ],
        "placetype": [
          "aat:300008347"
        ],
        "id": 7487496,
        "name:xx": "Muzha"
      }
    },
    {
      "geometry": {
        "type": "Point",
        "coordinates": [
          121.181944,
          24.033056
        ]
      },
      "type": "Feature",
      "properties": {
        "hierarchy": [
          "tgn:7487498",
          "tgn:7488858",
          "tgn:1000004",
          "tgn:1000141",
          "tgn:7029392"
        ],
        "placetype": [
          "aat:300008795"
        ],
        "id": 7487498,
        "name:xx": "Mu'an Shan"
      }
    },
    {
      "geometry": {
        "type": "Point",
        "coordinates": [
          120.6598,
          24.0754
        ]
      },
      "type": "Feature",
      "properties": {
        "hierarchy": [
          "tgn:7487499",
          "tgn:1000004",
          "tgn:7001009",
          "tgn:1000141",
          "tgn:7029392"
        ],
        "placetype": [
          "aat:300008347"
        ],
        "id": 7487499,
        "name:xx": "Mozidunyuan"
      }
    }
  ]
}
