{
  "type": "FeatureCollection",
  "features": [
    {
      "geometry": {
        "type": "Point",
        "coordinates": [
          75.731653,
          25.30183
        ]
      },
      "type": "Feature",
      "properties": {
        "hierarchy": [
          "tgn:7569240",
          "tgn:1000004",
          "tgn:7000198",
          "tgn:7016788",
          "tgn:7029392"
        ],
        "placetype": [
          "aat:300008347"
        ],
        "name:en": "Raghunāthpura",
        "id": 7569240
      }
    },
    {
      "geometry": {
        "type": "Point",
        "coordinates": [
          75.717231,
          25.29948
        ]
      },
      "type": "Feature",
      "properties": {
        "hierarchy": [
          "tgn:7569241",
          "tgn:1000004",
          "tgn:7000198",
          "tgn:7016788",
          "tgn:7029392"
        ],
        "placetype": [
          "aat:300006075"
        ],
        "name:en": "Alkdkiya Minor",
        "id": 7569241
      }
    },
    {
      "geometry": {
        "type": "Point",
        "coordinates": [
          78.695,
          17.321944
        ]
      },
      "type": "Feature",
      "properties": {
        "hierarchy": [
          "tgn:7569242",
          "tgn:1001828",
          "tgn:1000004",
          "tgn:7000198",
          "tgn:7029392"
        ],
        "placetype": [
          "aat:300008347"
        ],
        "name:en": "Abdullapur",
        "id": 7569242
      }
    },
    {
      "geometry": {
        "type": "Point",
        "coordinates": [
          78.727222,
          17.303056
        ]
      },
      "type": "Feature",
      "properties": {
        "hierarchy": [
          "tgn:7569243",
          "tgn:1001828",
          "tgn:1000004",
          "tgn:7000198",
          "tgn:7029392"
        ],
        "placetype": [
          "aat:300008347"
        ],
        "name:en": "Bātāsingāram",
        "id": 7569243
      }
    },
    {
      "geometry": {
        "type": "Point",
        "coordinates": [
          78.704444,
          17.281111
        ]
      },
      "type": "Feature",
      "properties": {
        "hierarchy": [
          "tgn:7569244",
          "tgn:1001828",
          "tgn:1000004",
          "tgn:7000198",
          "tgn:7029392"
        ],
        "placetype": [
          "aat:300008347"
        ],
        "name:en": "Pilgamma",
        "id": 7569244
      }
    },
    {
      "geometry": {
        "type": "Point",
        "coordinates": [
          78.715,
          17.282778
        ]
      },
      "type": "Feature",
      "properties": {
        "hierarchy": [
          "tgn:7569245",
          "tgn:1001828",
          "tgn:1000004",
          "tgn:7000198",
          "tgn:7029392"
        ],
        "placetype": [
          "aat:300008347"
        ],
        "name:en": "Masidpur",
        "id": 7569245
      }
    },
    {
      "geometry": {
        "type": "Point",
        "coordinates": [
          78.730833,
          17.257778
        ]
      },
      "type": "Feature",
      "properties": {
        "hierarchy": [
          "tgn:7569246",
          "tgn:1001828",
          "tgn:1000004",
          "tgn:7000198",
          "tgn:7029392"
        ],
        "placetype": [
          "aat:300008347"
        ],
        "name:en": "Niralapalli",
        "id": 7569246
      }
    },
    {
      "geometry": {
        "type": "Point",
        "coordinates": [
          78.694167,
          17.270278
        ]
      },
      "type": "Feature",
      "properties": {
        "hierarchy": [
          "tgn:7569247",
          "tgn:1001828",
          "tgn:1000004",
          "tgn:7000198",
          "tgn:7029392"
        ],
        "placetype": [
          "aat:300008347"
        ],
        "name:en": "Anājpur",
        "id": 7569247
      }
    },
    {
      "geometry": {
        "type": "Point",
        "coordinates": [
          78.613056,
          17.289167
        ]
      },
      "type": "Feature",
      "properties": {
        "hierarchy": [
          "tgn:7569248",
          "tgn:1001828",
          "tgn:1000004",
          "tgn:7000198",
          "tgn:7029392"
        ],
        "placetype": [
          "aat:300008347"
        ],
        "name:en": "Tarūr",
        "id": 7569248
      }
    },
    {
      "geometry": {
        "type": "Point",
        "coordinates": [
          78.634444,
          17.281389
        ]
      },
      "type": "Feature",
      "properties": {
        "hierarchy": [
          "tgn:7569249",
          "tgn:1001828",
          "tgn:1000004",
          "tgn:7000198",
          "tgn:7029392"
        ],
        "placetype": [
          "aat:300008347"
        ],
        "name:en": "Koheda",
        "id": 7569249
      }
    }
  ]
}
