{
  "type": "FeatureCollection",
  "features": [
    {
      "geometry": {
        "type": "Point",
        "coordinates": [
          120.932222,
          24.851667
        ]
      },
      "type": "Feature",
      "properties": {
        "hierarchy": [
          "tgn:7502890",
          "tgn:1000004",
          "tgn:7471332",
          "tgn:1000141",
          "tgn:7029392"
        ],
        "placetype": [
          "aat:300387057"
        ],
        "id": 7502890,
        "name:xx": "Touqian Xikou"
      }
    },
    {
      "geometry": {
        "type": "Point",
        "coordinates": [
          121.032778,
          24.727778
        ]
      },
      "type": "Feature",
      "properties": {
        "hierarchy": [
          "tgn:7502891",
          "tgn:1000004",
          "tgn:7471332",
          "tgn:1000141",
          "tgn:7029392"
        ],
        "placetype": [
          "aat:300008347"
        ],
        "id": 7502891,
        "name:xx": "Xiongjiaowo"
      }
    },
    {
      "geometry": {
        "type": "Point",
        "coordinates": [
          121.051389,
          24.726389
        ]
      },
      "type": "Feature",
      "properties": {
        "hierarchy": [
          "tgn:7502892",
          "tgn:1000004",
          "tgn:7471332",
          "tgn:1000141",
          "tgn:7029392"
        ],
        "placetype": [
          "aat:300008347"
        ],
        "id": 7502892,
        "name:xx": "Xiyuandong"
      }
    },
    {
      "geometry": {
        "type": "Point",
        "coordinates": [
          121.065556,
          24.7225
        ]
      },
      "type": "Feature",
      "properties": {
        "hierarchy": [
          "tgn:7502893",
          "tgn:1000004",
          "tgn:7471332",
          "tgn:1000141",
          "tgn:7029392"
        ],
        "placetype": [
          "aat:300008347"
        ],
        "id": 7502893,
        "name:xx": "Hengwo"
      }
    },
    {
      "geometry": {
        "type": "Point",
        "coordinates": [
          121.063056,
          24.716111
        ]
      },
      "type": "Feature",
      "properties": {
        "hierarchy": [
          "tgn:7502894",
          "tgn:1000004",
          "tgn:7471332",
          "tgn:1000141",
          "tgn:7029392"
        ],
        "placetype": [
          "aat:300008347"
        ],
        "id": 7502894,
        "name:xx": "Shuiqixia"
      }
    },
    {
      "geometry": {
        "type": "Point",
        "coordinates": [
          121.067222,
          24.703889
        ]
      },
      "type": "Feature",
      "properties": {
        "hierarchy": [
          "tgn:7502895",
          "tgn:1000004",
          "tgn:7471332",
          "tgn:1000141",
          "tgn:7029392"
        ],
        "placetype": [
          "aat:300008347"
        ],
        "id": 7502895,
        "name:xx": "Jianzixia"
      }
    },
    {
      "geometry": {
        "type": "Point",
        "coordinates": [
          121.066389,
          24.71
        ]
      },
      "type": "Feature",
      "properties": {
        "hierarchy": [
          "tgn:7502896",
          "tgn:1000004",
          "tgn:7471332",
          "tgn:1000141",
          "tgn:7029392"
        ],
        "placetype": [
          "aat:300008347"
        ],
        "id": 7502896,
        "name:xx": "Heiqiaowo"
      }
    },
    {
      "geometry": {
        "type": "Point",
        "coordinates": [
          121.058333,
          24.704722
        ]
      },
      "type": "Feature",
      "properties": {
        "hierarchy": [
          "tgn:7502897",
          "tgn:1000004",
          "tgn:7471332",
          "tgn:1000141",
          "tgn:7029392"
        ],
        "placetype": [
          "aat:300008347"
        ],
        "id": 7502897,
        "name:xx": "Goubei"
      }
    },
    {
      "geometry": {
        "type": "Point",
        "coordinates": [
          121.037778,
          24.704444
        ]
      },
      "type": "Feature",
      "properties": {
        "hierarchy": [
          "tgn:7502898",
          "tgn:1000004",
          "tgn:7471332",
          "tgn:1000141",
          "tgn:7029392"
        ],
        "placetype": [
          "aat:300008347"
        ],
        "id": 7502898,
        "name:xx": "Anwo"
      }
    }
  ]
}
