{
  "type": "FeatureCollection",
  "features": [
    {
      "geometry": {
        "type": "Point",
        "coordinates": [
          93.731533,
          24.073885
        ]
      },
      "type": "Feature",
      "properties": {
        "hierarchy": [
          "tgn:7587340",
          "tgn:1000004",
          "tgn:7000198",
          "tgn:1001997",
          "tgn:7029392"
        ],
        "placetype": [
          "aat:300008347"
        ],
        "name:en": "Shartang",
        "id": 7587340
      }
    },
    {
      "geometry": {
        "type": "Point",
        "coordinates": [
          93.979743,
          24.097178
        ]
      },
      "type": "Feature",
      "properties": {
        "hierarchy": [
          "tgn:7587341",
          "tgn:1000004",
          "tgn:7000198",
          "tgn:1001997",
          "tgn:7029392"
        ],
        "placetype": [
          "aat:300008347"
        ],
        "name:en": "Youpi",
        "id": 7587341
      }
    },
    {
      "geometry": {
        "type": "Point",
        "coordinates": [
          93.932392,
          24.178642
        ]
      },
      "type": "Feature",
      "properties": {
        "hierarchy": [
          "tgn:7587342",
          "tgn:1000004",
          "tgn:7000198",
          "tgn:1001997",
          "tgn:7029392"
        ],
        "placetype": [
          "aat:300008347"
        ],
        "name:en": "Jun",
        "id": 7587342
      }
    },
    {
      "geometry": {
        "type": "Point",
        "coordinates": [
          93.80154,
          24.163368
        ]
      },
      "type": "Feature",
      "properties": {
        "hierarchy": [
          "tgn:7587343",
          "tgn:1000004",
          "tgn:7000198",
          "tgn:1001997",
          "tgn:7029392"
        ],
        "placetype": [
          "aat:300008347"
        ],
        "name:en": "Toichum",
        "id": 7587343
      }
    },
    {
      "geometry": {
        "type": "Point",
        "coordinates": [
          93.77812,
          24.220392
        ]
      },
      "type": "Feature",
      "properties": {
        "hierarchy": [
          "tgn:7587344",
          "tgn:1000004",
          "tgn:7000198",
          "tgn:1001997",
          "tgn:7029392"
        ],
        "placetype": [
          "aat:300008347"
        ],
        "name:en": "Khoinoi",
        "id": 7587344
      }
    },
    {
      "geometry": {
        "type": "Point",
        "coordinates": [
          93.869257,
          24.285054
        ]
      },
      "type": "Feature",
      "properties": {
        "hierarchy": [
          "tgn:7587345",
          "tgn:1000004",
          "tgn:7000198",
          "tgn:1001997",
          "tgn:7029392"
        ],
        "placetype": [
          "aat:300008347"
        ],
        "name:en": "Hengken",
        "id": 7587345
      }
    },
    {
      "geometry": {
        "type": "Point",
        "coordinates": [
          93.623848,
          24.318149
        ]
      },
      "type": "Feature",
      "properties": {
        "hierarchy": [
          "tgn:7587346",
          "tgn:1000004",
          "tgn:7000198",
          "tgn:1001997",
          "tgn:7029392"
        ],
        "placetype": [
          "aat:300008347"
        ],
        "name:en": "Talphoi",
        "id": 7587346
      }
    },
    {
      "geometry": {
        "type": "Point",
        "coordinates": [
          93.978215,
          24.403686
        ]
      },
      "type": "Feature",
      "properties": {
        "hierarchy": [
          "tgn:7587347",
          "tgn:1000004",
          "tgn:7000198",
          "tgn:1001997",
          "tgn:7029392"
        ],
        "placetype": [
          "aat:300008347"
        ],
        "name:en": "Purura Khulen",
        "id": 7587347
      }
    },
    {
      "geometry": {
        "type": "Point",
        "coordinates": [
          93.899806,
          24.404704
        ]
      },
      "type": "Feature",
      "properties": {
        "hierarchy": [
          "tgn:7587348",
          "tgn:1000004",
          "tgn:7000198",
          "tgn:1001997",
          "tgn:7029392"
        ],
        "placetype": [
          "aat:300008347"
        ],
        "name:en": "Kakching Khunou",
        "id": 7587348
      }
    },
    {
      "geometry": {
        "type": "Point",
        "coordinates": [
          93.645017,
          24.457136
        ]
      },
      "type": "Feature",
      "properties": {
        "hierarchy": [
          "tgn:7587349",
          "tgn:1000004",
          "tgn:7000198",
          "tgn:1001997",
          "tgn:7029392"
        ],
        "placetype": [
          "aat:300008347"
        ],
        "name:en": "Ukha",
        "id": 7587349
      }
    }
  ]
}
