{
  "type": "FeatureCollection",
  "features": [
    {
      "geometry": {
        "type": "Point",
        "coordinates": [
          121.552498,
          25.263163
        ]
      },
      "type": "Feature",
      "properties": {
        "hierarchy": [
          "tgn:7475300",
          "tgn:1000004",
          "tgn:1000454",
          "tgn:1000141",
          "tgn:7029392"
        ],
        "placetype": [
          "aat:300007836"
        ],
        "id": 7475300,
        "name:xx": "Liuhe Qiao"
      }
    },
    {
      "geometry": {
        "type": "Point",
        "coordinates": [
          121.516538,
          25.255033
        ]
      },
      "type": "Feature",
      "properties": {
        "hierarchy": [
          "tgn:7475301",
          "tgn:1000004",
          "tgn:1000454",
          "tgn:1000141",
          "tgn:7029392"
        ],
        "placetype": [
          "aat:300007836"
        ],
        "id": 7475301,
        "name:xx": "Chencuokeng Qiao"
      }
    },
    {
      "geometry": {
        "type": "Point",
        "coordinates": [
          121.520782,
          25.284461
        ]
      },
      "type": "Feature",
      "properties": {
        "hierarchy": [
          "tgn:7475302",
          "tgn:1000004",
          "tgn:1000454",
          "tgn:1000141",
          "tgn:7029392"
        ],
        "placetype": [
          "aat:300008699"
        ],
        "id": 7475302,
        "name:xx": "Bajia Xi"
      }
    },
    {
      "geometry": {
        "type": "Point",
        "coordinates": [
          121.540426,
          25.289136
        ]
      },
      "type": "Feature",
      "properties": {
        "hierarchy": [
          "tgn:7475303",
          "tgn:1000004",
          "tgn:1000454",
          "tgn:1000141",
          "tgn:7029392"
        ],
        "placetype": [
          "aat:300007836"
        ],
        "id": 7475303,
        "name:xx": "Di'ershiyihao Qiao"
      }
    },
    {
      "geometry": {
        "type": "Point",
        "coordinates": [
          121.535341,
          25.29152
        ]
      },
      "type": "Feature",
      "properties": {
        "hierarchy": [
          "tgn:7475304",
          "tgn:1000004",
          "tgn:1000454",
          "tgn:1000141",
          "tgn:7029392"
        ],
        "placetype": [
          "aat:300008699"
        ],
        "id": 7475304,
        "name:xx": "Fenglin Xi"
      }
    },
    {
      "geometry": {
        "type": "Point",
        "coordinates": [
          121.567111,
          25.295316
        ]
      },
      "type": "Feature",
      "properties": {
        "hierarchy": [
          "tgn:7475305",
          "tgn:1000004",
          "tgn:1000454",
          "tgn:1000141",
          "tgn:7029392"
        ],
        "placetype": [
          "aat:300008678"
        ],
        "id": 7475305,
        "name:xx": "Shimen Yugang"
      }
    },
    {
      "geometry": {
        "type": "Point",
        "coordinates": [
          120.649444,
          23.246389
        ]
      },
      "type": "Feature",
      "properties": {
        "hierarchy": [
          "tgn:7475307",
          "tgn:7001004",
          "tgn:1000004",
          "tgn:1000141",
          "tgn:7029392"
        ],
        "placetype": [
          "aat:300008699"
        ],
        "id": 7475307,
        "name:xx": "Erliao Xi"
      }
    },
    {
      "geometry": {
        "type": "Point",
        "coordinates": [
          121.719824,
          25.065073
        ]
      },
      "type": "Feature",
      "properties": {
        "hierarchy": [
          "tgn:7475308",
          "tgn:1000957",
          "tgn:1000004",
          "tgn:1000141",
          "tgn:7029392"
        ],
        "placetype": [
          "aat:300008347"
        ],
        "id": 7475308,
        "name:xx": "Caonan"
      }
    },
    {
      "geometry": {
        "type": "Point",
        "coordinates": [
          120.357371,
          22.662346
        ]
      },
      "type": "Feature",
      "properties": {
        "hierarchy": [
          "tgn:7475309",
          "tgn:1000004",
          "tgn:7492971",
          "tgn:1000141",
          "tgn:7029392"
        ],
        "placetype": [
          "aat:300006075"
        ],
        "id": 7475309,
        "name:xx": "Caogong Xingzhen"
      }
    }
  ]
}
