{
  "type": "FeatureCollection",
  "features": [
    {
      "geometry": {
        "type": "Point",
        "coordinates": [
          121.838601,
          25.111457
        ]
      },
      "type": "Feature",
      "properties": {
        "hierarchy": [
          "tgn:7467380",
          "tgn:1000004",
          "tgn:1000454",
          "tgn:1000141",
          "tgn:7029392"
        ],
        "placetype": [
          "aat:300008347"
        ],
        "id": 7467380,
        "name:xx": "Qifankeng"
      }
    },
    {
      "geometry": {
        "type": "Point",
        "coordinates": [
          119.602787,
          23.634363
        ]
      },
      "type": "Feature",
      "properties": {
        "hierarchy": [
          "tgn:7467381",
          "tgn:1000004",
          "tgn:7004300",
          "tgn:1000141",
          "tgn:7029392"
        ],
        "placetype": [
          "aat:300008791"
        ],
        "id": 7467381,
        "name:xx": "Jian Yu"
      }
    },
    {
      "geometry": {
        "type": "Point",
        "coordinates": [
          121.483333,
          22.683333
        ]
      },
      "type": "Feature",
      "properties": {
        "hierarchy": [
          "tgn:7467382",
          "tgn:1000004",
          "tgn:7491221",
          "tgn:1000141",
          "tgn:7029392"
        ],
        "placetype": [
          "aat:300011692"
        ],
        "id": 7467382,
        "name:xx": "Jian Yan"
      }
    },
    {
      "geometry": {
        "type": "Point",
        "coordinates": [
          121.75548,
          24.73184
        ]
      },
      "type": "Feature",
      "properties": {
        "hierarchy": [
          "tgn:7467383",
          "tgn:1000004",
          "tgn:7489179",
          "tgn:1000141",
          "tgn:7029392"
        ],
        "placetype": [
          "aat:300387173"
        ],
        "id": 7467383,
        "name:xx": "Jianye Li"
      }
    },
    {
      "geometry": {
        "type": "Point",
        "coordinates": [
          120.381389,
          23.265
        ]
      },
      "type": "Feature",
      "properties": {
        "hierarchy": [
          "tgn:7467384",
          "tgn:1000004",
          "tgn:7490934",
          "tgn:1000141",
          "tgn:7029392"
        ],
        "placetype": [
          "aat:300008347"
        ],
        "id": 7467384,
        "name:xx": "Wayao"
      }
    },
    {
      "geometry": {
        "type": "Point",
        "coordinates": [
          120.775991,
          24.499733
        ]
      },
      "type": "Feature",
      "properties": {
        "hierarchy": [
          "tgn:7467385",
          "tgn:7487020",
          "tgn:1000004",
          "tgn:1000141",
          "tgn:7029392"
        ],
        "placetype": [
          "aat:300008347"
        ],
        "id": 7467385,
        "name:xx": "Xianwo"
      }
    },
    {
      "geometry": {
        "type": "Point",
        "coordinates": [
          119.698067,
          23.540757
        ]
      },
      "type": "Feature",
      "properties": {
        "hierarchy": [
          "tgn:7467386",
          "tgn:1000004",
          "tgn:7004300",
          "tgn:1000141",
          "tgn:7029392"
        ],
        "placetype": [
          "aat:300008808"
        ],
        "id": 7467386,
        "name:xx": "Qianwen Jiao"
      }
    },
    {
      "geometry": {
        "type": "Point",
        "coordinates": [
          121.5289,
          25.2054
        ]
      },
      "type": "Feature",
      "properties": {
        "hierarchy": [
          "tgn:7467387",
          "tgn:1000004",
          "tgn:1000454",
          "tgn:1000141",
          "tgn:7029392"
        ],
        "placetype": [
          "aat:300008347"
        ],
        "id": 7467387,
        "name:xx": "Ganweilun"
      }
    },
    {
      "geometry": {
        "type": "Point",
        "coordinates": [
          120.316667,
          22.566667
        ]
      },
      "type": "Feature",
      "properties": {
        "hierarchy": [
          "tgn:7467388",
          "tgn:7001004",
          "tgn:1000004",
          "tgn:1000141",
          "tgn:7029392"
        ],
        "placetype": [
          "aat:300386846"
        ],
        "id": 7467388,
        "name:xx": "Jian Wei"
      }
    },
    {
      "geometry": {
        "type": "Point",
        "coordinates": [
          120.370278,
          22.865
        ]
      },
      "type": "Feature",
      "properties": {
        "hierarchy": [
          "tgn:7467389",
          "tgn:7001004",
          "tgn:1000004",
          "tgn:1000141",
          "tgn:7029392"
        ],
        "placetype": [
          "aat:300008347"
        ],
        "id": 7467389,
        "name:xx": "Qiongzibu"
      }
    }
  ]
}
