{
  "type": "FeatureCollection",
  "features": [
    {
      "geometry": {
        "type": "Point",
        "coordinates": [
          92.023417,
          24.008057
        ]
      },
      "type": "Feature",
      "properties": {
        "hierarchy": [
          "tgn:7577710",
          "tgn:1000004",
          "tgn:7000198",
          "tgn:1001578",
          "tgn:7029392"
        ],
        "placetype": [
          "aat:300008347"
        ],
        "name:en": "Khop훮iy훮p훮ra",
        "id": 7577710
      }
    },
    {
      "geometry": {
        "type": "Point",
        "coordinates": [
          95.566667,
          27.016667
        ]
      },
      "type": "Feature",
      "properties": {
        "hierarchy": [
          "tgn:7577711",
          "tgn:7001819",
          "tgn:1000004",
          "tgn:7000198",
          "tgn:7029392"
        ],
        "placetype": [
          "aat:300008347"
        ],
        "name:en": "Khonsa",
        "id": 7577711
      }
    },
    {
      "geometry": {
        "type": "Point",
        "coordinates": [
          94.021786,
          25.654229
        ]
      },
      "type": "Feature",
      "properties": {
        "hierarchy": [
          "tgn:7577712",
          "tgn:1000004",
          "tgn:7000198",
          "tgn:1001905",
          "tgn:7029392"
        ],
        "placetype": [
          "aat:300008347"
        ],
        "name:en": "Khonoma",
        "id": 7577712
      }
    },
    {
      "geometry": {
        "type": "Point",
        "coordinates": [
          81.934332,
          22.551301
        ]
      },
      "type": "Feature",
      "properties": {
        "hierarchy": [
          "tgn:7577713",
          "tgn:1000004",
          "tgn:7031781",
          "tgn:7000198",
          "tgn:7029392"
        ],
        "placetype": [
          "aat:300007783"
        ],
        "name:en": "Khongsara",
        "id": 7577713
      }
    },
    {
      "geometry": {
        "type": "Point",
        "coordinates": [
          72.716667,
          19.966667
        ]
      },
      "type": "Feature",
      "properties": {
        "hierarchy": [
          "tgn:7577714",
          "tgn:1000004",
          "tgn:7000198",
          "tgn:1001895",
          "tgn:7029392"
        ],
        "placetype": [
          "aat:300266571"
        ],
        "name:en": "Khondha Creek",
        "id": 7577714
      }
    },
    {
      "geometry": {
        "type": "Point",
        "coordinates": [
          81.983333,
          25.15
        ]
      },
      "type": "Feature",
      "properties": {
        "hierarchy": [
          "tgn:7577715",
          "tgn:1000004",
          "tgn:7000198",
          "tgn:7016722",
          "tgn:7029392"
        ],
        "placetype": [
          "aat:300008347"
        ],
        "name:en": "Khond훮r",
        "id": 7577715
      }
    },
    {
      "geometry": {
        "type": "Point",
        "coordinates": [
          82.81529,
          23.740854
        ]
      },
      "type": "Feature",
      "properties": {
        "hierarchy": [
          "tgn:7577716",
          "tgn:1000004",
          "tgn:7031781",
          "tgn:7000198",
          "tgn:7029392"
        ],
        "placetype": [
          "aat:300008347"
        ],
        "name:en": "Khond",
        "id": 7577716
      }
    },
    {
      "geometry": {
        "type": "Point",
        "coordinates": [
          69.126043,
          23.420329
        ]
      },
      "type": "Feature",
      "properties": {
        "hierarchy": [
          "tgn:7577717",
          "tgn:1000004",
          "tgn:1001869",
          "tgn:7000198",
          "tgn:7029392"
        ],
        "placetype": [
          "aat:300008347"
        ],
        "name:en": "Khombhadi Nana",
        "id": 7577717
      }
    },
    {
      "geometry": {
        "type": "Point",
        "coordinates": [
          69.112128,
          23.411144
        ]
      },
      "type": "Feature",
      "properties": {
        "hierarchy": [
          "tgn:7577718",
          "tgn:1000004",
          "tgn:1001869",
          "tgn:7000198",
          "tgn:7029392"
        ],
        "placetype": [
          "aat:300008347"
        ],
        "name:en": "Khombhadi Mota",
        "id": 7577718
      }
    },
    {
      "geometry": {
        "type": "Point",
        "coordinates": [
          69.116667,
          23.416667
        ]
      },
      "type": "Feature",
      "properties": {
        "hierarchy": [
          "tgn:7577719",
          "tgn:1000004",
          "tgn:1001869",
          "tgn:7000198",
          "tgn:7029392"
        ],
        "placetype": [
          "aat:300008347"
        ],
        "name:en": "Khombhadi",
        "id": 7577719
      }
    }
  ]
}
