{
  "type": "FeatureCollection",
  "features": [
    {
      "geometry": {
        "type": "Point",
        "coordinates": [
          120.215278,
          23.652778
        ]
      },
      "type": "Feature",
      "properties": {
        "hierarchy": [
          "tgn:7472810",
          "tgn:1000004",
          "tgn:7001014",
          "tgn:1000141",
          "tgn:7029392"
        ],
        "placetype": [
          "aat:300008347"
        ],
        "id": 7472810,
        "name:xx": "Dongzhuangliao"
      }
    },
    {
      "geometry": {
        "type": "Point",
        "coordinates": [
          120.465049,
          23.890792
        ]
      },
      "type": "Feature",
      "properties": {
        "hierarchy": [
          "tgn:7472811",
          "tgn:1000004",
          "tgn:7467799",
          "tgn:1000141",
          "tgn:7029392"
        ],
        "placetype": [
          "aat:300007836"
        ],
        "id": 7472811,
        "name:xx": "Piliu Qiao"
      }
    },
    {
      "geometry": {
        "type": "Point",
        "coordinates": [
          119.550912,
          23.541763
        ]
      },
      "type": "Feature",
      "properties": {
        "hierarchy": [
          "tgn:7472812",
          "tgn:1000004",
          "tgn:7004300",
          "tgn:1000141",
          "tgn:7029392"
        ],
        "placetype": [
          "aat:300008678"
        ],
        "id": 7472812,
        "name:xx": "Bei Gang"
      }
    },
    {
      "geometry": {
        "type": "Point",
        "coordinates": [
          120.361504,
          23.858439
        ]
      },
      "type": "Feature",
      "properties": {
        "hierarchy": [
          "tgn:7472813",
          "tgn:1000004",
          "tgn:7467799",
          "tgn:1000141",
          "tgn:7029392"
        ],
        "placetype": [
          "aat:300006075"
        ],
        "id": 7472813,
        "name:xx": "Citongpi Zhen"
      }
    },
    {
      "geometry": {
        "type": "Point",
        "coordinates": [
          120.323128,
          23.967521
        ]
      },
      "type": "Feature",
      "properties": {
        "hierarchy": [
          "tgn:7472814",
          "tgn:1000004",
          "tgn:7467799",
          "tgn:1000141",
          "tgn:7029392"
        ],
        "placetype": [
          "aat:300387057"
        ],
        "id": 7472814,
        "name:xx": "Hougang Xikou"
      }
    },
    {
      "geometry": {
        "type": "Point",
        "coordinates": [
          120.329192,
          23.966779
        ]
      },
      "type": "Feature",
      "properties": {
        "hierarchy": [
          "tgn:7472815",
          "tgn:1000004",
          "tgn:7467799",
          "tgn:1000141",
          "tgn:7029392"
        ],
        "placetype": [
          "aat:300006156"
        ],
        "id": 7472815,
        "name:xx": "Wanggong Xinshengdi Haiti"
      }
    },
    {
      "geometry": {
        "type": "Point",
        "coordinates": [
          120.312989,
          23.9546
        ]
      },
      "type": "Feature",
      "properties": {
        "hierarchy": [
          "tgn:7472816",
          "tgn:1000004",
          "tgn:7467799",
          "tgn:1000141",
          "tgn:7029392"
        ],
        "placetype": [
          "aat:300006156"
        ],
        "id": 7472816,
        "name:xx": "Yongxing Haibu Xinshengdi Haiti"
      }
    },
    {
      "geometry": {
        "type": "Point",
        "coordinates": [
          120.382727,
          23.819158
        ]
      },
      "type": "Feature",
      "properties": {
        "hierarchy": [
          "tgn:7472817",
          "tgn:1000004",
          "tgn:7001014",
          "tgn:1000141",
          "tgn:7029392"
        ],
        "placetype": [
          "aat:300006156"
        ],
        "id": 7472817,
        "name:xx": "Dazhuang Ti"
      }
    },
    {
      "geometry": {
        "type": "Point",
        "coordinates": [
          120.506967,
          23.8908
        ]
      },
      "type": "Feature",
      "properties": {
        "hierarchy": [
          "tgn:7472818",
          "tgn:1000004",
          "tgn:7467799",
          "tgn:1000141",
          "tgn:7029392"
        ],
        "placetype": [
          "aat:300008347"
        ],
        "id": 7472818,
        "name:xx": "Sanhaozi"
      }
    },
    {
      "geometry": {
        "type": "Point",
        "coordinates": [
          120.441709,
          23.87768
        ]
      },
      "type": "Feature",
      "properties": {
        "hierarchy": [
          "tgn:7472819",
          "tgn:1000004",
          "tgn:7467799",
          "tgn:1000141",
          "tgn:7029392"
        ],
        "placetype": [
          "aat:300008347"
        ],
        "id": 7472819,
        "name:xx": "Erhu"
      }
    }
  ]
}
