{
  "type": "FeatureCollection",
  "features": [
    {
      "geometry": {
        "type": "Point",
        "coordinates": [
          120.930556,
          24.775278
        ]
      },
      "type": "Feature",
      "properties": {
        "hierarchy": [
          "tgn:7501430",
          "tgn:1000004",
          "tgn:7001002",
          "tgn:1000141",
          "tgn:7029392"
        ],
        "placetype": [
          "aat:300007836"
        ],
        "id": 7501430,
        "name:xx": "Ganlin Qiao"
      }
    },
    {
      "geometry": {
        "type": "Point",
        "coordinates": [
          120.931667,
          24.783611
        ]
      },
      "type": "Feature",
      "properties": {
        "hierarchy": [
          "tgn:7501431",
          "tgn:1000004",
          "tgn:7001002",
          "tgn:1000141",
          "tgn:7029392"
        ],
        "placetype": [
          "aat:300007836"
        ],
        "id": 7501431,
        "name:xx": "Aikou Qiao"
      }
    },
    {
      "geometry": {
        "type": "Point",
        "coordinates": [
          120.9675,
          24.7825
        ]
      },
      "type": "Feature",
      "properties": {
        "hierarchy": [
          "tgn:7501432",
          "tgn:1000004",
          "tgn:7471332",
          "tgn:1000141",
          "tgn:7029392"
        ],
        "placetype": [
          "aat:300007836"
        ],
        "id": 7501432,
        "name:xx": "Zhongxing Qiao"
      }
    },
    {
      "geometry": {
        "type": "Point",
        "coordinates": [
          120.943889,
          24.785278
        ]
      },
      "type": "Feature",
      "properties": {
        "hierarchy": [
          "tgn:7501433",
          "tgn:1000004",
          "tgn:7001002",
          "tgn:1000141",
          "tgn:7029392"
        ],
        "placetype": [
          "aat:300387033"
        ],
        "id": 7501433,
        "name:xx": "Niubu Shan"
      }
    },
    {
      "geometry": {
        "type": "Point",
        "coordinates": [
          120.968333,
          24.7925
        ]
      },
      "type": "Feature",
      "properties": {
        "hierarchy": [
          "tgn:7501434",
          "tgn:1000004",
          "tgn:7001002",
          "tgn:1000141",
          "tgn:7029392"
        ],
        "placetype": [
          "aat:300007836"
        ],
        "id": 7501434,
        "name:xx": "Xinxing Qiao"
      }
    },
    {
      "geometry": {
        "type": "Point",
        "coordinates": [
          120.963611,
          24.791111
        ]
      },
      "type": "Feature",
      "properties": {
        "hierarchy": [
          "tgn:7501435",
          "tgn:1000004",
          "tgn:7001002",
          "tgn:1000141",
          "tgn:7029392"
        ],
        "placetype": [
          "aat:300007836"
        ],
        "id": 7501435,
        "name:xx": "Zhenxing Qiao"
      }
    },
    {
      "geometry": {
        "type": "Point",
        "coordinates": [
          120.958333,
          24.798889
        ]
      },
      "type": "Feature",
      "properties": {
        "hierarchy": [
          "tgn:7501436",
          "tgn:1000004",
          "tgn:7001002",
          "tgn:1000141",
          "tgn:7029392"
        ],
        "placetype": [
          "aat:300007595"
        ],
        "id": 7501436,
        "name:xx": "Xiude Si"
      }
    },
    {
      "geometry": {
        "type": "Point",
        "coordinates": [
          120.965833,
          24.799167
        ]
      },
      "type": "Feature",
      "properties": {
        "hierarchy": [
          "tgn:7501437",
          "tgn:1000004",
          "tgn:7001002",
          "tgn:1000141",
          "tgn:7029392"
        ],
        "placetype": [
          "aat:300007595"
        ],
        "id": 7501437,
        "name:xx": "Fude Gong"
      }
    },
    {
      "geometry": {
        "type": "Point",
        "coordinates": [
          120.970278,
          24.798611
        ]
      },
      "type": "Feature",
      "properties": {
        "hierarchy": [
          "tgn:7501438",
          "tgn:1000004",
          "tgn:7001002",
          "tgn:1000141",
          "tgn:7029392"
        ],
        "placetype": [
          "aat:300007595"
        ],
        "id": 7501438,
        "name:xx": "Zhulian Si"
      }
    },
    {
      "geometry": {
        "type": "Point",
        "coordinates": [
          120.956944,
          24.798333
        ]
      },
      "type": "Feature",
      "properties": {
        "hierarchy": [
          "tgn:7501439",
          "tgn:1000004",
          "tgn:7001002",
          "tgn:1000141",
          "tgn:7029392"
        ],
        "placetype": [
          "aat:300007836"
        ],
        "id": 7501439,
        "name:xx": "Zhongshan Qiao"
      }
    }
  ]
}
