{
  "type": "FeatureCollection",
  "features": [
    {
      "geometry": {
        "type": "Point",
        "coordinates": [
          33.149722,
          27.25
        ]
      },
      "type": "Feature",
      "properties": {
        "hierarchy": [
          "tgn:7543260",
          "tgn:7001242",
          "tgn:7001311",
          "tgn:7016833",
          "tgn:7029392"
        ],
        "placetype": [
          "aat:300008347"
        ],
        "name:en": "Ad Dahhār",
        "id": 7543260
      }
    },
    {
      "geometry": {
        "type": "Point",
        "coordinates": [
          33.136111,
          27.008333
        ]
      },
      "type": "Feature",
      "properties": {
        "hierarchy": [
          "tgn:7543261",
          "tgn:7001242",
          "tgn:7001311",
          "tgn:7016833",
          "tgn:7029392"
        ],
        "placetype": [
          "aat:300008777"
        ],
        "name:en": "Umm Gharr, Jabal",
        "id": 7543261
      }
    },
    {
      "geometry": {
        "type": "Point",
        "coordinates": [
          33.858094,
          27.087341
        ]
      },
      "type": "Feature",
      "properties": {
        "hierarchy": [
          "tgn:7543262",
          "tgn:7001242",
          "tgn:7001311",
          "tgn:7016833",
          "tgn:7029392"
        ],
        "placetype": [
          "aat:300132317"
        ],
        "name:en": "Ḩalwaj, Marsá al",
        "id": 7543262
      }
    },
    {
      "geometry": {
        "type": "Point",
        "coordinates": [
          32.492672,
          25.308727
        ]
      },
      "type": "Feature",
      "properties": {
        "hierarchy": [
          "tgn:7543263",
          "tgn:7001242",
          "tgn:7016833",
          "tgn:7000123",
          "tgn:7029392"
        ],
        "placetype": [
          "aat:300008347"
        ],
        "name:en": "Al Wasţá",
        "id": 7543263
      }
    },
    {
      "geometry": {
        "type": "Point",
        "coordinates": [
          32.491365,
          25.331247
        ]
      },
      "type": "Feature",
      "properties": {
        "hierarchy": [
          "tgn:7543264",
          "tgn:7001242",
          "tgn:7016833",
          "tgn:7000123",
          "tgn:7029392"
        ],
        "placetype": [
          "aat:300008347"
        ],
        "name:en": "Qaryat Tūmās wa 'Āfiyah",
        "id": 7543264
      }
    },
    {
      "geometry": {
        "type": "Point",
        "coordinates": [
          32.057496,
          26.306992
        ]
      },
      "type": "Feature",
      "properties": {
        "hierarchy": [
          "tgn:7543265",
          "tgn:7001242",
          "tgn:7001311",
          "tgn:7016833",
          "tgn:7029392"
        ],
        "placetype": [
          "aat:300008347"
        ],
        "name:en": "'Arab al 'Aţīyāt",
        "id": 7543265
      }
    },
    {
      "geometry": {
        "type": "Point",
        "coordinates": [
          32.022222,
          26.008333
        ]
      },
      "type": "Feature",
      "properties": {
        "hierarchy": [
          "tgn:7543266",
          "tgn:7001242",
          "tgn:7016833",
          "tgn:7000124",
          "tgn:7029392"
        ],
        "placetype": [
          "aat:300008347"
        ],
        "name:en": "Naj' Jād al Karīm",
        "id": 7543266
      }
    },
    {
      "geometry": {
        "type": "Point",
        "coordinates": [
          32.055929,
          26.278048
        ]
      },
      "type": "Feature",
      "properties": {
        "hierarchy": [
          "tgn:7543267",
          "tgn:7001242",
          "tgn:7016833",
          "tgn:7000124",
          "tgn:7029392"
        ],
        "placetype": [
          "aat:300008347"
        ],
        "name:en": "Dār as Salām",
        "id": 7543267
      }
    },
    {
      "geometry": {
        "type": "Point",
        "coordinates": [
          32.104167,
          26.013889
        ]
      },
      "type": "Feature",
      "properties": {
        "hierarchy": [
          "tgn:7543268",
          "tgn:7001242",
          "tgn:7016833",
          "tgn:7000124",
          "tgn:7029392"
        ],
        "placetype": [
          "aat:300008347"
        ],
        "name:en": "Naj' 'Arab aş Şabḩah",
        "id": 7543268
      }
    },
    {
      "geometry": {
        "type": "Point",
        "coordinates": [
          31.024955,
          27.370045
        ]
      },
      "type": "Feature",
      "properties": {
        "hierarchy": [
          "tgn:7543269",
          "tgn:7001242",
          "tgn:7001311",
          "tgn:7016833",
          "tgn:7029392"
        ],
        "placetype": [
          "aat:300008777"
        ],
        "name:en": "Jurnah, Jabal al",
        "id": 7543269
      }
    }
  ]
}
