{
  "type": "FeatureCollection",
  "features": [
    {
      "geometry": {
        "type": "Point",
        "coordinates": [
          118.333333,
          24.466667
        ]
      },
      "type": "Feature",
      "properties": {
        "hierarchy": [
          "tgn:7473621",
          "tgn:7469009",
          "tgn:1000004",
          "tgn:1000141",
          "tgn:7029392"
        ],
        "placetype": [
          "aat:300008777"
        ],
        "id": 7473621,
        "name:xx": "Dongsheng Shan"
      }
    },
    {
      "geometry": {
        "type": "Point",
        "coordinates": [
          120.858724,
          24.298325
        ]
      },
      "type": "Feature",
      "properties": {
        "hierarchy": [
          "tgn:7473622",
          "tgn:7487020",
          "tgn:1000004",
          "tgn:1000141",
          "tgn:7029392"
        ],
        "placetype": [
          "aat:300008347"
        ],
        "id": 7473622,
        "name:xx": "Dongsheng"
      }
    },
    {
      "geometry": {
        "type": "Point",
        "coordinates": [
          121.248333,
          24.915833
        ]
      },
      "type": "Feature",
      "properties": {
        "hierarchy": [
          "tgn:7473623",
          "tgn:1000004",
          "tgn:7001013",
          "tgn:1000141",
          "tgn:7029392"
        ],
        "placetype": [
          "aat:300008347"
        ],
        "id": 7473623,
        "name:xx": "Dongshe"
      }
    },
    {
      "geometry": {
        "type": "Point",
        "coordinates": [
          120.814743,
          24.616791
        ]
      },
      "type": "Feature",
      "properties": {
        "hierarchy": [
          "tgn:7473624",
          "tgn:7487020",
          "tgn:1000004",
          "tgn:1000141",
          "tgn:7029392"
        ],
        "placetype": [
          "aat:300008347"
        ],
        "id": 7473624,
        "name:xx": "Zhongzhuang"
      }
    },
    {
      "geometry": {
        "type": "Point",
        "coordinates": [
          118.313611,
          24.407778
        ]
      },
      "type": "Feature",
      "properties": {
        "hierarchy": [
          "tgn:7473625",
          "tgn:7469009",
          "tgn:1000004",
          "tgn:1000141",
          "tgn:7029392"
        ],
        "placetype": [
          "aat:300008347"
        ],
        "id": 7473625,
        "name:xx": "Dongshe"
      }
    },
    {
      "geometry": {
        "type": "Point",
        "coordinates": [
          118.448056,
          24.446667
        ]
      },
      "type": "Feature",
      "properties": {
        "hierarchy": [
          "tgn:7473626",
          "tgn:7469009",
          "tgn:1000004",
          "tgn:1000141",
          "tgn:7029392"
        ],
        "placetype": [
          "aat:300008347"
        ],
        "id": 7473626,
        "name:xx": "Dongshawei"
      }
    },
    {
      "geometry": {
        "type": "Point",
        "coordinates": [
          121.778207,
          24.721904
        ]
      },
      "type": "Feature",
      "properties": {
        "hierarchy": [
          "tgn:7473627",
          "tgn:1000004",
          "tgn:7489179",
          "tgn:1000141",
          "tgn:7029392"
        ],
        "placetype": [
          "aat:300008347"
        ],
        "id": 7473627,
        "name:xx": "Dingnanxing"
      }
    },
    {
      "geometry": {
        "type": "Point",
        "coordinates": [
          120.575,
          24.295278
        ]
      },
      "type": "Feature",
      "properties": {
        "hierarchy": [
          "tgn:7473628",
          "tgn:1000004",
          "tgn:7001009",
          "tgn:1000141",
          "tgn:7029392"
        ],
        "placetype": [
          "aat:300008347"
        ],
        "id": 7473628,
        "name:xx": "Sanyuanzhuang"
      }
    }
  ]
}
