{
  "type": "FeatureCollection",
  "features": [
    {
      "geometry": {
        "type": "Point",
        "coordinates": [
          121.650073,
          24.709994
        ]
      },
      "type": "Feature",
      "properties": {
        "hierarchy": [
          "tgn:7476070",
          "tgn:1000004",
          "tgn:7489179",
          "tgn:1000141",
          "tgn:7029392"
        ],
        "placetype": [
          "aat:300007836"
        ],
        "id": 7476070,
        "name:xx": "Gancai Qiao"
      }
    },
    {
      "geometry": {
        "type": "Point",
        "coordinates": [
          121.652028,
          24.711502
        ]
      },
      "type": "Feature",
      "properties": {
        "hierarchy": [
          "tgn:7476071",
          "tgn:1000004",
          "tgn:7489179",
          "tgn:1000141",
          "tgn:7029392"
        ],
        "placetype": [
          "aat:300006495"
        ],
        "id": 7476071,
        "name:xx": "Huayu Guoxiao"
      }
    },
    {
      "geometry": {
        "type": "Point",
        "coordinates": [
          121.655554,
          24.710493
        ]
      },
      "type": "Feature",
      "properties": {
        "hierarchy": [
          "tgn:7476072",
          "tgn:1000004",
          "tgn:7489179",
          "tgn:1000141",
          "tgn:7029392"
        ],
        "placetype": [
          "aat:300007836"
        ],
        "id": 7476072,
        "name:xx": "Zhonghuacun Qiao"
      }
    },
    {
      "geometry": {
        "type": "Point",
        "coordinates": [
          121.67995,
          24.71449
        ]
      },
      "type": "Feature",
      "properties": {
        "hierarchy": [
          "tgn:7476073",
          "tgn:1000004",
          "tgn:7489179",
          "tgn:1000141",
          "tgn:7029392"
        ],
        "placetype": [
          "aat:300387033"
        ],
        "id": 7476073,
        "name:xx": "Taiyangpi"
      }
    },
    {
      "geometry": {
        "type": "Point",
        "coordinates": [
          120.6956,
          23.8566
        ]
      },
      "type": "Feature",
      "properties": {
        "hierarchy": [
          "tgn:7476075",
          "tgn:7488858",
          "tgn:1000004",
          "tgn:1000141",
          "tgn:7029392"
        ],
        "placetype": [
          "aat:300007836"
        ],
        "id": 7476075,
        "name:xx": "Huzikeng Qiao"
      }
    },
    {
      "geometry": {
        "type": "Point",
        "coordinates": [
          120.6905,
          23.8593
        ]
      },
      "type": "Feature",
      "properties": {
        "hierarchy": [
          "tgn:7476076",
          "tgn:7488858",
          "tgn:1000004",
          "tgn:1000141",
          "tgn:7029392"
        ],
        "placetype": [
          "aat:300008347"
        ],
        "id": 7476076,
        "name:xx": "Dingcuo"
      }
    },
    {
      "geometry": {
        "type": "Point",
        "coordinates": [
          120.6942,
          23.8575
        ]
      },
      "type": "Feature",
      "properties": {
        "hierarchy": [
          "tgn:7476077",
          "tgn:7488858",
          "tgn:1000004",
          "tgn:1000141",
          "tgn:7029392"
        ],
        "placetype": [
          "aat:300006495"
        ],
        "id": 7476077,
        "name:xx": "Qiaoxing Guoxiao"
      }
    },
    {
      "geometry": {
        "type": "Point",
        "coordinates": [
          120.6968,
          23.8537
        ]
      },
      "type": "Feature",
      "properties": {
        "hierarchy": [
          "tgn:7476078",
          "tgn:7488858",
          "tgn:1000004",
          "tgn:1000141",
          "tgn:7029392"
        ],
        "placetype": [
          "aat:300008347"
        ],
        "id": 7476078,
        "name:xx": "Fangzijiao"
      }
    },
    {
      "geometry": {
        "type": "Point",
        "coordinates": [
          120.7056,
          23.859952
        ]
      },
      "type": "Feature",
      "properties": {
        "hierarchy": [
          "tgn:7476079",
          "tgn:7488858",
          "tgn:1000004",
          "tgn:1000141",
          "tgn:7029392"
        ],
        "placetype": [
          "aat:300007836"
        ],
        "id": 7476079,
        "name:xx": "Huzitou Qiao"
      }
    }
  ]
}
