{
  "type": "FeatureCollection",
  "features": [
    {
      "geometry": {
        "type": "Point",
        "coordinates": [
          -96.343611,
          16.734167
        ]
      },
      "type": "Feature",
      "properties": {
        "hierarchy": [
          "tgn:7415961",
          "tgn:1000001",
          "tgn:7005591",
          "tgn:7005560",
          "tgn:7029392"
        ],
        "placetype": [
          "aat:300008699"
        ],
        "id": 7415961,
        "name:es": "Seco, Arroyo"
      }
    },
    {
      "geometry": {
        "type": "Point",
        "coordinates": [
          -95.104722,
          17.004167
        ]
      },
      "type": "Feature",
      "properties": {
        "hierarchy": [
          "tgn:7415962",
          "tgn:1000001",
          "tgn:7005591",
          "tgn:7005560",
          "tgn:7029392"
        ],
        "placetype": [
          "aat:300008347"
        ],
        "id": 7415962,
        "name:es": "Encinal Colorado"
      }
    },
    {
      "geometry": {
        "type": "Point",
        "coordinates": [
          -95.171667,
          17.069444
        ]
      },
      "type": "Feature",
      "properties": {
        "hierarchy": [
          "tgn:7415963",
          "tgn:1000001",
          "tgn:7005591",
          "tgn:7005560",
          "tgn:7029392"
        ],
        "placetype": [
          "aat:300008699"
        ],
        "id": 7415963,
        "name:es": "Sarabia, Río"
      }
    },
    {
      "geometry": {
        "type": "Point",
        "coordinates": [
          -98.061667,
          16.794444
        ]
      },
      "type": "Feature",
      "properties": {
        "hierarchy": [
          "tgn:7415964",
          "tgn:1000001",
          "tgn:7005591",
          "tgn:7005560",
          "tgn:7029392"
        ],
        "placetype": [
          "aat:300008347"
        ],
        "id": 7415964,
        "name:es": "San Vicente Piñas"
      }
    },
    {
      "geometry": {
        "type": "Point",
        "coordinates": [
          -98.031111,
          16.813611
        ]
      },
      "type": "Feature",
      "properties": {
        "hierarchy": [
          "tgn:7415965",
          "tgn:1000001",
          "tgn:7005591",
          "tgn:7005560",
          "tgn:7029392"
        ],
        "placetype": [
          "aat:300008347"
        ],
        "id": 7415965,
        "name:es": "San Antonio Zaragoza"
      }
    },
    {
      "geometry": {
        "type": "Point",
        "coordinates": [
          -98.0625,
          16.876389
        ]
      },
      "type": "Feature",
      "properties": {
        "hierarchy": [
          "tgn:7415966",
          "tgn:1000001",
          "tgn:7005591",
          "tgn:7005560",
          "tgn:7029392"
        ],
        "placetype": [
          "aat:300008347"
        ],
        "id": 7415966,
        "name:es": "La Culebra"
      }
    },
    {
      "geometry": {
        "type": "Point",
        "coordinates": [
          -98.014167,
          16.866111
        ]
      },
      "type": "Feature",
      "properties": {
        "hierarchy": [
          "tgn:7415967",
          "tgn:1000001",
          "tgn:7005591",
          "tgn:7005560",
          "tgn:7029392"
        ],
        "placetype": [
          "aat:300008347"
        ],
        "id": 7415967,
        "name:es": "San Isidro Amatitlán"
      }
    },
    {
      "geometry": {
        "type": "Point",
        "coordinates": [
          -97.999167,
          16.822222
        ]
      },
      "type": "Feature",
      "properties": {
        "hierarchy": [
          "tgn:7415968",
          "tgn:1000001",
          "tgn:7005591",
          "tgn:7005560",
          "tgn:7029392"
        ],
        "placetype": [
          "aat:300008347"
        ],
        "id": 7415968,
        "name:es": "Tapanco"
      }
    },
    {
      "geometry": {
        "type": "Point",
        "coordinates": [
          -97.914444,
          16.843611
        ]
      },
      "type": "Feature",
      "properties": {
        "hierarchy": [
          "tgn:7415969",
          "tgn:1000001",
          "tgn:7005591",
          "tgn:7005560",
          "tgn:7029392"
        ],
        "placetype": [
          "aat:300008795"
        ],
        "id": 7415969,
        "name:es": "Corral de Piedra, Cerro"
      }
    }
  ]
}
