{
  "type": "FeatureCollection",
  "features": [
    {
      "geometry": {
        "type": "Point",
        "coordinates": [
          31.517108,
          30.939732
        ]
      },
      "type": "Feature",
      "properties": {
        "hierarchy": [
          "tgn:7526741",
          "tgn:7001242",
          "tgn:1001059",
          "tgn:7016833",
          "tgn:7029392"
        ],
        "placetype": [
          "aat:300008777"
        ],
        "id": 7526741,
        "name:xx": "Timayy, Tall"
      }
    },
    {
      "geometry": {
        "type": "Point",
        "coordinates": [
          30.940285,
          29.18209
        ]
      },
      "type": "Feature",
      "properties": {
        "hierarchy": [
          "tgn:7526742",
          "tgn:7001242",
          "tgn:7001105",
          "tgn:7016833",
          "tgn:7029392"
        ],
        "placetype": [
          "aat:300008347"
        ],
        "name:en": "Ţimā Fayyūm",
        "id": 7526742
      }
    },
    {
      "geometry": {
        "type": "Point",
        "coordinates": [
          31.45,
          26.883333
        ]
      },
      "type": "Feature",
      "properties": {
        "hierarchy": [
          "tgn:7526743",
          "tgn:7001242",
          "tgn:7016833",
          "tgn:7000124",
          "tgn:7029392"
        ],
        "placetype": [
          "aat:300343519"
        ],
        "name:en": "Ţimā ash Sharqī, Ḩawḑ",
        "id": 7526743
      }
    },
    {
      "geometry": {
        "type": "Point",
        "coordinates": [
          31.466667,
          26.916667
        ]
      },
      "type": "Feature",
      "properties": {
        "hierarchy": [
          "tgn:7526744",
          "tgn:7001242",
          "tgn:7016833",
          "tgn:7000124",
          "tgn:7029392"
        ],
        "placetype": [
          "aat:300008791"
        ],
        "name:en": "Ţimā, Jazīrat",
        "id": 7526744
      }
    },
    {
      "geometry": {
        "type": "Point",
        "coordinates": [
          31.45,
          26.916667
        ]
      },
      "type": "Feature",
      "properties": {
        "hierarchy": [
          "tgn:7526745",
          "tgn:7001242",
          "tgn:7016833",
          "tgn:1001114",
          "tgn:7029392"
        ],
        "placetype": [
          "aat:300343519"
        ],
        "name:en": "Ţimā, Ḩawshat",
        "id": 7526745
      }
    },
    {
      "geometry": {
        "type": "Point",
        "coordinates": [
          34.187787,
          28.281947
        ]
      },
      "type": "Feature",
      "properties": {
        "hierarchy": [
          "tgn:7526746",
          "tgn:7001242",
          "tgn:7016833",
          "tgn:7001336",
          "tgn:7029392"
        ],
        "placetype": [
          "aat:300008795"
        ],
        "name:en": "Timah, Jabal at",
        "id": 7526746
      }
    },
    {
      "geometry": {
        "type": "Point",
        "coordinates": [
          30.999393,
          30.382902
        ]
      },
      "type": "Feature",
      "properties": {
        "hierarchy": [
          "tgn:7526748",
          "tgn:7001242",
          "tgn:7016833",
          "tgn:1001087",
          "tgn:7029392"
        ],
        "placetype": [
          "aat:300008347"
        ],
        "id": 7526748,
        "name:xx": "Tilwānah"
      }
    }
  ]
}
