{
  "type": "FeatureCollection",
  "features": [
    {
      "geometry": {
        "type": "Point",
        "coordinates": [
          8.85,
          44.4167
        ]
      },
      "type": "Feature",
      "properties": {
        "hierarchy": [
          "tgn:1046890",
          "tgn:1000003",
          "tgn:7003142",
          "tgn:7003236",
          "tgn:1000080",
          "tgn:7029392"
        ],
        "placetype": [
          "aat:300008347"
        ],
        "id": 1046890,
        "name:xx": "Sestri Ponente"
      }
    },
    {
      "geometry": {
        "type": "Point",
        "coordinates": [
          6.883333,
          44.95
        ]
      },
      "type": "Feature",
      "properties": {
        "hierarchy": [
          "tgn:1046891",
          "tgn:7003154",
          "tgn:1000003",
          "tgn:7003120",
          "tgn:1000080",
          "tgn:7029392"
        ],
        "placetype": [
          "aat:300008347"
        ],
        "id": 1046891,
        "name:xx": "Sestriere"
      }
    },
    {
      "geometry": {
        "type": "Point",
        "coordinates": [
          9.090833,
          39.300556
        ]
      },
      "type": "Feature",
      "properties": {
        "hierarchy": [
          "tgn:1046892",
          "tgn:1001641",
          "tgn:1000003",
          "tgn:7003121",
          "tgn:1000080",
          "tgn:7029392"
        ],
        "placetype": [
          "aat:300008347"
        ],
        "id": 1046892,
        "name:xx": "Sestu"
      }
    },
    {
      "geometry": {
        "type": "Point",
        "coordinates": [
          9.05,
          45.4833
        ]
      },
      "type": "Feature",
      "properties": {
        "hierarchy": [
          "tgn:1046893",
          "tgn:7003150",
          "tgn:1000003",
          "tgn:7003237",
          "tgn:1000080",
          "tgn:7029392"
        ],
        "placetype": [
          "aat:300008347"
        ],
        "id": 1046893,
        "name:xx": "Settimo Milanese"
      }
    },
    {
      "geometry": {
        "type": "Point",
        "coordinates": [
          9.185556,
          39.289722
        ]
      },
      "type": "Feature",
      "properties": {
        "hierarchy": [
          "tgn:1046894",
          "tgn:1001641",
          "tgn:1000003",
          "tgn:7003121",
          "tgn:1000080",
          "tgn:7029392"
        ],
        "placetype": [
          "aat:300008347"
        ],
        "id": 1046894,
        "name:xx": "Settimo San Pietro"
      }
    },
    {
      "geometry": {
        "type": "Point",
        "coordinates": [
          7.766667,
          45.15
        ]
      },
      "type": "Feature",
      "properties": {
        "hierarchy": [
          "tgn:1046895",
          "tgn:7003154",
          "tgn:1000003",
          "tgn:7003120",
          "tgn:1000080",
          "tgn:7029392"
        ],
        "placetype": [
          "aat:300008347"
        ],
        "id": 1046895,
        "name:xx": "Settimo Torinese"
      }
    },
    {
      "geometry": {
        "type": "Point",
        "coordinates": [
          16.5167,
          38.9167
        ]
      },
      "type": "Feature",
      "properties": {
        "hierarchy": [
          "tgn:1046897",
          "tgn:1003447",
          "tgn:7007850",
          "tgn:1000003",
          "tgn:1000080",
          "tgn:7029392"
        ],
        "placetype": [
          "aat:300008347"
        ],
        "id": 1046897,
        "name:xx": "Settingiano"
      }
    },
    {
      "geometry": {
        "type": "Point",
        "coordinates": [
          9.32,
          39.839167
        ]
      },
      "type": "Feature",
      "properties": {
        "hierarchy": [
          "tgn:1046898",
          "tgn:1001724",
          "tgn:1000003",
          "tgn:7003121",
          "tgn:1000080",
          "tgn:7029392"
        ],
        "placetype": [
          "aat:300008347"
        ],
        "id": 1046898,
        "name:xx": "Seui"
      }
    },
    {
      "geometry": {
        "type": "Point",
        "coordinates": [
          9.236944,
          39.869444
        ]
      },
      "type": "Feature",
      "properties": {
        "hierarchy": [
          "tgn:1046899",
          "tgn:1001724",
          "tgn:1000003",
          "tgn:7003121",
          "tgn:1000080",
          "tgn:7029392"
        ],
        "placetype": [
          "aat:300008347"
        ],
        "id": 1046899,
        "name:xx": "Seulo"
      }
    }
  ]
}
