{
  "type": "FeatureCollection",
  "features": [
    {
      "geometry": {
        "type": "Point",
        "coordinates": [
          29.642624,
          30.398619
        ]
      },
      "type": "Feature",
      "properties": {
        "hierarchy": [
          "tgn:7538180",
          "tgn:7001242",
          "tgn:1001075",
          "tgn:7016833",
          "tgn:7029392"
        ],
        "placetype": [
          "aat:300008749"
        ],
        "name:en": "Muhadhad, Minqār al",
        "id": 7538180
      }
    },
    {
      "geometry": {
        "type": "Point",
        "coordinates": [
          30.666667,
          29.516667
        ]
      },
      "type": "Feature",
      "properties": {
        "hierarchy": [
          "tgn:7538181",
          "tgn:7001242",
          "tgn:7001105",
          "tgn:7016833",
          "tgn:7029392"
        ],
        "placetype": [
          "aat:300008777"
        ],
        "name:en": "Muḩāddah, Qārat al",
        "id": 7538181
      }
    },
    {
      "geometry": {
        "type": "Point",
        "coordinates": [
          27.316667,
          31.183333
        ]
      },
      "type": "Feature",
      "properties": {
        "hierarchy": [
          "tgn:7538182",
          "tgn:7001242",
          "tgn:7016833",
          "tgn:1001418",
          "tgn:7029392"
        ],
        "placetype": [
          "aat:300008749"
        ],
        "name:en": "Mughiyiba, Minqar",
        "id": 7538182
      }
    },
    {
      "geometry": {
        "type": "Point",
        "coordinates": [
          32.010549,
          29.110293
        ]
      },
      "type": "Feature",
      "properties": {
        "hierarchy": [
          "tgn:7538183",
          "tgn:7001242",
          "tgn:7016833",
          "tgn:1001110",
          "tgn:7029392"
        ],
        "placetype": [
          "aat:300379998"
        ],
        "name:en": "Mugheita, Wâdi",
        "id": 7538183
      }
    },
    {
      "geometry": {
        "type": "Point",
        "coordinates": [
          34.822103,
          29.421241
        ]
      },
      "type": "Feature",
      "properties": {
        "hierarchy": [
          "tgn:7538184",
          "tgn:7001242",
          "tgn:7016833",
          "tgn:7001336",
          "tgn:7029392"
        ],
        "placetype": [
          "aat:300379998"
        ],
        "name:en": "Maqblā, Wādī",
        "id": 7538184
      }
    },
    {
      "geometry": {
        "type": "Point",
        "coordinates": [
          30.933796,
          28.450113
        ]
      },
      "type": "Feature",
      "properties": {
        "hierarchy": [
          "tgn:7538185",
          "tgn:7001242",
          "tgn:7001311",
          "tgn:7016833",
          "tgn:7029392"
        ],
        "placetype": [
          "aat:300008777"
        ],
        "name:en": "Maghayrbī, Ţūr al",
        "id": 7538185
      }
    },
    {
      "geometry": {
        "type": "Point",
        "coordinates": [
          32.062719,
          30.751615
        ]
      },
      "type": "Feature",
      "properties": {
        "hierarchy": [
          "tgn:7538186",
          "tgn:7001242",
          "tgn:7016833",
          "tgn:1001113",
          "tgn:7029392"
        ],
        "placetype": [
          "aat:300266556"
        ],
        "name:en": "Mughardajah, Mallāḩat al",
        "id": 7538186
      }
    },
    {
      "geometry": {
        "type": "Point",
        "coordinates": [
          32.466667,
          30.016667
        ]
      },
      "type": "Feature",
      "properties": {
        "hierarchy": [
          "tgn:7538187",
          "tgn:7001242",
          "tgn:7016833",
          "tgn:1001110",
          "tgn:7029392"
        ],
        "placetype": [
          "aat:300004847"
        ],
        "name:en": "Basţat al Mughaffal",
        "id": 7538187
      }
    },
    {
      "geometry": {
        "type": "Point",
        "coordinates": [
          25.920725,
          29.388733
        ]
      },
      "type": "Feature",
      "properties": {
        "hierarchy": [
          "tgn:7538188",
          "tgn:7001242",
          "tgn:7016833",
          "tgn:1001418",
          "tgn:7029392"
        ],
        "placetype": [
          "aat:300379998"
        ],
        "name:en": "Mugabara, Wadi el",
        "id": 7538188
      }
    },
    {
      "geometry": {
        "type": "Point",
        "coordinates": [
          25.049599,
          30.563468
        ]
      },
      "type": "Feature",
      "properties": {
        "hierarchy": [
          "tgn:7538189",
          "tgn:7001242",
          "tgn:7016833",
          "tgn:1001418",
          "tgn:7029392"
        ],
        "placetype": [
          "aat:300008777"
        ],
        "name:en": "Mûg, 'Alam el-",
        "id": 7538189
      }
    }
  ]
}
