{
  "type": "FeatureCollection",
  "features": [
    {
      "geometry": {
        "type": "Point",
        "coordinates": [
          -100.525,
          18.233333
        ]
      },
      "type": "Feature",
      "properties": {
        "hierarchy": [
          "tgn:7404420",
          "tgn:7005585",
          "tgn:1000001",
          "tgn:7005560",
          "tgn:7029392"
        ],
        "placetype": [
          "aat:300008347"
        ],
        "id": 7404420,
        "name:xx": "San Juan Mina"
      }
    },
    {
      "geometry": {
        "type": "Point",
        "coordinates": [
          -100.483333,
          18.241667
        ]
      },
      "type": "Feature",
      "properties": {
        "hierarchy": [
          "tgn:7404421",
          "tgn:7005585",
          "tgn:1000001",
          "tgn:7005560",
          "tgn:7029392"
        ],
        "placetype": [
          "aat:300008347"
        ],
        "id": 7404421,
        "name:xx": "Coacoyul"
      }
    },
    {
      "geometry": {
        "type": "Point",
        "coordinates": [
          -100.491667,
          18.258333
        ]
      },
      "type": "Feature",
      "properties": {
        "hierarchy": [
          "tgn:7404422",
          "tgn:7005585",
          "tgn:1000001",
          "tgn:7005560",
          "tgn:7029392"
        ],
        "placetype": [
          "aat:300008347"
        ],
        "id": 7404422,
        "name:xx": "Las Fraguas"
      }
    },
    {
      "geometry": {
        "type": "Point",
        "coordinates": [
          -100.783333,
          17.983333
        ]
      },
      "type": "Feature",
      "properties": {
        "hierarchy": [
          "tgn:7404423",
          "tgn:7005585",
          "tgn:1000001",
          "tgn:7005560",
          "tgn:7029392"
        ],
        "placetype": [
          "aat:300008347"
        ],
        "id": 7404423,
        "name:xx": "Pinz치n Dulce"
      }
    },
    {
      "geometry": {
        "type": "Point",
        "coordinates": [
          -100.891667,
          17.983333
        ]
      },
      "type": "Feature",
      "properties": {
        "hierarchy": [
          "tgn:7404424",
          "tgn:7005585",
          "tgn:1000001",
          "tgn:7005560",
          "tgn:7029392"
        ],
        "placetype": [
          "aat:300008347"
        ],
        "id": 7404424,
        "name:xx": "El Mango"
      }
    },
    {
      "geometry": {
        "type": "Point",
        "coordinates": [
          -100.633333,
          18.025
        ]
      },
      "type": "Feature",
      "properties": {
        "hierarchy": [
          "tgn:7404425",
          "tgn:7005585",
          "tgn:1000001",
          "tgn:7005560",
          "tgn:7029392"
        ],
        "placetype": [
          "aat:300008347"
        ],
        "id": 7404425,
        "name:xx": "Las Garzas"
      }
    },
    {
      "geometry": {
        "type": "Point",
        "coordinates": [
          -100.716667,
          18.041667
        ]
      },
      "type": "Feature",
      "properties": {
        "hierarchy": [
          "tgn:7404426",
          "tgn:7005585",
          "tgn:1000001",
          "tgn:7005560",
          "tgn:7029392"
        ],
        "placetype": [
          "aat:300008347"
        ],
        "id": 7404426,
        "name:xx": "El Ciri치n"
      }
    },
    {
      "geometry": {
        "type": "Point",
        "coordinates": [
          -100.766667,
          18.05
        ]
      },
      "type": "Feature",
      "properties": {
        "hierarchy": [
          "tgn:7404427",
          "tgn:7005585",
          "tgn:1000001",
          "tgn:7005560",
          "tgn:7029392"
        ],
        "placetype": [
          "aat:300008347"
        ],
        "id": 7404427,
        "name:xx": "El Lim칩n"
      }
    },
    {
      "geometry": {
        "type": "Point",
        "coordinates": [
          -100.833333,
          18.033333
        ]
      },
      "type": "Feature",
      "properties": {
        "hierarchy": [
          "tgn:7404428",
          "tgn:7005585",
          "tgn:1000001",
          "tgn:7005560",
          "tgn:7029392"
        ],
        "placetype": [
          "aat:300266640"
        ],
        "id": 7404428,
        "name:xx": "Rinc칩n de las Palmas, Filo"
      }
    },
    {
      "geometry": {
        "type": "Point",
        "coordinates": [
          -100.883333,
          18.05
        ]
      },
      "type": "Feature",
      "properties": {
        "hierarchy": [
          "tgn:7404429",
          "tgn:7005585",
          "tgn:1000001",
          "tgn:7005560",
          "tgn:7029392"
        ],
        "placetype": [
          "aat:300008347"
        ],
        "id": 7404429,
        "name:xx": "Santa Gertrudis"
      }
    }
  ]
}
