{
  "type": "FeatureCollection",
  "features": [
    {
      "geometry": {
        "type": "Point",
        "coordinates": [
          74.908333,
          32.580556
        ]
      },
      "type": "Feature",
      "properties": {
        "hierarchy": [
          "tgn:7591080",
          "tgn:1000004",
          "tgn:7000198",
          "tgn:7000799",
          "tgn:7029392"
        ],
        "placetype": [
          "aat:300008347"
        ],
        "name:en": "Kothe",
        "id": 7591080
      }
    },
    {
      "geometry": {
        "type": "Point",
        "coordinates": [
          74.901389,
          32.575
        ]
      },
      "type": "Feature",
      "properties": {
        "hierarchy": [
          "tgn:7591081",
          "tgn:1000004",
          "tgn:7000198",
          "tgn:7000799",
          "tgn:7029392"
        ],
        "placetype": [
          "aat:300008347"
        ],
        "name:en": "Kajāīen de Kothe",
        "id": 7591081
      }
    },
    {
      "geometry": {
        "type": "Point",
        "coordinates": [
          74.905556,
          32.568056
        ]
      },
      "type": "Feature",
      "properties": {
        "hierarchy": [
          "tgn:7591082",
          "tgn:1000004",
          "tgn:7000198",
          "tgn:7000799",
          "tgn:7029392"
        ],
        "placetype": [
          "aat:300167671"
        ],
        "name:en": "Ātmāpur",
        "id": 7591082
      }
    },
    {
      "geometry": {
        "type": "Point",
        "coordinates": [
          74.905556,
          32.563889
        ]
      },
      "type": "Feature",
      "properties": {
        "hierarchy": [
          "tgn:7591083",
          "tgn:1000004",
          "tgn:7000198",
          "tgn:7000799",
          "tgn:7029392"
        ],
        "placetype": [
          "aat:300008347"
        ],
        "name:en": "Chak Umra",
        "id": 7591083
      }
    },
    {
      "geometry": {
        "type": "Point",
        "coordinates": [
          74.923611,
          32.563889
        ]
      },
      "type": "Feature",
      "properties": {
        "hierarchy": [
          "tgn:7591084",
          "tgn:1000004",
          "tgn:7000198",
          "tgn:7000799",
          "tgn:7029392"
        ],
        "placetype": [
          "aat:300008347"
        ],
        "name:en": "Doāl",
        "id": 7591084
      }
    },
    {
      "geometry": {
        "type": "Point",
        "coordinates": [
          74.923611,
          32.565278
        ]
      },
      "type": "Feature",
      "properties": {
        "hierarchy": [
          "tgn:7591085",
          "tgn:1000004",
          "tgn:7000198",
          "tgn:7000799",
          "tgn:7029392"
        ],
        "placetype": [
          "aat:300008347"
        ],
        "name:en": "Chak Keshab",
        "id": 7591085
      }
    },
    {
      "geometry": {
        "type": "Point",
        "coordinates": [
          74.927058,
          32.568914
        ]
      },
      "type": "Feature",
      "properties": {
        "hierarchy": [
          "tgn:7591086",
          "tgn:1000004",
          "tgn:7000198",
          "tgn:7000799",
          "tgn:7029392"
        ],
        "placetype": [
          "aat:300008347"
        ],
        "name:en": "Chak Sūba",
        "id": 7591086
      }
    },
    {
      "geometry": {
        "type": "Point",
        "coordinates": [
          74.931944,
          32.573611
        ]
      },
      "type": "Feature",
      "properties": {
        "hierarchy": [
          "tgn:7591087",
          "tgn:1000004",
          "tgn:7000198",
          "tgn:7000799",
          "tgn:7029392"
        ],
        "placetype": [
          "aat:300008347"
        ],
        "name:en": "Chak Bhatiyāri",
        "id": 7591087
      }
    },
    {
      "geometry": {
        "type": "Point",
        "coordinates": [
          74.932613,
          32.57198
        ]
      },
      "type": "Feature",
      "properties": {
        "hierarchy": [
          "tgn:7591088",
          "tgn:1000004",
          "tgn:7000198",
          "tgn:7000799",
          "tgn:7029392"
        ],
        "placetype": [
          "aat:300008347"
        ],
        "name:en": "Chak Qādir",
        "id": 7591088
      }
    },
    {
      "geometry": {
        "type": "Point",
        "coordinates": [
          74.920541,
          32.574709
        ]
      },
      "type": "Feature",
      "properties": {
        "hierarchy": [
          "tgn:7591089",
          "tgn:1000004",
          "tgn:7000198",
          "tgn:7000799",
          "tgn:7029392"
        ],
        "placetype": [
          "aat:300008347"
        ],
        "name:en": "Khoijīpur",
        "id": 7591089
      }
    }
  ]
}
