{
  "type": "FeatureCollection",
  "features": [
    {
      "geometry": {
        "type": "Point",
        "coordinates": [
          93.666667,
          7.233333
        ]
      },
      "type": "Feature",
      "properties": {
        "hierarchy": [
          "tgn:7556810",
          "tgn:7016678",
          "tgn:7000204",
          "tgn:1000004",
          "tgn:7000198",
          "tgn:7029392"
        ],
        "placetype": [
          "aat:300008713"
        ],
        "name:en": "Saint George' Channel",
        "id": 7556810
      }
    },
    {
      "geometry": {
        "type": "Point",
        "coordinates": [
          80.285833,
          13.078333
        ]
      },
      "type": "Feature",
      "properties": {
        "hierarchy": [
          "tgn:7556811",
          "tgn:1000004",
          "tgn:7000198",
          "tgn:7001797",
          "tgn:7029392"
        ],
        "placetype": [
          "aat:300006909"
        ],
        "name:en": "Fort Saint George",
        "id": 7556811
      }
    },
    {
      "geometry": {
        "type": "Point",
        "coordinates": [
          83.333333,
          20.433333
        ]
      },
      "type": "Feature",
      "properties": {
        "hierarchy": [
          "tgn:7556812",
          "tgn:1000004",
          "tgn:7000198",
          "tgn:7016694",
          "tgn:7029392"
        ],
        "placetype": [
          "aat:300008347"
        ],
        "name:en": "Saintala",
        "id": 7556812
      }
    },
    {
      "geometry": {
        "type": "Point",
        "coordinates": [
          78.575596,
          22.960037
        ]
      },
      "type": "Feature",
      "properties": {
        "hierarchy": [
          "tgn:7556813",
          "tgn:1000004",
          "tgn:7000198",
          "tgn:1001894",
          "tgn:7029392"
        ],
        "placetype": [
          "aat:300008347"
        ],
        "name:en": "Sāinkheda",
        "id": 7556813
      }
    },
    {
      "geometry": {
        "type": "Point",
        "coordinates": [
          78.094675,
          21.777009
        ]
      },
      "type": "Feature",
      "properties": {
        "hierarchy": [
          "tgn:7556814",
          "tgn:1000004",
          "tgn:7000198",
          "tgn:1001894",
          "tgn:7029392"
        ],
        "placetype": [
          "aat:300008347"
        ],
        "name:en": "Sainkhedā",
        "id": 7556814
      }
    },
    {
      "geometry": {
        "type": "Point",
        "coordinates": [
          77.302156,
          31.767197
        ]
      },
      "type": "Feature",
      "properties": {
        "hierarchy": [
          "tgn:7556815",
          "tgn:1000004",
          "tgn:7000198",
          "tgn:1001996",
          "tgn:7029392"
        ],
        "placetype": [
          "aat:300008347"
        ],
        "name:en": "Sainj",
        "id": 7556815
      }
    },
    {
      "geometry": {
        "type": "Point",
        "coordinates": [
          78.833333,
          13.066667
        ]
      },
      "type": "Feature",
      "properties": {
        "hierarchy": [
          "tgn:7556816",
          "tgn:1000004",
          "tgn:7000198",
          "tgn:7001797",
          "tgn:7029392"
        ],
        "placetype": [
          "aat:300008347"
        ],
        "name:en": "Sainigunta",
        "id": 7556816
      }
    },
    {
      "geometry": {
        "type": "Point",
        "coordinates": [
          78.707036,
          20.837395
        ]
      },
      "type": "Feature",
      "properties": {
        "hierarchy": [
          "tgn:7556817",
          "tgn:1000004",
          "tgn:7000198",
          "tgn:1001895",
          "tgn:7029392"
        ],
        "placetype": [
          "aat:300008347"
        ],
        "name:en": "Sailu",
        "id": 7556817
      }
    },
    {
      "geometry": {
        "type": "Point",
        "coordinates": [
          76.466667,
          19.466667
        ]
      },
      "type": "Feature",
      "properties": {
        "hierarchy": [
          "tgn:7556818",
          "tgn:1000004",
          "tgn:7000198",
          "tgn:1001895",
          "tgn:7029392"
        ],
        "placetype": [
          "aat:300008347"
        ],
        "name:en": "Sailu",
        "id": 7556818
      }
    },
    {
      "geometry": {
        "type": "Point",
        "coordinates": [
          73.033333,
          20.233333
        ]
      },
      "type": "Feature",
      "properties": {
        "hierarchy": [
          "tgn:7556819",
          "tgn:1000004",
          "tgn:1001992",
          "tgn:7000198",
          "tgn:7029392"
        ],
        "placetype": [
          "aat:300008347"
        ],
        "name:en": "Sāili",
        "id": 7556819
      }
    }
  ]
}
