{
  "type": "FeatureCollection",
  "features": [
    {
      "geometry": {
        "type": "Point",
        "coordinates": [
          43.6333,
          47.3667
        ]
      },
      "type": "Feature",
      "properties": {
        "hierarchy": [
          "tgn:1125420",
          "tgn:1000004",
          "tgn:7002435",
          "tgn:7029392"
        ],
        "placetype": [
          "aat:300008707"
        ],
        "id": 1125420,
        "name:xx": "Kara-Sal"
      }
    },
    {
      "geometry": {
        "type": "Point",
        "coordinates": [
          48.9833,
          41.4667
        ]
      },
      "type": "Feature",
      "properties": {
        "hierarchy": [
          "tgn:1125421",
          "tgn:7011438",
          "tgn:1000004",
          "tgn:7006646",
          "tgn:7029392"
        ],
        "placetype": [
          "aat:300008707"
        ],
        "id": 1125421,
        "name:xx": "Karachay"
      }
    },
    {
      "geometry": {
        "type": "Point",
        "coordinates": [
          97.0333,
          58.3667
        ]
      },
      "type": "Feature",
      "properties": {
        "hierarchy": [
          "tgn:1125423",
          "tgn:1000004",
          "tgn:7002435",
          "tgn:7029392"
        ],
        "placetype": [
          "aat:300008707"
        ],
        "id": 1125423,
        "name:xx": "Karabula"
      }
    },
    {
      "geometry": {
        "type": "Point",
        "coordinates": [
          71.75,
          40.9167
        ]
      },
      "type": "Feature",
      "properties": {
        "hierarchy": [
          "tgn:1125424",
          "tgn:1000004",
          "tgn:7029392"
        ],
        "placetype": [
          "aat:300008707"
        ],
        "id": 1125424,
        "name:xx": "Karadar'ya"
      }
    },
    {
      "geometry": {
        "type": "Point",
        "coordinates": [
          51.2333,
          35.3833
        ]
      },
      "type": "Feature",
      "properties": {
        "hierarchy": [
          "tgn:1125425",
          "tgn:1000004",
          "tgn:7002004",
          "tgn:7000231",
          "tgn:7029392"
        ],
        "placetype": [
          "aat:300008707"
        ],
        "id": 1125425,
        "name:xx": "Karaj, Rūdkhāneh-ye"
      }
    },
    {
      "geometry": {
        "type": "Point",
        "coordinates": [
          46.9667,
          42.5833
        ]
      },
      "type": "Feature",
      "properties": {
        "hierarchy": [
          "tgn:1125426",
          "tgn:1000004",
          "tgn:7011494",
          "tgn:7002435",
          "tgn:7029392"
        ],
        "placetype": [
          "aat:300008707"
        ],
        "id": 1125426,
        "name:xx": "Karakoysu"
      }
    },
    {
      "geometry": {
        "type": "Point",
        "coordinates": [
          75.75,
          41.1667
        ]
      },
      "type": "Feature",
      "properties": {
        "hierarchy": [
          "tgn:1125427",
          "tgn:1000004",
          "tgn:7006655",
          "tgn:7029392"
        ],
        "placetype": [
          "aat:300008707"
        ],
        "id": 1125427,
        "name:xx": "Karakojun"
      }
    },
    {
      "geometry": {
        "type": "Point",
        "coordinates": [
          -12.05,
          14.7167
        ]
      },
      "type": "Feature",
      "properties": {
        "hierarchy": [
          "tgn:1125428",
          "tgn:7001242",
          "tgn:7029392"
        ],
        "placetype": [
          "aat:300008707"
        ],
        "id": 1125428,
        "name:xx": "Karakoro"
      }
    },
    {
      "geometry": {
        "type": "Point",
        "coordinates": [
          75.75,
          41.9667
        ]
      },
      "type": "Feature",
      "properties": {
        "hierarchy": [
          "tgn:1125429",
          "tgn:1000004",
          "tgn:1003394",
          "tgn:7006655",
          "tgn:7029392"
        ],
        "placetype": [
          "aat:300008707"
        ],
        "id": 1125429,
        "name:xx": "Karakudzhur"
      }
    }
  ]
}
