{
  "type": "FeatureCollection",
  "features": [
    {
      "geometry": {
        "type": "Point",
        "coordinates": [
          73.493602,
          25.572235
        ]
      },
      "type": "Feature",
      "properties": {
        "hierarchy": [
          "tgn:7545710",
          "tgn:1000004",
          "tgn:7000198",
          "tgn:7016788",
          "tgn:7029392"
        ],
        "placetype": [
          "aat:300008347"
        ],
        "name:en": "Bhinwāliya",
        "id": 7545710
      }
    },
    {
      "geometry": {
        "type": "Point",
        "coordinates": [
          76.78229,
          27.893946
        ]
      },
      "type": "Feature",
      "properties": {
        "hierarchy": [
          "tgn:7545713",
          "tgn:1000004",
          "tgn:7000198",
          "tgn:7016788",
          "tgn:7029392"
        ],
        "placetype": [
          "aat:300008347"
        ],
        "name:en": "Bhindūsi",
        "id": 7545713
      }
    },
    {
      "geometry": {
        "type": "Point",
        "coordinates": [
          78.146484,
          26.449061
        ]
      },
      "type": "Feature",
      "properties": {
        "hierarchy": [
          "tgn:7545714",
          "tgn:1000004",
          "tgn:7000198",
          "tgn:1001894",
          "tgn:7029392"
        ],
        "placetype": [
          "aat:300006075"
        ],
        "name:en": "Bhind Main Canal",
        "id": 7545714
      }
    },
    {
      "geometry": {
        "type": "Point",
        "coordinates": [
          75.193433,
          31.534511
        ]
      },
      "type": "Feature",
      "properties": {
        "hierarchy": [
          "tgn:7545715",
          "tgn:1000004",
          "tgn:7000198",
          "tgn:7016883",
          "tgn:7029392"
        ],
        "placetype": [
          "aat:300008347"
        ],
        "name:en": "Bhindar",
        "id": 7545715
      }
    },
    {
      "geometry": {
        "type": "Point",
        "coordinates": [
          83.545059,
          25.364046
        ]
      },
      "type": "Feature",
      "properties": {
        "hierarchy": [
          "tgn:7545716",
          "tgn:1000004",
          "tgn:1001842",
          "tgn:7000198",
          "tgn:7029392"
        ],
        "placetype": [
          "aat:300008347"
        ],
        "name:en": "Baruin",
        "id": 7545716
      }
    },
    {
      "geometry": {
        "type": "Point",
        "coordinates": [
          85.70124,
          22.892846
        ]
      },
      "type": "Feature",
      "properties": {
        "hierarchy": [
          "tgn:7545717",
          "tgn:1000004",
          "tgn:7000198",
          "tgn:7031783",
          "tgn:7029392"
        ],
        "placetype": [
          "aat:300008347"
        ],
        "name:en": "Bāruhātu",
        "id": 7545717
      }
    },
    {
      "geometry": {
        "type": "Point",
        "coordinates": [
          84.616667,
          20.016667
        ]
      },
      "type": "Feature",
      "properties": {
        "hierarchy": [
          "tgn:7545718",
          "tgn:1000004",
          "tgn:7000198",
          "tgn:7016694",
          "tgn:7029392"
        ],
        "placetype": [
          "aat:300008347"
        ],
        "name:en": "Bāruda",
        "id": 7545718
      }
    },
    {
      "geometry": {
        "type": "Point",
        "coordinates": [
          75.526848,
          21.749674
        ]
      },
      "type": "Feature",
      "properties": {
        "hierarchy": [
          "tgn:7545719",
          "tgn:1000004",
          "tgn:7000198",
          "tgn:1001894",
          "tgn:7029392"
        ],
        "placetype": [
          "aat:300008347"
        ],
        "name:en": "Barud",
        "id": 7545719
      }
    }
  ]
}
