{
  "type": "FeatureCollection",
  "features": [
    {
      "geometry": {
        "type": "Point",
        "coordinates": [
          121.537679,
          25.295314
        ]
      },
      "type": "Feature",
      "properties": {
        "hierarchy": [
          "tgn:7468580",
          "tgn:1000004",
          "tgn:1000454",
          "tgn:1000141",
          "tgn:7029392"
        ],
        "placetype": [
          "aat:300008347"
        ],
        "id": 7468580,
        "name:xx": "Fenglin"
      }
    },
    {
      "geometry": {
        "type": "Point",
        "coordinates": [
          121.316667,
          24.983333
        ]
      },
      "type": "Feature",
      "properties": {
        "hierarchy": [
          "tgn:7468581",
          "tgn:1000004",
          "tgn:7001013",
          "tgn:1000141",
          "tgn:7029392"
        ],
        "placetype": [
          "aat:300008347"
        ],
        "id": 7468581,
        "name:xx": "Fenglin"
      }
    },
    {
      "geometry": {
        "type": "Point",
        "coordinates": [
          120.4525,
          23.366944
        ]
      },
      "type": "Feature",
      "properties": {
        "hierarchy": [
          "tgn:7468583",
          "tgn:1000004",
          "tgn:7490934",
          "tgn:1000141",
          "tgn:7029392"
        ],
        "placetype": [
          "aat:300008347"
        ],
        "id": 7468583,
        "name:xx": "Fangzilin"
      }
    },
    {
      "geometry": {
        "type": "Point",
        "coordinates": [
          121.1425,
          22.746111
        ]
      },
      "type": "Feature",
      "properties": {
        "hierarchy": [
          "tgn:7468584",
          "tgn:1000004",
          "tgn:7491221",
          "tgn:1000141",
          "tgn:7029392"
        ],
        "placetype": [
          "aat:300007836"
        ],
        "id": 7468584,
        "name:xx": "Fengli Qiao"
      }
    },
    {
      "geometry": {
        "type": "Point",
        "coordinates": [
          120.441903,
          23.144041
        ]
      },
      "type": "Feature",
      "properties": {
        "hierarchy": [
          "tgn:7468585",
          "tgn:1000004",
          "tgn:7490934",
          "tgn:1000141",
          "tgn:7029392"
        ],
        "placetype": [
          "aat:300008347"
        ],
        "id": 7468585,
        "name:xx": "Fengli"
      }
    },
    {
      "geometry": {
        "type": "Point",
        "coordinates": [
          121.118056,
          22.73
        ]
      },
      "type": "Feature",
      "properties": {
        "hierarchy": [
          "tgn:7468586",
          "tgn:1000004",
          "tgn:7491221",
          "tgn:1000141",
          "tgn:7029392"
        ],
        "placetype": [
          "aat:300008347"
        ],
        "id": 7468586,
        "name:xx": "Fengli"
      }
    },
    {
      "geometry": {
        "type": "Point",
        "coordinates": [
          120.701626,
          23.928404
        ]
      },
      "type": "Feature",
      "properties": {
        "hierarchy": [
          "tgn:7468587",
          "tgn:7488858",
          "tgn:1000004",
          "tgn:1000141",
          "tgn:7029392"
        ],
        "placetype": [
          "aat:300008347"
        ],
        "id": 7468587,
        "name:xx": "Xinpou"
      }
    },
    {
      "geometry": {
        "type": "Point",
        "coordinates": [
          120.548333,
          23.662778
        ]
      },
      "type": "Feature",
      "properties": {
        "hierarchy": [
          "tgn:7468588",
          "tgn:1000004",
          "tgn:7001014",
          "tgn:1000141",
          "tgn:7029392"
        ],
        "placetype": [
          "aat:300008347"
        ],
        "id": 7468588,
        "name:xx": "Xinpou"
      }
    },
    {
      "geometry": {
        "type": "Point",
        "coordinates": [
          120.283333,
          22.983333
        ]
      },
      "type": "Feature",
      "properties": {
        "hierarchy": [
          "tgn:7468589",
          "tgn:1000004",
          "tgn:7490934",
          "tgn:1000141",
          "tgn:7029392"
        ],
        "placetype": [
          "aat:300008347"
        ],
        "id": 7468589,
        "name:xx": "Xinbuluo"
      }
    }
  ]
}
