{
  "type": "FeatureCollection",
  "features": [
    {
      "geometry": {
        "type": "Point",
        "coordinates": [
          75.216667,
          20.566667
        ]
      },
      "type": "Feature",
      "properties": {
        "hierarchy": [
          "tgn:7554430",
          "tgn:1000004",
          "tgn:7000198",
          "tgn:1001895",
          "tgn:7029392"
        ],
        "placetype": [
          "aat:300008347"
        ],
        "name:en": "Nagar Devla",
        "id": 7554430
      }
    },
    {
      "geometry": {
        "type": "Point",
        "coordinates": [
          90.990186,
          26.111079
        ]
      },
      "type": "Feature",
      "properties": {
        "hierarchy": [
          "tgn:7554431",
          "tgn:1000004",
          "tgn:1001832",
          "tgn:7000198",
          "tgn:7029392"
        ],
        "placetype": [
          "aat:300008347"
        ],
        "name:en": "Nagarbera",
        "id": 7554431
      }
    },
    {
      "geometry": {
        "type": "Point",
        "coordinates": [
          88.416667,
          22.616667
        ]
      },
      "type": "Feature",
      "properties": {
        "hierarchy": [
          "tgn:7554432",
          "tgn:1000004",
          "tgn:7000198",
          "tgn:1001977",
          "tgn:7029392"
        ],
        "placetype": [
          "aat:300008347"
        ],
        "name:en": "Nagarbazar",
        "id": 7554432
      }
    },
    {
      "geometry": {
        "type": "Point",
        "coordinates": [
          81.833333,
          16.433333
        ]
      },
      "type": "Feature",
      "properties": {
        "hierarchy": [
          "tgn:7554433",
          "tgn:1001828",
          "tgn:1000004",
          "tgn:7000198",
          "tgn:7029392"
        ],
        "placetype": [
          "aat:300008791"
        ],
        "name:en": "Nagaram Island",
        "id": 7554433
      }
    },
    {
      "geometry": {
        "type": "Point",
        "coordinates": [
          75.203823,
          26.464186
        ]
      },
      "type": "Feature",
      "properties": {
        "hierarchy": [
          "tgn:7554437",
          "tgn:1000004",
          "tgn:7000198",
          "tgn:7016788",
          "tgn:7029392"
        ],
        "placetype": [
          "aat:300008347"
        ],
        "name:en": "Nagar",
        "id": 7554437
      }
    },
    {
      "geometry": {
        "type": "Point",
        "coordinates": [
          75.825735,
          25.900159
        ]
      },
      "type": "Feature",
      "properties": {
        "hierarchy": [
          "tgn:7554438",
          "tgn:1000004",
          "tgn:7000198",
          "tgn:7016788",
          "tgn:7029392"
        ],
        "placetype": [
          "aat:300008347"
        ],
        "name:en": "Nagar",
        "id": 7554438
      }
    },
    {
      "geometry": {
        "type": "Point",
        "coordinates": [
          82.45,
          23.266667
        ]
      },
      "type": "Feature",
      "properties": {
        "hierarchy": [
          "tgn:7554439",
          "tgn:1000004",
          "tgn:7031781",
          "tgn:7000198",
          "tgn:7029392"
        ],
        "placetype": [
          "aat:300008347"
        ],
        "name:en": "Nagar",
        "id": 7554439
      }
    }
  ]
}
