{
  "type": "FeatureCollection",
  "features": [
    {
      "geometry": {
        "type": "Point",
        "coordinates": [
          34.616072,
          28.956696
        ]
      },
      "type": "Feature",
      "properties": {
        "hierarchy": [
          "tgn:7532670",
          "tgn:7001242",
          "tgn:7016833",
          "tgn:7001336",
          "tgn:7029392"
        ],
        "placetype": [
          "aat:300379998"
        ],
        "id": 7532670,
        "name:xx": "Dhuba, Rôḍ-el"
      }
    },
    {
      "geometry": {
        "type": "Point",
        "coordinates": [
          34.645,
          28.907737
        ]
      },
      "type": "Feature",
      "properties": {
        "hierarchy": [
          "tgn:7532671",
          "tgn:7001242",
          "tgn:7016833",
          "tgn:7001336",
          "tgn:7029392"
        ],
        "placetype": [
          "aat:300379998"
        ],
        "id": 7532671,
        "name:xx": "Hus, Rôḍ-el"
      }
    },
    {
      "geometry": {
        "type": "Point",
        "coordinates": [
          34.564422,
          28.948104
        ]
      },
      "type": "Feature",
      "properties": {
        "hierarchy": [
          "tgn:7532672",
          "tgn:7001242",
          "tgn:7016833",
          "tgn:7001336",
          "tgn:7029392"
        ],
        "placetype": [
          "aat:300379998"
        ],
        "id": 7532672,
        "name:xx": "Umm 'Amar, Wādī"
      }
    },
    {
      "geometry": {
        "type": "Point",
        "coordinates": [
          34.542877,
          28.922956
        ]
      },
      "type": "Feature",
      "properties": {
        "hierarchy": [
          "tgn:7532673",
          "tgn:7001242",
          "tgn:7016833",
          "tgn:7001336",
          "tgn:7029392"
        ],
        "placetype": [
          "aat:300379998"
        ],
        "id": 7532673,
        "name:xx": "Umm Gurdi, Wâdi"
      }
    },
    {
      "geometry": {
        "type": "Point",
        "coordinates": [
          34.566467,
          28.980081
        ]
      },
      "type": "Feature",
      "properties": {
        "hierarchy": [
          "tgn:7532674",
          "tgn:7001242",
          "tgn:7016833",
          "tgn:7001336",
          "tgn:7029392"
        ],
        "placetype": [
          "aat:300379998"
        ],
        "id": 7532674,
        "name:xx": "Umm Shūkat, Wādī"
      }
    },
    {
      "geometry": {
        "type": "Point",
        "coordinates": [
          34.531389,
          28.961667
        ]
      },
      "type": "Feature",
      "properties": {
        "hierarchy": [
          "tgn:7532675",
          "tgn:7001242",
          "tgn:7016833",
          "tgn:7001336",
          "tgn:7029392"
        ],
        "placetype": [
          "aat:300379998"
        ],
        "id": 7532675,
        "name:xx": "Khalkul, Wâdi"
      }
    },
    {
      "geometry": {
        "type": "Point",
        "coordinates": [
          32.132767,
          31.280451
        ]
      },
      "type": "Feature",
      "properties": {
        "hierarchy": [
          "tgn:7532676",
          "tgn:7001242",
          "tgn:7016833",
          "tgn:1001123",
          "tgn:7029392"
        ],
        "placetype": [
          "aat:300008791"
        ],
        "id": 7532676,
        "name:xx": "Dawwāsah, Jazīrat"
      }
    },
    {
      "geometry": {
        "type": "Point",
        "coordinates": [
          32.17,
          31.259722
        ]
      },
      "type": "Feature",
      "properties": {
        "hierarchy": [
          "tgn:7532677",
          "tgn:7001242",
          "tgn:7016833",
          "tgn:1001123",
          "tgn:7029392"
        ],
        "placetype": [
          "aat:300008791"
        ],
        "id": 7532677,
        "name:xx": "Ţarḩat aş Şīr"
      }
    },
    {
      "geometry": {
        "type": "Point",
        "coordinates": [
          32.249468,
          31.147072
        ]
      },
      "type": "Feature",
      "properties": {
        "hierarchy": [
          "tgn:7532678",
          "tgn:7001242",
          "tgn:7016833",
          "tgn:1001123",
          "tgn:7029392"
        ],
        "placetype": [
          "aat:300006075"
        ],
        "id": 7532678,
        "name:xx": "Tur'et Sirḥân"
      }
    },
    {
      "geometry": {
        "type": "Point",
        "coordinates": [
          32.154167,
          31.179167
        ]
      },
      "type": "Feature",
      "properties": {
        "hierarchy": [
          "tgn:7532679",
          "tgn:7001242",
          "tgn:7016833",
          "tgn:1001113",
          "tgn:7029392"
        ],
        "placetype": [
          "aat:300008791"
        ],
        "name:en": "'Aggâg, Gezîret el-",
        "id": 7532679
      }
    }
  ]
}
