{
  "type": "FeatureCollection",
  "features": [
    {
      "geometry": {
        "type": "Point",
        "coordinates": [
          75.619591,
          26.990197
        ]
      },
      "type": "Feature",
      "properties": {
        "hierarchy": [
          "tgn:7559840",
          "tgn:1000004",
          "tgn:7000198",
          "tgn:7016788",
          "tgn:7029392"
        ],
        "placetype": [
          "aat:300008347"
        ],
        "name:en": "Sāran ki Dhāni",
        "id": 7559840
      }
    },
    {
      "geometry": {
        "type": "Point",
        "coordinates": [
          75.643594,
          26.987638
        ]
      },
      "type": "Feature",
      "properties": {
        "hierarchy": [
          "tgn:7559841",
          "tgn:1000004",
          "tgn:7000198",
          "tgn:7016788",
          "tgn:7029392"
        ],
        "placetype": [
          "aat:300008347"
        ],
        "name:en": "Dherwāli Dhāni",
        "id": 7559841
      }
    },
    {
      "geometry": {
        "type": "Point",
        "coordinates": [
          75.656127,
          26.986876
        ]
      },
      "type": "Feature",
      "properties": {
        "hierarchy": [
          "tgn:7559842",
          "tgn:1000004",
          "tgn:7000198",
          "tgn:7016788",
          "tgn:7029392"
        ],
        "placetype": [
          "aat:300008347"
        ],
        "name:en": "Talāra",
        "id": 7559842
      }
    },
    {
      "geometry": {
        "type": "Point",
        "coordinates": [
          75.668284,
          26.984793
        ]
      },
      "type": "Feature",
      "properties": {
        "hierarchy": [
          "tgn:7559843",
          "tgn:1000004",
          "tgn:7000198",
          "tgn:7016788",
          "tgn:7029392"
        ],
        "placetype": [
          "aat:300008347"
        ],
        "name:en": "Bhūdarpura",
        "id": 7559843
      }
    },
    {
      "geometry": {
        "type": "Point",
        "coordinates": [
          75.68785,
          26.983359
        ]
      },
      "type": "Feature",
      "properties": {
        "hierarchy": [
          "tgn:7559844",
          "tgn:1000004",
          "tgn:7000198",
          "tgn:7016788",
          "tgn:7029392"
        ],
        "placetype": [
          "aat:300008347"
        ],
        "name:en": "Lālpura",
        "id": 7559844
      }
    },
    {
      "geometry": {
        "type": "Point",
        "coordinates": [
          75.689496,
          26.986382
        ]
      },
      "type": "Feature",
      "properties": {
        "hierarchy": [
          "tgn:7559845",
          "tgn:1000004",
          "tgn:7000198",
          "tgn:7016788",
          "tgn:7029392"
        ],
        "placetype": [
          "aat:300008347"
        ],
        "name:en": "Mansārāmpura",
        "id": 7559845
      }
    },
    {
      "geometry": {
        "type": "Point",
        "coordinates": [
          75.723299,
          26.988345
        ]
      },
      "type": "Feature",
      "properties": {
        "hierarchy": [
          "tgn:7559846",
          "tgn:1000004",
          "tgn:7000198",
          "tgn:7016788",
          "tgn:7029392"
        ],
        "placetype": [
          "aat:300008347"
        ],
        "name:en": "Jīwan Patel ki Dhāni",
        "id": 7559846
      }
    },
    {
      "geometry": {
        "type": "Point",
        "coordinates": [
          75.725345,
          26.976846
        ]
      },
      "type": "Feature",
      "properties": {
        "hierarchy": [
          "tgn:7559847",
          "tgn:1000004",
          "tgn:7000198",
          "tgn:7016788",
          "tgn:7029392"
        ],
        "placetype": [
          "aat:300008347"
        ],
        "name:en": "Kumhāron ki Dhāni",
        "id": 7559847
      }
    },
    {
      "geometry": {
        "type": "Point",
        "coordinates": [
          75.7401,
          26.9758
        ]
      },
      "type": "Feature",
      "properties": {
        "hierarchy": [
          "tgn:7559848",
          "tgn:1000004",
          "tgn:7000198",
          "tgn:7016788",
          "tgn:7029392"
        ],
        "placetype": [
          "aat:300008347"
        ],
        "name:en": "Nādi ki Dhāni",
        "id": 7559848
      }
    },
    {
      "geometry": {
        "type": "Point",
        "coordinates": [
          75.732147,
          26.995546
        ]
      },
      "type": "Feature",
      "properties": {
        "hierarchy": [
          "tgn:7559849",
          "tgn:1000004",
          "tgn:7000198",
          "tgn:7016788",
          "tgn:7029392"
        ],
        "placetype": [
          "aat:300008347"
        ],
        "name:en": "Kākuri Dhāni",
        "id": 7559849
      }
    }
  ]
}
