{
  "type": "FeatureCollection",
  "features": [
    {
      "geometry": {
        "type": "Point",
        "coordinates": [
          119.597092,
          23.665853
        ]
      },
      "type": "Feature",
      "properties": {
        "hierarchy": [
          "tgn:7477090",
          "tgn:1000004",
          "tgn:7004300",
          "tgn:1000141",
          "tgn:7029392"
        ],
        "placetype": [
          "aat:300006495"
        ],
        "id": 7477090,
        "name:xx": "Chikan Guoxiao"
      }
    },
    {
      "geometry": {
        "type": "Point",
        "coordinates": [
          119.597435,
          23.667643
        ]
      },
      "type": "Feature",
      "properties": {
        "hierarchy": [
          "tgn:7477091",
          "tgn:1000004",
          "tgn:7004300",
          "tgn:1000141",
          "tgn:7029392"
        ],
        "placetype": [
          "aat:300006495"
        ],
        "id": 7477091,
        "name:xx": "Baisha Guozhong"
      }
    },
    {
      "geometry": {
        "type": "Point",
        "coordinates": [
          119.597665,
          23.674432
        ]
      },
      "type": "Feature",
      "properties": {
        "hierarchy": [
          "tgn:7477092",
          "tgn:1000004",
          "tgn:7004300",
          "tgn:1000141",
          "tgn:7029392"
        ],
        "placetype": [
          "aat:300008347"
        ],
        "id": 7477092,
        "name:xx": "Longtou"
      }
    },
    {
      "geometry": {
        "type": "Point",
        "coordinates": [
          119.594648,
          23.693668
        ]
      },
      "type": "Feature",
      "properties": {
        "hierarchy": [
          "tgn:7477093",
          "tgn:1000004",
          "tgn:7004300",
          "tgn:1000141",
          "tgn:7029392"
        ],
        "placetype": [
          "aat:300008777"
        ],
        "id": 7477093,
        "name:xx": "Shizi Tou"
      }
    },
    {
      "geometry": {
        "type": "Point",
        "coordinates": [
          119.58884,
          23.710657
        ]
      },
      "type": "Feature",
      "properties": {
        "hierarchy": [
          "tgn:7477094",
          "tgn:1000004",
          "tgn:7004300",
          "tgn:1000141",
          "tgn:7029392"
        ],
        "placetype": [
          "aat:300008808"
        ],
        "id": 7477094,
        "name:xx": "Shuangxie Jiao"
      }
    },
    {
      "geometry": {
        "type": "Point",
        "coordinates": [
          119.57879,
          23.673995
        ]
      },
      "type": "Feature",
      "properties": {
        "hierarchy": [
          "tgn:7477095",
          "tgn:1000004",
          "tgn:7004300",
          "tgn:1000141",
          "tgn:7029392"
        ],
        "placetype": [
          "aat:300008347"
        ],
        "id": 7477095,
        "name:xx": "Touhu"
      }
    },
    {
      "geometry": {
        "type": "Point",
        "coordinates": [
          119.569709,
          23.672177
        ]
      },
      "type": "Feature",
      "properties": {
        "hierarchy": [
          "tgn:7477096",
          "tgn:1000004",
          "tgn:7004300",
          "tgn:1000141",
          "tgn:7029392"
        ],
        "placetype": [
          "aat:300008678"
        ],
        "id": 7477096,
        "name:xx": "Houliao Xiyugang"
      }
    },
    {
      "geometry": {
        "type": "Point",
        "coordinates": [
          119.569305,
          23.618096
        ]
      },
      "type": "Feature",
      "properties": {
        "hierarchy": [
          "tgn:7477097",
          "tgn:1000004",
          "tgn:7004300",
          "tgn:1000141",
          "tgn:7029392"
        ],
        "placetype": [
          "aat:300007595"
        ],
        "id": 7477097,
        "name:xx": "Shuixian Gong"
      }
    },
    {
      "geometry": {
        "type": "Point",
        "coordinates": [
          119.568887,
          23.617121
        ]
      },
      "type": "Feature",
      "properties": {
        "hierarchy": [
          "tgn:7477098",
          "tgn:1000004",
          "tgn:7004300",
          "tgn:1000141",
          "tgn:7029392"
        ],
        "placetype": [
          "aat:300008678"
        ],
        "id": 7477098,
        "name:xx": "Dacang Yugang"
      }
    },
    {
      "geometry": {
        "type": "Point",
        "coordinates": [
          121.864207,
          25.03416
        ]
      },
      "type": "Feature",
      "properties": {
        "hierarchy": [
          "tgn:7477099",
          "tgn:1000004",
          "tgn:1000454",
          "tgn:1000141",
          "tgn:7029392"
        ],
        "placetype": [
          "aat:300008699"
        ],
        "id": 7477099,
        "name:xx": "Pinglin Xi"
      }
    }
  ]
}
