{
  "type": "FeatureCollection",
  "features": [
    {
      "geometry": {
        "type": "Point",
        "coordinates": [
          -70.95,
          -27.116667
        ]
      },
      "type": "Feature",
      "properties": {
        "hierarchy": [
          "tgn:1012201",
          "tgn:1001630",
          "tgn:1000049",
          "tgn:1000002",
          "tgn:7029392"
        ],
        "placetype": [
          "aat:300386846"
        ],
        "id": 1012201,
        "name:xx": "Morro, Punta"
      }
    },
    {
      "geometry": {
        "type": "Point",
        "coordinates": [
          -96.45,
          19.85
        ]
      },
      "type": "Feature",
      "properties": {
        "hierarchy": [
          "tgn:1012202",
          "tgn:1000001",
          "tgn:7005599",
          "tgn:7005560",
          "tgn:7029392"
        ],
        "placetype": [
          "aat:300386846"
        ],
        "id": 1012202,
        "name:xx": "Morro, Punta del"
      }
    },
    {
      "geometry": {
        "type": "Point",
        "coordinates": [
          -4.216667,
          51.183333
        ]
      },
      "type": "Feature",
      "properties": {
        "hierarchy": [
          "tgn:1012203",
          "tgn:7002445",
          "tgn:1000003",
          "tgn:7012077",
          "tgn:7008591",
          "tgn:7029392"
        ],
        "placetype": [
          "aat:300386846"
        ],
        "name:en": "Morte Point",
        "id": 1012203
      }
    },
    {
      "geometry": {
        "type": "Point",
        "coordinates": [
          -77.8833,
          9.1333
        ]
      },
      "type": "Feature",
      "properties": {
        "hierarchy": [
          "tgn:1012204",
          "tgn:7005571",
          "tgn:1000001",
          "tgn:7005565",
          "tgn:7029392"
        ],
        "placetype": [
          "aat:300386846"
        ],
        "id": 1012204,
        "name:xx": "Mosquit, Punta"
      }
    },
    {
      "geometry": {
        "type": "Point",
        "coordinates": [
          -73.0667,
          40.9667
        ]
      },
      "type": "Feature",
      "properties": {
        "hierarchy": [
          "tgn:1012207",
          "tgn:1000001",
          "tgn:7012149",
          "tgn:1002924",
          "tgn:7007568",
          "tgn:7029392"
        ],
        "placetype": [
          "aat:300386846"
        ],
        "id": 1012207,
        "name:xx": "Mount Misery Point"
      }
    },
    {
      "geometry": {
        "type": "Point",
        "coordinates": [
          66.666,
          24.827
        ]
      },
      "type": "Feature",
      "properties": {
        "hierarchy": [
          "tgn:1012208",
          "tgn:1000004",
          "tgn:7002462",
          "tgn:1000133",
          "tgn:7029392"
        ],
        "placetype": [
          "aat:300008850",
          "aat:300386846"
        ],
        "id": 1012208,
        "name:xx": "Rās Muāri"
      }
    },
    {
      "geometry": {
        "type": "Point",
        "coordinates": [
          34.259035,
          27.732506
        ]
      },
      "type": "Feature",
      "properties": {
        "hierarchy": [
          "tgn:1012209",
          "tgn:7001242",
          "tgn:7016833",
          "tgn:7001336",
          "tgn:7029392"
        ],
        "placetype": [
          "aat:300386846"
        ],
        "id": 1012209,
        "name:xx": "Muḥammad, Ra's"
      }
    }
  ]
}
