{
  "type": "FeatureCollection",
  "features": [
    {
      "geometry": {
        "type": "Point",
        "coordinates": [
          76.15,
          17.016667
        ]
      },
      "type": "Feature",
      "properties": {
        "hierarchy": [
          "tgn:7546670",
          "tgn:1000004",
          "tgn:7000198",
          "tgn:1001882",
          "tgn:7029392"
        ],
        "placetype": [
          "aat:300008347"
        ],
        "name:en": "Balganūr",
        "id": 7546670
      }
    },
    {
      "geometry": {
        "type": "Point",
        "coordinates": [
          76.75,
          15.966667
        ]
      },
      "type": "Feature",
      "properties": {
        "hierarchy": [
          "tgn:7546671",
          "tgn:1000004",
          "tgn:7000198",
          "tgn:1001882",
          "tgn:7029392"
        ],
        "placetype": [
          "aat:300008347"
        ],
        "name:en": "Balganūr",
        "id": 7546671
      }
    },
    {
      "geometry": {
        "type": "Point",
        "coordinates": [
          72.490133,
          26.394132
        ]
      },
      "type": "Feature",
      "properties": {
        "hierarchy": [
          "tgn:7546674",
          "tgn:1000004",
          "tgn:7000198",
          "tgn:7016788",
          "tgn:7029392"
        ],
        "placetype": [
          "aat:300008347"
        ],
        "name:en": "Balesar",
        "id": 7546674
      }
    },
    {
      "geometry": {
        "type": "Point",
        "coordinates": [
          72.983333,
          21.116667
        ]
      },
      "type": "Feature",
      "properties": {
        "hierarchy": [
          "tgn:7546675",
          "tgn:1000004",
          "tgn:1001869",
          "tgn:7000198",
          "tgn:7029392"
        ],
        "placetype": [
          "aat:300008347"
        ],
        "name:en": "Balesar",
        "id": 7546675
      }
    },
    {
      "geometry": {
        "type": "Point",
        "coordinates": [
          77.453545,
          28.953708
        ]
      },
      "type": "Feature",
      "properties": {
        "hierarchy": [
          "tgn:7546676",
          "tgn:1000004",
          "tgn:7000198",
          "tgn:7016722",
          "tgn:7029392"
        ],
        "placetype": [
          "aat:300008347"
        ],
        "name:en": "Bāleni",
        "id": 7546676
      }
    },
    {
      "geometry": {
        "type": "Point",
        "coordinates": [
          95.291818,
          28.064292
        ]
      },
      "type": "Feature",
      "properties": {
        "hierarchy": [
          "tgn:7546677",
          "tgn:7001819",
          "tgn:1000004",
          "tgn:7000198",
          "tgn:7029392"
        ],
        "placetype": [
          "aat:300008347"
        ],
        "name:en": "Bālek",
        "id": 7546677
      }
    },
    {
      "geometry": {
        "type": "Point",
        "coordinates": [
          75.466667,
          13.35
        ]
      },
      "type": "Feature",
      "properties": {
        "hierarchy": [
          "tgn:7546678",
          "tgn:1000004",
          "tgn:7000198",
          "tgn:1001882",
          "tgn:7029392"
        ],
        "placetype": [
          "aat:300008347"
        ],
        "name:en": "Bālehonnūr",
        "id": 7546678
      }
    },
    {
      "geometry": {
        "type": "Point",
        "coordinates": [
          79.214171,
          23.646064
        ]
      },
      "type": "Feature",
      "properties": {
        "hierarchy": [
          "tgn:7546679",
          "tgn:1000004",
          "tgn:7000198",
          "tgn:1001894",
          "tgn:7029392"
        ],
        "placetype": [
          "aat:300008347"
        ],
        "name:en": "Baleh",
        "id": 7546679
      }
    }
  ]
}
