{
  "type": "FeatureCollection",
  "features": [
    {
      "geometry": {
        "type": "Point",
        "coordinates": [
          120.873109,
          23.9802
        ]
      },
      "type": "Feature",
      "properties": {
        "hierarchy": [
          "tgn:7476740",
          "tgn:7488858",
          "tgn:1000004",
          "tgn:1000141",
          "tgn:7029392"
        ],
        "placetype": [
          "aat:300006495"
        ],
        "id": 7476740,
        "name:xx": "Beishan Guozhong"
      }
    },
    {
      "geometry": {
        "type": "Point",
        "coordinates": [
          120.762598,
          23.992696
        ]
      },
      "type": "Feature",
      "properties": {
        "hierarchy": [
          "tgn:7476741",
          "tgn:7488858",
          "tgn:1000004",
          "tgn:1000141",
          "tgn:7029392"
        ],
        "placetype": [
          "aat:300006495"
        ],
        "id": 7476741,
        "name:xx": "Pinglin Guoxiao"
      }
    },
    {
      "geometry": {
        "type": "Point",
        "coordinates": [
          120.904212,
          23.787846
        ]
      },
      "type": "Feature",
      "properties": {
        "hierarchy": [
          "tgn:7476742",
          "tgn:7488858",
          "tgn:1000004",
          "tgn:1000141",
          "tgn:7029392"
        ],
        "placetype": [
          "aat:300007836"
        ],
        "id": 7476742,
        "name:xx": "Songbai Qiao"
      }
    },
    {
      "geometry": {
        "type": "Point",
        "coordinates": [
          120.949689,
          23.789927
        ]
      },
      "type": "Feature",
      "properties": {
        "hierarchy": [
          "tgn:7476743",
          "tgn:7488858",
          "tgn:1000004",
          "tgn:1000141",
          "tgn:7029392"
        ],
        "placetype": [
          "aat:300007836"
        ],
        "id": 7476743,
        "name:xx": "Shuanglong Diaoqiao"
      }
    },
    {
      "geometry": {
        "type": "Point",
        "coordinates": [
          120.914421,
          23.793184
        ]
      },
      "type": "Feature",
      "properties": {
        "hierarchy": [
          "tgn:7476744",
          "tgn:7488858",
          "tgn:1000004",
          "tgn:1000141",
          "tgn:7029392"
        ],
        "placetype": [
          "aat:300007836"
        ],
        "id": 7476744,
        "name:xx": "Qinglong Qiao"
      }
    },
    {
      "geometry": {
        "type": "Point",
        "coordinates": [
          120.895557,
          23.832777
        ]
      },
      "type": "Feature",
      "properties": {
        "hierarchy": [
          "tgn:7476745",
          "tgn:7488858",
          "tgn:1000004",
          "tgn:1000141",
          "tgn:7029392"
        ],
        "placetype": [
          "aat:300007836"
        ],
        "id": 7476745,
        "name:xx": "Toushe Qiao"
      }
    },
    {
      "geometry": {
        "type": "Point",
        "coordinates": [
          120.945761,
          23.88246
        ]
      },
      "type": "Feature",
      "properties": {
        "hierarchy": [
          "tgn:7476746",
          "tgn:7488858",
          "tgn:1000004",
          "tgn:1000141",
          "tgn:7029392"
        ],
        "placetype": [
          "aat:300007836"
        ],
        "id": 7476746,
        "name:xx": "Ganquan Daqiao"
      }
    },
    {
      "geometry": {
        "type": "Point",
        "coordinates": [
          120.888381,
          23.888641
        ]
      },
      "type": "Feature",
      "properties": {
        "hierarchy": [
          "tgn:7476747",
          "tgn:7488858",
          "tgn:1000004",
          "tgn:1000141",
          "tgn:7029392"
        ],
        "placetype": [
          "aat:300007836"
        ],
        "id": 7476747,
        "name:xx": "Wucheng Yihao Qiao"
      }
    },
    {
      "geometry": {
        "type": "Point",
        "coordinates": [
          120.926027,
          23.907157
        ]
      },
      "type": "Feature",
      "properties": {
        "hierarchy": [
          "tgn:7476748",
          "tgn:7488858",
          "tgn:1000004",
          "tgn:1000141",
          "tgn:7029392"
        ],
        "placetype": [
          "aat:300007836"
        ],
        "id": 7476748,
        "name:xx": "Xincheng Qiao"
      }
    },
    {
      "geometry": {
        "type": "Point",
        "coordinates": [
          120.92205,
          23.904636
        ]
      },
      "type": "Feature",
      "properties": {
        "hierarchy": [
          "tgn:7476749",
          "tgn:7488858",
          "tgn:1000004",
          "tgn:1000141",
          "tgn:7029392"
        ],
        "placetype": [
          "aat:300007836"
        ],
        "id": 7476749,
        "name:xx": "Longshan Qiao"
      }
    }
  ]
}
