{
  "type": "FeatureCollection",
  "features": [
    {
      "geometry": {
        "type": "Point",
        "coordinates": [
          -101.388889,
          21.024722
        ]
      },
      "type": "Feature",
      "properties": {
        "hierarchy": [
          "tgn:7421630",
          "tgn:7005584",
          "tgn:1000001",
          "tgn:7005560",
          "tgn:7029392"
        ],
        "placetype": [
          "aat:300008347"
        ],
        "id": 7421630,
        "name:xx": "El Paraíso"
      }
    },
    {
      "geometry": {
        "type": "Point",
        "coordinates": [
          -101.334722,
          21.0625
        ]
      },
      "type": "Feature",
      "properties": {
        "hierarchy": [
          "tgn:7421631",
          "tgn:7005584",
          "tgn:1000001",
          "tgn:7005560",
          "tgn:7029392"
        ],
        "placetype": [
          "aat:300008347"
        ],
        "id": 7421631,
        "name:xx": "Mineral de la Luz"
      }
    },
    {
      "geometry": {
        "type": "Point",
        "coordinates": [
          -101.374444,
          21.070278
        ]
      },
      "type": "Feature",
      "properties": {
        "hierarchy": [
          "tgn:7421632",
          "tgn:7005584",
          "tgn:1000001",
          "tgn:7005560",
          "tgn:7029392"
        ],
        "placetype": [
          "aat:300008347"
        ],
        "id": 7421632,
        "name:xx": "Los Lorenzos"
      }
    },
    {
      "geometry": {
        "type": "Point",
        "coordinates": [
          -101.375,
          21.074167
        ]
      },
      "type": "Feature",
      "properties": {
        "hierarchy": [
          "tgn:7421633",
          "tgn:7005584",
          "tgn:1000001",
          "tgn:7005560",
          "tgn:7029392"
        ],
        "placetype": [
          "aat:300008699"
        ],
        "id": 7421633,
        "name:xx": "El Gigante, Río"
      }
    },
    {
      "geometry": {
        "type": "Point",
        "coordinates": [
          -101.336944,
          21.110278
        ]
      },
      "type": "Feature",
      "properties": {
        "hierarchy": [
          "tgn:7421634",
          "tgn:7005584",
          "tgn:1000001",
          "tgn:7005560",
          "tgn:7029392"
        ],
        "placetype": [
          "aat:300008347"
        ],
        "id": 7421634,
        "name:xx": "Cimiento"
      }
    },
    {
      "geometry": {
        "type": "Point",
        "coordinates": [
          -101.390556,
          21.1275
        ]
      },
      "type": "Feature",
      "properties": {
        "hierarchy": [
          "tgn:7421635",
          "tgn:7005584",
          "tgn:1000001",
          "tgn:7005560",
          "tgn:7029392"
        ],
        "placetype": [
          "aat:300008347"
        ],
        "id": 7421635,
        "name:xx": "San José de los Pinos"
      }
    },
    {
      "geometry": {
        "type": "Point",
        "coordinates": [
          -101.374444,
          21.156111
        ]
      },
      "type": "Feature",
      "properties": {
        "hierarchy": [
          "tgn:7421636",
          "tgn:7005584",
          "tgn:1000001",
          "tgn:7005560",
          "tgn:7029392"
        ],
        "placetype": [
          "aat:300008347"
        ],
        "id": 7421636,
        "name:xx": "La Angostura"
      }
    },
    {
      "geometry": {
        "type": "Point",
        "coordinates": [
          -101.359167,
          21.171667
        ]
      },
      "type": "Feature",
      "properties": {
        "hierarchy": [
          "tgn:7421637",
          "tgn:7005584",
          "tgn:1000001",
          "tgn:7005560",
          "tgn:7029392"
        ],
        "placetype": [
          "aat:300008699"
        ],
        "id": 7421637,
        "name:xx": "La Herma, Río"
      }
    },
    {
      "geometry": {
        "type": "Point",
        "coordinates": [
          -101.295833,
          21.214722
        ]
      },
      "type": "Feature",
      "properties": {
        "hierarchy": [
          "tgn:7421638",
          "tgn:7005584",
          "tgn:1000001",
          "tgn:7005560",
          "tgn:7029392"
        ],
        "placetype": [
          "aat:300008811"
        ],
        "id": 7421638,
        "name:xx": "El Fuerte, Mesa"
      }
    },
    {
      "geometry": {
        "type": "Point",
        "coordinates": [
          -101.335833,
          21.195556
        ]
      },
      "type": "Feature",
      "properties": {
        "hierarchy": [
          "tgn:7421639",
          "tgn:7005584",
          "tgn:1000001",
          "tgn:7005560",
          "tgn:7029392"
        ],
        "placetype": [
          "aat:300008347"
        ],
        "id": 7421639,
        "name:xx": "La Herma"
      }
    }
  ]
}
