{
  "type": "FeatureCollection",
  "features": [
    {
      "geometry": {
        "type": "Point",
        "coordinates": [
          19.25,
          48.45
        ]
      },
      "type": "Feature",
      "properties": {
        "hierarchy": [
          "tgn:1105081",
          "tgn:7027131",
          "tgn:1000003",
          "tgn:7011765",
          "tgn:7029392"
        ],
        "placetype": [
          "aat:300008795"
        ],
        "id": 1105081,
        "name:xx": "Javoria"
      }
    },
    {
      "geometry": {
        "type": "Point",
        "coordinates": [
          36.4333,
          31.4333
        ]
      },
      "type": "Feature",
      "properties": {
        "hierarchy": [
          "tgn:1105083",
          "tgn:1002055",
          "tgn:1000004",
          "tgn:1000121",
          "tgn:7029392"
        ],
        "placetype": [
          "aat:300008795"
        ],
        "id": 1105083,
        "name:xx": "Jawʻāiīyāt, Jabal al-"
      }
    },
    {
      "geometry": {
        "type": "Point",
        "coordinates": [
          -116.9167,
          38.7833
        ]
      },
      "type": "Feature",
      "properties": {
        "hierarchy": [
          "tgn:1105084",
          "tgn:1000001",
          "tgn:2001418",
          "tgn:7012149",
          "tgn:7007526",
          "tgn:7029392"
        ],
        "placetype": [
          "aat:300008795"
        ],
        "id": 1105084,
        "name:xx": "Jefferson, Mount"
      }
    },
    {
      "geometry": {
        "type": "Point",
        "coordinates": [
          -121.7833,
          44.6667
        ]
      },
      "type": "Feature",
      "properties": {
        "hierarchy": [
          "tgn:1105085",
          "tgn:1000001",
          "tgn:7012149",
          "tgn:7007708",
          "tgn:7029392"
        ],
        "placetype": [
          "aat:300008795"
        ],
        "id": 1105085,
        "name:xx": "Jefferson, Mount"
      }
    },
    {
      "geometry": {
        "type": "Point",
        "coordinates": [
          64.1833,
          46.4167
        ]
      },
      "type": "Feature",
      "properties": {
        "hierarchy": [
          "tgn:1105087",
          "tgn:1000004",
          "tgn:1003384",
          "tgn:7014786",
          "tgn:7029392"
        ],
        "placetype": [
          "aat:300008795"
        ],
        "id": 1105087,
        "name:xx": "Yegizkara, Gora"
      }
    },
    {
      "geometry": {
        "type": "Point",
        "coordinates": [
          -105.9667,
          41.0833
        ]
      },
      "type": "Feature",
      "properties": {
        "hierarchy": [
          "tgn:1105088",
          "tgn:2002365",
          "tgn:1000001",
          "tgn:7012149",
          "tgn:7007923",
          "tgn:7029392"
        ],
        "placetype": [
          "aat:300008795"
        ],
        "id": 1105088,
        "name:xx": "Jelm Mountain"
      }
    },
    {
      "geometry": {
        "type": "Point",
        "coordinates": [
          92.9167,
          59.8333
        ]
      },
      "type": "Feature",
      "properties": {
        "hierarchy": [
          "tgn:1105089",
          "tgn:1000004",
          "tgn:1003314",
          "tgn:7018214",
          "tgn:7002435",
          "tgn:7029392"
        ],
        "placetype": [
          "aat:300008795"
        ],
        "id": 1105089,
        "name:xx": "Jenashimskiy Polkan, Gora"
      }
    }
  ]
}
