{
  "type": "FeatureCollection",
  "features": [
    {
      "geometry": {
        "type": "Point",
        "coordinates": [
          79.125579,
          24.740086
        ]
      },
      "type": "Feature",
      "properties": {
        "hierarchy": [
          "tgn:7565460",
          "tgn:1000004",
          "tgn:7000198",
          "tgn:1001894",
          "tgn:7029392"
        ],
        "placetype": [
          "aat:300008347"
        ],
        "name:en": "Mārula",
        "id": 7565460
      }
    },
    {
      "geometry": {
        "type": "Point",
        "coordinates": [
          79.129448,
          24.744644
        ]
      },
      "type": "Feature",
      "properties": {
        "hierarchy": [
          "tgn:7565461",
          "tgn:1000004",
          "tgn:7000198",
          "tgn:1001894",
          "tgn:7029392"
        ],
        "placetype": [
          "aat:300008347"
        ],
        "name:en": "Rohaniya",
        "id": 7565461
      }
    },
    {
      "geometry": {
        "type": "Point",
        "coordinates": [
          79.12168,
          24.746725
        ]
      },
      "type": "Feature",
      "properties": {
        "hierarchy": [
          "tgn:7565462",
          "tgn:1000004",
          "tgn:7000198",
          "tgn:1001894",
          "tgn:7029392"
        ],
        "placetype": [
          "aat:300008347"
        ],
        "name:en": "Barāghāt",
        "id": 7565462
      }
    },
    {
      "geometry": {
        "type": "Point",
        "coordinates": [
          79.10636,
          24.748249
        ]
      },
      "type": "Feature",
      "properties": {
        "hierarchy": [
          "tgn:7565463",
          "tgn:1000004",
          "tgn:7000198",
          "tgn:1001894",
          "tgn:7029392"
        ],
        "placetype": [
          "aat:300008795"
        ],
        "name:en": "Mansūkra Pahār",
        "id": 7565463
      }
    },
    {
      "geometry": {
        "type": "Point",
        "coordinates": [
          79.102239,
          24.735519
        ]
      },
      "type": "Feature",
      "properties": {
        "hierarchy": [
          "tgn:7565464",
          "tgn:1000004",
          "tgn:7000198",
          "tgn:1001894",
          "tgn:7029392"
        ],
        "placetype": [
          "aat:300008347"
        ],
        "name:en": "Lakheri",
        "id": 7565464
      }
    },
    {
      "geometry": {
        "type": "Point",
        "coordinates": [
          79.096508,
          24.741702
        ]
      },
      "type": "Feature",
      "properties": {
        "hierarchy": [
          "tgn:7565465",
          "tgn:1000004",
          "tgn:7000198",
          "tgn:1001894",
          "tgn:7029392"
        ],
        "placetype": [
          "aat:300008347"
        ],
        "name:en": "Luriyāo",
        "id": 7565465
      }
    },
    {
      "geometry": {
        "type": "Point",
        "coordinates": [
          79.520991,
          26.792148
        ]
      },
      "type": "Feature",
      "properties": {
        "hierarchy": [
          "tgn:7565466",
          "tgn:1000004",
          "tgn:7000198",
          "tgn:7016722",
          "tgn:7029392"
        ],
        "placetype": [
          "aat:300008347"
        ],
        "name:en": "Chandarpur",
        "id": 7565466
      }
    },
    {
      "geometry": {
        "type": "Point",
        "coordinates": [
          79.50639,
          26.794992
        ]
      },
      "type": "Feature",
      "properties": {
        "hierarchy": [
          "tgn:7565467",
          "tgn:1000004",
          "tgn:7000198",
          "tgn:7016722",
          "tgn:7029392"
        ],
        "placetype": [
          "aat:300008347"
        ],
        "name:en": "Babina Sukhchainpur",
        "id": 7565467
      }
    },
    {
      "geometry": {
        "type": "Point",
        "coordinates": [
          79.506988,
          26.805284
        ]
      },
      "type": "Feature",
      "properties": {
        "hierarchy": [
          "tgn:7565468",
          "tgn:1000004",
          "tgn:7000198",
          "tgn:7016722",
          "tgn:7029392"
        ],
        "placetype": [
          "aat:300008347"
        ],
        "name:en": "Sūrajpur",
        "id": 7565468
      }
    },
    {
      "geometry": {
        "type": "Point",
        "coordinates": [
          79.503705,
          26.811721
        ]
      },
      "type": "Feature",
      "properties": {
        "hierarchy": [
          "tgn:7565469",
          "tgn:1000004",
          "tgn:7000198",
          "tgn:7016722",
          "tgn:7029392"
        ],
        "placetype": [
          "aat:300008347"
        ],
        "name:en": "Kurpura",
        "id": 7565469
      }
    }
  ]
}
