{
  "type": "FeatureCollection",
  "features": [
    {
      "geometry": {
        "type": "Point",
        "coordinates": [
          72.95,
          20.816667
        ]
      },
      "type": "Feature",
      "properties": {
        "hierarchy": [
          "tgn:7545360",
          "tgn:1000004",
          "tgn:1001869",
          "tgn:7000198",
          "tgn:7029392"
        ],
        "placetype": [
          "aat:300007783"
        ],
        "name:en": "Amalsad",
        "id": 7545360
      }
    },
    {
      "geometry": {
        "type": "Point",
        "coordinates": [
          73.683333,
          21.25
        ]
      },
      "type": "Feature",
      "properties": {
        "hierarchy": [
          "tgn:7545361",
          "tgn:1000004",
          "tgn:1001869",
          "tgn:7000198",
          "tgn:7029392"
        ],
        "placetype": [
          "aat:300008347"
        ],
        "name:en": "Āmalpāda",
        "id": 7545361
      }
    },
    {
      "geometry": {
        "type": "Point",
        "coordinates": [
          86.140978,
          22.793214
        ]
      },
      "type": "Feature",
      "properties": {
        "hierarchy": [
          "tgn:7545363",
          "tgn:1000004",
          "tgn:7000198",
          "tgn:7031783",
          "tgn:7029392"
        ],
        "placetype": [
          "aat:300008347"
        ],
        "name:en": "Bhetia",
        "id": 7545363
      }
    },
    {
      "geometry": {
        "type": "Point",
        "coordinates": [
          81.022623,
          26.985334
        ]
      },
      "type": "Feature",
      "properties": {
        "hierarchy": [
          "tgn:7545364",
          "tgn:1000004",
          "tgn:7000198",
          "tgn:7016722",
          "tgn:7029392"
        ],
        "placetype": [
          "aat:300008347"
        ],
        "name:en": "Bheta",
        "id": 7545364
      }
    },
    {
      "geometry": {
        "type": "Point",
        "coordinates": [
          80.288433,
          22.321029
        ]
      },
      "type": "Feature",
      "properties": {
        "hierarchy": [
          "tgn:7545365",
          "tgn:1000004",
          "tgn:7000198",
          "tgn:1001894",
          "tgn:7029392"
        ],
        "placetype": [
          "aat:300008347"
        ],
        "name:en": "Bāria",
        "id": 7545365
      }
    },
    {
      "geometry": {
        "type": "Point",
        "coordinates": [
          80.812428,
          27.265763
        ]
      },
      "type": "Feature",
      "properties": {
        "hierarchy": [
          "tgn:7545366",
          "tgn:1000004",
          "tgn:7000198",
          "tgn:7016722",
          "tgn:7029392"
        ],
        "placetype": [
          "aat:300008347"
        ],
        "name:en": "Bāri",
        "id": 7545366
      }
    },
    {
      "geometry": {
        "type": "Point",
        "coordinates": [
          74.160253,
          25.465074
        ]
      },
      "type": "Feature",
      "properties": {
        "hierarchy": [
          "tgn:7545368",
          "tgn:1000004",
          "tgn:7000198",
          "tgn:7016788",
          "tgn:7029392"
        ],
        "placetype": [
          "aat:300008347"
        ],
        "name:en": "Bari",
        "id": 7545368
      }
    },
    {
      "geometry": {
        "type": "Point",
        "coordinates": [
          74.661425,
          24.513165
        ]
      },
      "type": "Feature",
      "properties": {
        "hierarchy": [
          "tgn:7545369",
          "tgn:1000004",
          "tgn:7000198",
          "tgn:7016788",
          "tgn:7029392"
        ],
        "placetype": [
          "aat:300008347"
        ],
        "name:en": "Bāri",
        "id": 7545369
      }
    }
  ]
}
