{
  "type": "FeatureCollection",
  "features": [
    {
      "geometry": {
        "type": "Point",
        "coordinates": [
          120.74191,
          23.305924
        ]
      },
      "type": "Feature",
      "properties": {
        "hierarchy": [
          "tgn:7494160",
          "tgn:7001004",
          "tgn:1000004",
          "tgn:1000141",
          "tgn:7029392"
        ],
        "placetype": [
          "aat:300008798"
        ],
        "id": 7494160,
        "name:xx": "Erxi Shan"
      }
    },
    {
      "geometry": {
        "type": "Point",
        "coordinates": [
          120.735695,
          23.338992
        ]
      },
      "type": "Feature",
      "properties": {
        "hierarchy": [
          "tgn:7494161",
          "tgn:7468018",
          "tgn:1000004",
          "tgn:1000141",
          "tgn:7029392"
        ],
        "placetype": [
          "aat:300008798"
        ],
        "id": 7494161,
        "name:xx": "Ji'azuoming Shan"
      }
    },
    {
      "geometry": {
        "type": "Point",
        "coordinates": [
          120.736635,
          23.383519
        ]
      },
      "type": "Feature",
      "properties": {
        "hierarchy": [
          "tgn:7494162",
          "tgn:7468018",
          "tgn:1000004",
          "tgn:1000141",
          "tgn:7029392"
        ],
        "placetype": [
          "aat:300008798"
        ],
        "id": 7494162,
        "name:xx": "Duoyang Shan"
      }
    },
    {
      "geometry": {
        "type": "Point",
        "coordinates": [
          120.72053,
          23.402376
        ]
      },
      "type": "Feature",
      "properties": {
        "hierarchy": [
          "tgn:7494163",
          "tgn:7468018",
          "tgn:1000004",
          "tgn:1000141",
          "tgn:7029392"
        ],
        "placetype": [
          "aat:300007836"
        ],
        "id": 7494163,
        "name:xx": "Lijia Daqiao"
      }
    },
    {
      "geometry": {
        "type": "Point",
        "coordinates": [
          120.715921,
          23.415446
        ]
      },
      "type": "Feature",
      "properties": {
        "hierarchy": [
          "tgn:7494164",
          "tgn:7468018",
          "tgn:1000004",
          "tgn:1000141",
          "tgn:7029392"
        ],
        "placetype": [
          "aat:300008798"
        ],
        "id": 7494164,
        "name:xx": "Dingbenzi Shan"
      }
    },
    {
      "geometry": {
        "type": "Point",
        "coordinates": [
          120.757519,
          23.43352
        ]
      },
      "type": "Feature",
      "properties": {
        "hierarchy": [
          "tgn:7494165",
          "tgn:7468018",
          "tgn:1000004",
          "tgn:1000141",
          "tgn:7029392"
        ],
        "placetype": [
          "aat:300008798"
        ],
        "id": 7494165,
        "name:xx": "Cao Shan"
      }
    },
    {
      "geometry": {
        "type": "Point",
        "coordinates": [
          120.712611,
          23.453794
        ]
      },
      "type": "Feature",
      "properties": {
        "hierarchy": [
          "tgn:7494166",
          "tgn:7468018",
          "tgn:1000004",
          "tgn:1000141",
          "tgn:7029392"
        ],
        "placetype": [
          "aat:300007836"
        ],
        "id": 7494166,
        "name:xx": "Disanhao Qiao"
      }
    },
    {
      "geometry": {
        "type": "Point",
        "coordinates": [
          120.710523,
          23.4609
        ]
      },
      "type": "Feature",
      "properties": {
        "hierarchy": [
          "tgn:7494167",
          "tgn:7468018",
          "tgn:1000004",
          "tgn:1000141",
          "tgn:7029392"
        ],
        "placetype": [
          "aat:300007836"
        ],
        "id": 7494167,
        "name:xx": "Di'erhao Qiao"
      }
    },
    {
      "geometry": {
        "type": "Point",
        "coordinates": [
          120.71183,
          23.464139
        ]
      },
      "type": "Feature",
      "properties": {
        "hierarchy": [
          "tgn:7494168",
          "tgn:7468018",
          "tgn:1000004",
          "tgn:1000141",
          "tgn:7029392"
        ],
        "placetype": [
          "aat:300007836"
        ],
        "id": 7494168,
        "name:xx": "Diyihao Qiao"
      }
    },
    {
      "geometry": {
        "type": "Point",
        "coordinates": [
          120.748919,
          23.453117
        ]
      },
      "type": "Feature",
      "properties": {
        "hierarchy": [
          "tgn:7494169",
          "tgn:7468018",
          "tgn:1000004",
          "tgn:1000141",
          "tgn:7029392"
        ],
        "placetype": [
          "aat:300006495"
        ],
        "id": 7494169,
        "name:xx": "Dabang Guoxiao"
      }
    }
  ]
}
