{
  "type": "FeatureCollection",
  "features": [
    {
      "geometry": {
        "type": "Point",
        "coordinates": [
          74.758333,
          32.622222
        ]
      },
      "type": "Feature",
      "properties": {
        "hierarchy": [
          "tgn:7591630",
          "tgn:1000004",
          "tgn:7000198",
          "tgn:7000799",
          "tgn:7029392"
        ],
        "placetype": [
          "aat:300008347"
        ],
        "name:en": "Kotli Shādaula",
        "id": 7591630
      }
    },
    {
      "geometry": {
        "type": "Point",
        "coordinates": [
          74.752778,
          32.620833
        ]
      },
      "type": "Feature",
      "properties": {
        "hierarchy": [
          "tgn:7591631",
          "tgn:1000004",
          "tgn:7000198",
          "tgn:7000799",
          "tgn:7029392"
        ],
        "placetype": [
          "aat:300008347"
        ],
        "name:en": "Thikriān",
        "id": 7591631
      }
    },
    {
      "geometry": {
        "type": "Point",
        "coordinates": [
          74.751389,
          32.616667
        ]
      },
      "type": "Feature",
      "properties": {
        "hierarchy": [
          "tgn:7591632",
          "tgn:1000004",
          "tgn:7000198",
          "tgn:7000799",
          "tgn:7029392"
        ],
        "placetype": [
          "aat:300008347"
        ],
        "name:en": "Baggāmorh",
        "id": 7591632
      }
    },
    {
      "geometry": {
        "type": "Point",
        "coordinates": [
          74.759336,
          32.614126
        ]
      },
      "type": "Feature",
      "properties": {
        "hierarchy": [
          "tgn:7591633",
          "tgn:1000004",
          "tgn:7000198",
          "tgn:7000799",
          "tgn:7029392"
        ],
        "placetype": [
          "aat:300008347"
        ],
        "name:en": "Chak Tālib",
        "id": 7591633
      }
    },
    {
      "geometry": {
        "type": "Point",
        "coordinates": [
          74.773593,
          32.617408
        ]
      },
      "type": "Feature",
      "properties": {
        "hierarchy": [
          "tgn:7591634",
          "tgn:1000004",
          "tgn:7000198",
          "tgn:7000799",
          "tgn:7029392"
        ],
        "placetype": [
          "aat:300008347"
        ],
        "name:en": "Meloāla",
        "id": 7591634
      }
    },
    {
      "geometry": {
        "type": "Point",
        "coordinates": [
          74.792995,
          32.625915
        ]
      },
      "type": "Feature",
      "properties": {
        "hierarchy": [
          "tgn:7591635",
          "tgn:1000004",
          "tgn:7000198",
          "tgn:7000799",
          "tgn:7029392"
        ],
        "placetype": [
          "aat:300008347"
        ],
        "name:en": "Ratiān",
        "id": 7591635
      }
    },
    {
      "geometry": {
        "type": "Point",
        "coordinates": [
          74.781219,
          32.627287
        ]
      },
      "type": "Feature",
      "properties": {
        "hierarchy": [
          "tgn:7591636",
          "tgn:1000004",
          "tgn:7000198",
          "tgn:7000799",
          "tgn:7029392"
        ],
        "placetype": [
          "aat:300008347"
        ],
        "name:en": "Dhinde Kalān",
        "id": 7591636
      }
    },
    {
      "geometry": {
        "type": "Point",
        "coordinates": [
          74.804294,
          32.63551
        ]
      },
      "type": "Feature",
      "properties": {
        "hierarchy": [
          "tgn:7591637",
          "tgn:1000004",
          "tgn:7000198",
          "tgn:7000799",
          "tgn:7029392"
        ],
        "placetype": [
          "aat:300008347"
        ],
        "name:en": "Darsapur",
        "id": 7591637
      }
    },
    {
      "geometry": {
        "type": "Point",
        "coordinates": [
          74.799148,
          32.63066
        ]
      },
      "type": "Feature",
      "properties": {
        "hierarchy": [
          "tgn:7591638",
          "tgn:1000004",
          "tgn:7000198",
          "tgn:7000799",
          "tgn:7029392"
        ],
        "placetype": [
          "aat:300008347"
        ],
        "name:en": "Ganda",
        "id": 7591638
      }
    },
    {
      "geometry": {
        "type": "Point",
        "coordinates": [
          74.808605,
          32.62865
        ]
      },
      "type": "Feature",
      "properties": {
        "hierarchy": [
          "tgn:7591639",
          "tgn:1000004",
          "tgn:7000198",
          "tgn:7000799",
          "tgn:7029392"
        ],
        "placetype": [
          "aat:300008347"
        ],
        "name:en": "Tutre",
        "id": 7591639
      }
    }
  ]
}
