{
  "type": "FeatureCollection",
  "features": [
    {
      "geometry": {
        "type": "Point",
        "coordinates": [
          120.910779,
          24.514958
        ]
      },
      "type": "Feature",
      "properties": {
        "hierarchy": [
          "tgn:7478860",
          "tgn:7487020",
          "tgn:1000004",
          "tgn:1000141",
          "tgn:7029392"
        ],
        "placetype": [
          "aat:300007836"
        ],
        "id": 7478860,
        "name:xx": "Hexing Er Qiao"
      }
    },
    {
      "geometry": {
        "type": "Point",
        "coordinates": [
          120.960871,
          24.527376
        ]
      },
      "type": "Feature",
      "properties": {
        "hierarchy": [
          "tgn:7478861",
          "tgn:7487020",
          "tgn:1000004",
          "tgn:1000141",
          "tgn:7029392"
        ],
        "placetype": [
          "aat:300007836"
        ],
        "id": 7478861,
        "name:xx": "Baguali Diaoqiao"
      }
    },
    {
      "geometry": {
        "type": "Point",
        "coordinates": [
          120.936258,
          24.524254
        ]
      },
      "type": "Feature",
      "properties": {
        "hierarchy": [
          "tgn:7478862",
          "tgn:7487020",
          "tgn:1000004",
          "tgn:1000141",
          "tgn:7029392"
        ],
        "placetype": [
          "aat:300007836"
        ],
        "id": 7478862,
        "name:xx": "Xinshan Qiao"
      }
    },
    {
      "geometry": {
        "type": "Point",
        "coordinates": [
          120.932909,
          24.529815
        ]
      },
      "type": "Feature",
      "properties": {
        "hierarchy": [
          "tgn:7478863",
          "tgn:7487020",
          "tgn:1000004",
          "tgn:1000141",
          "tgn:7029392"
        ],
        "placetype": [
          "aat:300007836"
        ],
        "id": 7478863,
        "name:xx": "Dadongshi Er Qiao"
      }
    },
    {
      "geometry": {
        "type": "Point",
        "coordinates": [
          120.887196,
          24.520987
        ]
      },
      "type": "Feature",
      "properties": {
        "hierarchy": [
          "tgn:7478864",
          "tgn:7487020",
          "tgn:1000004",
          "tgn:1000141",
          "tgn:7029392"
        ],
        "placetype": [
          "aat:300006495"
        ],
        "id": 7478864,
        "name:xx": "Beihe Guoxiao"
      }
    },
    {
      "geometry": {
        "type": "Point",
        "coordinates": [
          120.918496,
          24.536048
        ]
      },
      "type": "Feature",
      "properties": {
        "hierarchy": [
          "tgn:7478866",
          "tgn:7487020",
          "tgn:1000004",
          "tgn:1000141",
          "tgn:7029392"
        ],
        "placetype": [
          "aat:300007836"
        ],
        "id": 7478866,
        "name:xx": "Xinhe Er Qiao"
      }
    },
    {
      "geometry": {
        "type": "Point",
        "coordinates": [
          120.918569,
          24.536829
        ]
      },
      "type": "Feature",
      "properties": {
        "hierarchy": [
          "tgn:7478867",
          "tgn:7487020",
          "tgn:1000004",
          "tgn:1000141",
          "tgn:7029392"
        ],
        "placetype": [
          "aat:300007836"
        ],
        "id": 7478867,
        "name:xx": "Xinhe Yi Qiao"
      }
    },
    {
      "geometry": {
        "type": "Point",
        "coordinates": [
          120.919504,
          24.538842
        ]
      },
      "type": "Feature",
      "properties": {
        "hierarchy": [
          "tgn:7478868",
          "tgn:7487020",
          "tgn:1000004",
          "tgn:1000141",
          "tgn:7029392"
        ],
        "placetype": [
          "aat:300007836"
        ],
        "id": 7478868,
        "name:xx": "Xindian Si Qiao"
      }
    },
    {
      "geometry": {
        "type": "Point",
        "coordinates": [
          120.925708,
          24.53347
        ]
      },
      "type": "Feature",
      "properties": {
        "hierarchy": [
          "tgn:7478869",
          "tgn:7487020",
          "tgn:1000004",
          "tgn:1000141",
          "tgn:7029392"
        ],
        "placetype": [
          "aat:300007836"
        ],
        "id": 7478869,
        "name:xx": "Dadongshi Yi Qiao"
      }
    }
  ]
}
