{
  "type": "FeatureCollection",
  "features": [
    {
      "geometry": {
        "type": "Point",
        "coordinates": [
          119.60316,
          23.612974
        ]
      },
      "type": "Feature",
      "properties": {
        "hierarchy": [
          "tgn:7469830",
          "tgn:1000004",
          "tgn:7004300",
          "tgn:1000141",
          "tgn:7029392"
        ],
        "placetype": [
          "aat:300008347"
        ],
        "id": 7469830,
        "name:xx": "Zhongtun"
      }
    },
    {
      "geometry": {
        "type": "Point",
        "coordinates": [
          120.607739,
          22.703254
        ]
      },
      "type": "Feature",
      "properties": {
        "hierarchy": [
          "tgn:7469832",
          "tgn:1000004",
          "tgn:7492971",
          "tgn:1000141",
          "tgn:7029392"
        ],
        "placetype": [
          "aat:300008347"
        ],
        "id": 7469832,
        "name:xx": "Zhongcun"
      }
    },
    {
      "geometry": {
        "type": "Point",
        "coordinates": [
          120.404674,
          22.630616
        ]
      },
      "type": "Feature",
      "properties": {
        "hierarchy": [
          "tgn:7469833",
          "tgn:7001004",
          "tgn:1000004",
          "tgn:1000141",
          "tgn:7029392"
        ],
        "placetype": [
          "aat:300008347"
        ],
        "id": 7469833,
        "name:xx": "Datiedian"
      }
    },
    {
      "geometry": {
        "type": "Point",
        "coordinates": [
          121.233333,
          24.966667
        ]
      },
      "type": "Feature",
      "properties": {
        "hierarchy": [
          "tgn:7469834",
          "tgn:1000004",
          "tgn:7001013",
          "tgn:1000141",
          "tgn:7029392"
        ],
        "placetype": [
          "aat:300008347"
        ],
        "id": 7469834,
        "name:xx": "Zhongwu"
      }
    },
    {
      "geometry": {
        "type": "Point",
        "coordinates": [
          120.333021,
          23.75219
        ]
      },
      "type": "Feature",
      "properties": {
        "hierarchy": [
          "tgn:7469836",
          "tgn:1000004",
          "tgn:7001014",
          "tgn:1000141",
          "tgn:7029392"
        ],
        "placetype": [
          "aat:300008347"
        ],
        "id": 7469836,
        "name:xx": "Zhongcuo"
      }
    },
    {
      "geometry": {
        "type": "Point",
        "coordinates": [
          120.2625,
          22.974722
        ]
      },
      "type": "Feature",
      "properties": {
        "hierarchy": [
          "tgn:7469837",
          "tgn:1000004",
          "tgn:7490934",
          "tgn:1000141",
          "tgn:7029392"
        ],
        "placetype": [
          "aat:300008347"
        ],
        "id": 7469837,
        "name:xx": "Zhongcuo"
      }
    },
    {
      "geometry": {
        "type": "Point",
        "coordinates": [
          120.399459,
          22.530533
        ]
      },
      "type": "Feature",
      "properties": {
        "hierarchy": [
          "tgn:7469838",
          "tgn:7001004",
          "tgn:1000004",
          "tgn:1000141",
          "tgn:7029392"
        ],
        "placetype": [
          "aat:300008347"
        ],
        "id": 7469838,
        "name:xx": "Zhongcuocun"
      }
    },
    {
      "geometry": {
        "type": "Point",
        "coordinates": [
          121.006944,
          24.827778
        ]
      },
      "type": "Feature",
      "properties": {
        "hierarchy": [
          "tgn:7469839",
          "tgn:1000004",
          "tgn:7471332",
          "tgn:1000141",
          "tgn:7029392"
        ],
        "placetype": [
          "aat:300008347"
        ],
        "id": 7469839,
        "name:xx": "Zhongdoulun"
      }
    }
  ]
}
