{
  "type": "FeatureCollection",
  "features": [
    {
      "geometry": {
        "type": "Point",
        "coordinates": [
          120.46508,
          22.439806
        ]
      },
      "type": "Feature",
      "properties": {
        "hierarchy": [
          "tgn:7478470",
          "tgn:1000004",
          "tgn:7492971",
          "tgn:1000141",
          "tgn:7029392"
        ],
        "placetype": [
          "aat:300006156"
        ],
        "id": 7478470,
        "name:xx": "Tujiacuo Tifang"
      }
    },
    {
      "geometry": {
        "type": "Point",
        "coordinates": [
          120.486099,
          22.428501
        ]
      },
      "type": "Feature",
      "properties": {
        "hierarchy": [
          "tgn:7478471",
          "tgn:1000004",
          "tgn:7492971",
          "tgn:1000141",
          "tgn:7029392"
        ],
        "placetype": [
          "aat:300006156"
        ],
        "id": 7478471,
        "name:xx": "Qifeng Tifang"
      }
    },
    {
      "geometry": {
        "type": "Point",
        "coordinates": [
          120.487558,
          22.472136
        ]
      },
      "type": "Feature",
      "properties": {
        "hierarchy": [
          "tgn:7478474",
          "tgn:1000004",
          "tgn:7492971",
          "tgn:1000141",
          "tgn:7029392"
        ],
        "placetype": [
          "aat:300007836"
        ],
        "id": 7478474,
        "name:xx": "Jianxing Qiao"
      }
    },
    {
      "geometry": {
        "type": "Point",
        "coordinates": [
          120.480752,
          22.471571
        ]
      },
      "type": "Feature",
      "properties": {
        "hierarchy": [
          "tgn:7478475",
          "tgn:1000004",
          "tgn:7492971",
          "tgn:1000141",
          "tgn:7029392"
        ],
        "placetype": [
          "aat:300007836"
        ],
        "id": 7478475,
        "name:xx": "Fengnian Qiao"
      }
    },
    {
      "geometry": {
        "type": "Point",
        "coordinates": [
          120.466785,
          22.468927
        ]
      },
      "type": "Feature",
      "properties": {
        "hierarchy": [
          "tgn:7478476",
          "tgn:1000004",
          "tgn:7492971",
          "tgn:1000141",
          "tgn:7029392"
        ],
        "placetype": [
          "aat:300007836"
        ],
        "id": 7478476,
        "name:xx": "Xingou Qiao"
      }
    },
    {
      "geometry": {
        "type": "Point",
        "coordinates": [
          121.7628,
          24.6758
        ]
      },
      "type": "Feature",
      "properties": {
        "hierarchy": [
          "tgn:7478478",
          "tgn:1000004",
          "tgn:7489179",
          "tgn:1000141",
          "tgn:7029392"
        ],
        "placetype": [
          "aat:300007595"
        ],
        "id": 7478478,
        "name:xx": "Kong Miao"
      }
    },
    {
      "geometry": {
        "type": "Point",
        "coordinates": [
          121.758689,
          24.674525
        ]
      },
      "type": "Feature",
      "properties": {
        "hierarchy": [
          "tgn:7478479",
          "tgn:1000004",
          "tgn:7489179",
          "tgn:1000141",
          "tgn:7029392"
        ],
        "placetype": [
          "aat:300006495"
        ],
        "id": 7478479,
        "name:xx": "Beicheng Guoxiao"
      }
    }
  ]
}
