{
  "type": "FeatureCollection",
  "features": [
    {
      "geometry": {
        "type": "Point",
        "coordinates": [
          86.241099,
          21.354926
        ]
      },
      "type": "Feature",
      "properties": {
        "hierarchy": [
          "tgn:7569600",
          "tgn:1000004",
          "tgn:7000198",
          "tgn:7016694",
          "tgn:7029392"
        ],
        "placetype": [
          "aat:300008777"
        ],
        "name:en": "Tiribeni Huli",
        "id": 7569600
      }
    },
    {
      "geometry": {
        "type": "Point",
        "coordinates": [
          86.140597,
          21.380782
        ]
      },
      "type": "Feature",
      "properties": {
        "hierarchy": [
          "tgn:7569601",
          "tgn:1000004",
          "tgn:7000198",
          "tgn:7016694",
          "tgn:7029392"
        ],
        "placetype": [
          "aat:300008777"
        ],
        "name:en": "Satkosia Pahār",
        "id": 7569601
      }
    },
    {
      "geometry": {
        "type": "Point",
        "coordinates": [
          86.074042,
          21.389266
        ]
      },
      "type": "Feature",
      "properties": {
        "hierarchy": [
          "tgn:7569602",
          "tgn:1000004",
          "tgn:7000198",
          "tgn:7016694",
          "tgn:7029392"
        ],
        "placetype": [
          "aat:300008777"
        ],
        "name:en": "Santoshpur Pahār",
        "id": 7569602
      }
    },
    {
      "geometry": {
        "type": "Point",
        "coordinates": [
          86.058889,
          21.418056
        ]
      },
      "type": "Feature",
      "properties": {
        "hierarchy": [
          "tgn:7569603",
          "tgn:1000004",
          "tgn:7000198",
          "tgn:7016694",
          "tgn:7029392"
        ],
        "placetype": [
          "aat:300008777"
        ],
        "name:en": "Rusimath Pahār",
        "id": 7569603
      }
    },
    {
      "geometry": {
        "type": "Point",
        "coordinates": [
          86.06171,
          21.43183
        ]
      },
      "type": "Feature",
      "properties": {
        "hierarchy": [
          "tgn:7569604",
          "tgn:1000004",
          "tgn:7000198",
          "tgn:7016694",
          "tgn:7029392"
        ],
        "placetype": [
          "aat:300008777"
        ],
        "name:en": "Baniājori Pahār",
        "id": 7569604
      }
    },
    {
      "geometry": {
        "type": "Point",
        "coordinates": [
          86.780278,
          21.547222
        ]
      },
      "type": "Feature",
      "properties": {
        "hierarchy": [
          "tgn:7569605",
          "tgn:1000004",
          "tgn:7000198",
          "tgn:7016694",
          "tgn:7029392"
        ],
        "placetype": [
          "aat:300008777"
        ],
        "name:en": "Machhua Pahār",
        "id": 7569605
      }
    },
    {
      "geometry": {
        "type": "Point",
        "coordinates": [
          86.579167,
          21.516944
        ]
      },
      "type": "Feature",
      "properties": {
        "hierarchy": [
          "tgn:7569606",
          "tgn:1000004",
          "tgn:7000198",
          "tgn:7016694",
          "tgn:7029392"
        ],
        "placetype": [
          "aat:300008777"
        ],
        "name:en": "Sundramundi Huli",
        "id": 7569606
      }
    },
    {
      "geometry": {
        "type": "Point",
        "coordinates": [
          78.97,
          17.058611
        ]
      },
      "type": "Feature",
      "properties": {
        "hierarchy": [
          "tgn:7569607",
          "tgn:1001828",
          "tgn:1000004",
          "tgn:7000198",
          "tgn:7029392"
        ],
        "placetype": [
          "aat:300008347"
        ],
        "name:en": "Kammagudam",
        "id": 7569607
      }
    },
    {
      "geometry": {
        "type": "Point",
        "coordinates": [
          78.943611,
          17.055
        ]
      },
      "type": "Feature",
      "properties": {
        "hierarchy": [
          "tgn:7569608",
          "tgn:1001828",
          "tgn:1000004",
          "tgn:7000198",
          "tgn:7029392"
        ],
        "placetype": [
          "aat:300008347"
        ],
        "name:en": "Teratpalli",
        "id": 7569608
      }
    },
    {
      "geometry": {
        "type": "Point",
        "coordinates": [
          78.964722,
          17.037222
        ]
      },
      "type": "Feature",
      "properties": {
        "hierarchy": [
          "tgn:7569609",
          "tgn:1001828",
          "tgn:1000004",
          "tgn:7000198",
          "tgn:7029392"
        ],
        "placetype": [
          "aat:300008347"
        ],
        "name:en": "Sherigudam",
        "id": 7569609
      }
    }
  ]
}
