{
  "type": "FeatureCollection",
  "features": [
    {
      "geometry": {
        "type": "Point",
        "coordinates": [
          120.911263,
          24.056729
        ]
      },
      "type": "Feature",
      "properties": {
        "hierarchy": [
          "tgn:7499010",
          "tgn:7488858",
          "tgn:1000004",
          "tgn:1000141",
          "tgn:7029392"
        ],
        "placetype": [
          "aat:300006495"
        ],
        "id": 7499010,
        "name:xx": "Beigang Guoxiao"
      }
    },
    {
      "geometry": {
        "type": "Point",
        "coordinates": [
          120.90217,
          24.055568
        ]
      },
      "type": "Feature",
      "properties": {
        "hierarchy": [
          "tgn:7499011",
          "tgn:7488858",
          "tgn:1000004",
          "tgn:1000141",
          "tgn:7029392"
        ],
        "placetype": [
          "aat:300007836"
        ],
        "id": 7499011,
        "name:xx": "Shenkeng Qiao"
      }
    },
    {
      "geometry": {
        "type": "Point",
        "coordinates": [
          120.894416,
          24.061
        ]
      },
      "type": "Feature",
      "properties": {
        "hierarchy": [
          "tgn:7499012",
          "tgn:7488858",
          "tgn:1000004",
          "tgn:1000141",
          "tgn:7029392"
        ],
        "placetype": [
          "aat:300007836"
        ],
        "id": 7499012,
        "name:xx": "Changyuan Qiao"
      }
    },
    {
      "geometry": {
        "type": "Point",
        "coordinates": [
          120.877028,
          24.057563
        ]
      },
      "type": "Feature",
      "properties": {
        "hierarchy": [
          "tgn:7499013",
          "tgn:7488858",
          "tgn:1000004",
          "tgn:1000141",
          "tgn:7029392"
        ],
        "placetype": [
          "aat:300007595"
        ],
        "id": 7499013,
        "name:xx": "Yushan Tang"
      }
    },
    {
      "geometry": {
        "type": "Point",
        "coordinates": [
          121.093647,
          22.889362
        ]
      },
      "type": "Feature",
      "properties": {
        "hierarchy": [
          "tgn:7499014",
          "tgn:1000004",
          "tgn:7491221",
          "tgn:1000141",
          "tgn:7029392"
        ],
        "placetype": [
          "aat:300008347"
        ],
        "id": 7499014,
        "name:xx": "Jiuluming"
      }
    },
    {
      "geometry": {
        "type": "Point",
        "coordinates": [
          121.169832,
          22.892282
        ]
      },
      "type": "Feature",
      "properties": {
        "hierarchy": [
          "tgn:7499015",
          "tgn:1000004",
          "tgn:7491221",
          "tgn:1000141",
          "tgn:7029392"
        ],
        "placetype": [
          "aat:300387173"
        ],
        "id": 7499015,
        "name:xx": "Luanshan Cun"
      }
    },
    {
      "geometry": {
        "type": "Point",
        "coordinates": [
          121.252297,
          22.901303
        ]
      },
      "type": "Feature",
      "properties": {
        "hierarchy": [
          "tgn:7499016",
          "tgn:1000004",
          "tgn:7491221",
          "tgn:1000141",
          "tgn:7029392"
        ],
        "placetype": [
          "aat:300008347"
        ],
        "id": 7499016,
        "name:xx": "Yangqiao"
      }
    },
    {
      "geometry": {
        "type": "Point",
        "coordinates": [
          121.245189,
          22.908622
        ]
      },
      "type": "Feature",
      "properties": {
        "hierarchy": [
          "tgn:7499017",
          "tgn:1000004",
          "tgn:7491221",
          "tgn:1000141",
          "tgn:7029392"
        ],
        "placetype": [
          "aat:300387173"
        ],
        "id": 7499017,
        "name:xx": "Xingchang Cun"
      }
    },
    {
      "geometry": {
        "type": "Point",
        "coordinates": [
          121.184001,
          22.905759
        ]
      },
      "type": "Feature",
      "properties": {
        "hierarchy": [
          "tgn:7499018",
          "tgn:1000004",
          "tgn:7491221",
          "tgn:1000141",
          "tgn:7029392"
        ],
        "placetype": [
          "aat:300008347"
        ],
        "id": 7499018,
        "name:xx": "Songlin"
      }
    },
    {
      "geometry": {
        "type": "Point",
        "coordinates": [
          121.066097,
          22.900526
        ]
      },
      "type": "Feature",
      "properties": {
        "hierarchy": [
          "tgn:7499019",
          "tgn:1000004",
          "tgn:7491221",
          "tgn:1000141",
          "tgn:7029392"
        ],
        "placetype": [
          "aat:300008347"
        ],
        "id": 7499019,
        "name:xx": "Jiuhongye"
      }
    }
  ]
}
