{
  "type": "FeatureCollection",
  "features": [
    {
      "geometry": {
        "type": "Point",
        "coordinates": [
          -9.277,
          38.877
        ]
      },
      "type": "Feature",
      "properties": {
        "hierarchy": [
          "tgn:1049851",
          "tgn:1000882",
          "tgn:1000003",
          "tgn:1000090",
          "tgn:7029392"
        ],
        "placetype": [
          "aat:300008347"
        ],
        "id": 1049851,
        "name:xx": "Negrais"
      }
    },
    {
      "geometry": {
        "type": "Point",
        "coordinates": [
          -7.649,
          39.515
        ]
      },
      "type": "Feature",
      "properties": {
        "hierarchy": [
          "tgn:1049852",
          "tgn:7003825",
          "tgn:1000003",
          "tgn:1000090",
          "tgn:7029392"
        ],
        "placetype": [
          "aat:300008347"
        ],
        "id": 1049852,
        "name:xx": "Nisa"
      }
    },
    {
      "geometry": {
        "type": "Point",
        "coordinates": [
          -8.138,
          37.591
        ]
      },
      "type": "Feature",
      "properties": {
        "hierarchy": [
          "tgn:1049853",
          "tgn:1000810",
          "tgn:1000003",
          "tgn:1000090",
          "tgn:7029392"
        ],
        "placetype": [
          "aat:300008347",
          "aat:300387218"
        ],
        "id": 1049853,
        "name:xx": "Odemira"
      }
    },
    {
      "geometry": {
        "type": "Point",
        "coordinates": [
          -9.187,
          38.168
        ]
      },
      "type": "Feature",
      "properties": {
        "hierarchy": [
          "tgn:1049854",
          "tgn:1000882",
          "tgn:1000003",
          "tgn:1000090",
          "tgn:7029392"
        ],
        "placetype": [
          "aat:300008347"
        ],
        "id": 1049854,
        "name:xx": "Odivelas"
      }
    },
    {
      "geometry": {
        "type": "Point",
        "coordinates": [
          -7.796,
          41.165
        ]
      },
      "type": "Feature",
      "properties": {
        "hierarchy": [
          "tgn:1049858",
          "tgn:1000003",
          "tgn:7003827",
          "tgn:1000090",
          "tgn:7029392"
        ],
        "placetype": [
          "aat:300008347"
        ],
        "id": 1049858,
        "name:xx": "Olival Basto"
      }
    },
    {
      "geometry": {
        "type": "Point",
        "coordinates": [
          -8.225,
          37.653
        ]
      },
      "type": "Feature",
      "properties": {
        "hierarchy": [
          "tgn:1049859",
          "tgn:1000810",
          "tgn:1000003",
          "tgn:1000090",
          "tgn:7029392"
        ],
        "placetype": [
          "aat:300008347",
          "aat:300387218"
        ],
        "id": 1049859,
        "name:xx": "Ourique"
      }
    }
  ]
}
