{
  "type": "FeatureCollection",
  "features": [
    {
      "geometry": {
        "type": "Point",
        "coordinates": [
          121.304722,
          25.001111
        ]
      },
      "type": "Feature",
      "properties": {
        "hierarchy": [
          "tgn:7487250",
          "tgn:1000004",
          "tgn:7001013",
          "tgn:1000141",
          "tgn:7029392"
        ],
        "placetype": [
          "aat:300008347"
        ],
        "id": 7487250,
        "name:xx": "Lintoudian"
      }
    },
    {
      "geometry": {
        "type": "Point",
        "coordinates": [
          119.65,
          23.533333
        ]
      },
      "type": "Feature",
      "properties": {
        "hierarchy": [
          "tgn:7487251",
          "tgn:1000004",
          "tgn:7004300",
          "tgn:1000141",
          "tgn:7029392"
        ],
        "placetype": [
          "aat:300011692"
        ],
        "id": 7487251,
        "name:xx": "Lintou Shi"
      }
    },
    {
      "geometry": {
        "type": "Point",
        "coordinates": [
          120.161667,
          23.117778
        ]
      },
      "type": "Feature",
      "properties": {
        "hierarchy": [
          "tgn:7487252",
          "tgn:1000004",
          "tgn:7490934",
          "tgn:1000141",
          "tgn:7029392"
        ],
        "placetype": [
          "aat:300008347"
        ],
        "id": 7487252,
        "name:xx": "Lintounei"
      }
    },
    {
      "geometry": {
        "type": "Point",
        "coordinates": [
          119.642101,
          23.558917
        ]
      },
      "type": "Feature",
      "properties": {
        "hierarchy": [
          "tgn:7487253",
          "tgn:1000004",
          "tgn:7004300",
          "tgn:1000141",
          "tgn:7029392"
        ],
        "placetype": [
          "aat:300008187"
        ],
        "id": 7487253,
        "name:xx": "Lintou Gongyuan"
      }
    },
    {
      "geometry": {
        "type": "Point",
        "coordinates": [
          118.416667,
          24.429444
        ]
      },
      "type": "Feature",
      "properties": {
        "hierarchy": [
          "tgn:7487254",
          "tgn:7469009",
          "tgn:1000004",
          "tgn:1000141",
          "tgn:7029392"
        ],
        "placetype": [
          "aat:300008347"
        ],
        "id": 7487254,
        "name:xx": "Lindou"
      }
    },
    {
      "geometry": {
        "type": "Point",
        "coordinates": [
          120.491601,
          23.600661
        ]
      },
      "type": "Feature",
      "properties": {
        "hierarchy": [
          "tgn:7487255",
          "tgn:1000004",
          "tgn:7001014",
          "tgn:1000141",
          "tgn:7029392"
        ],
        "placetype": [
          "aat:300008347"
        ],
        "id": 7487255,
        "name:xx": "Linzitou"
      }
    },
    {
      "geometry": {
        "type": "Point",
        "coordinates": [
          119.645073,
          23.564237
        ]
      },
      "type": "Feature",
      "properties": {
        "hierarchy": [
          "tgn:7487257",
          "tgn:1000004",
          "tgn:7004300",
          "tgn:1000141",
          "tgn:7029392"
        ],
        "placetype": [
          "aat:300008347"
        ],
        "id": 7487257,
        "name:xx": "Lintou"
      }
    },
    {
      "geometry": {
        "type": "Point",
        "coordinates": [
          121.458278,
          23.782843
        ]
      },
      "type": "Feature",
      "properties": {
        "hierarchy": [
          "tgn:7487259",
          "tgn:7001010",
          "tgn:1000004",
          "tgn:1000141",
          "tgn:7029392"
        ],
        "placetype": [
          "aat:300007783"
        ],
        "id": 7487259,
        "name:xx": "Nanping Chezhan"
      }
    }
  ]
}
