{
  "type": "FeatureCollection",
  "features": [
    {
      "geometry": {
        "type": "Point",
        "coordinates": [
          31.23946,
          30.068518
        ]
      },
      "type": "Feature",
      "properties": {
        "hierarchy": [
          "tgn:7533070",
          "tgn:7001242",
          "tgn:7016833",
          "tgn:1001091",
          "tgn:7029392"
        ],
        "placetype": [
          "aat:300000745"
        ],
        "id": 7533070,
        "name:xx": "Jazīrat Badrān"
      }
    },
    {
      "geometry": {
        "type": "Point",
        "coordinates": [
          31.232893,
          30.069931
        ]
      },
      "type": "Feature",
      "properties": {
        "hierarchy": [
          "tgn:7533071",
          "tgn:7001242",
          "tgn:7016833",
          "tgn:1001091",
          "tgn:7029392"
        ],
        "placetype": [
          "aat:300007544"
        ],
        "id": 7533071,
        "name:xx": "Masjid Sayyidī Faraj"
      }
    },
    {
      "geometry": {
        "type": "Point",
        "coordinates": [
          31.232211,
          30.071485
        ]
      },
      "type": "Feature",
      "properties": {
        "hierarchy": [
          "tgn:7533072",
          "tgn:7001242",
          "tgn:7016833",
          "tgn:1001091",
          "tgn:7029392"
        ],
        "placetype": [
          "aat:300007836"
        ],
        "id": 7533072,
        "name:xx": "Kūbrī aş Şanāya'"
      }
    },
    {
      "geometry": {
        "type": "Point",
        "coordinates": [
          31.234474,
          30.038852
        ]
      },
      "type": "Feature",
      "properties": {
        "hierarchy": [
          "tgn:7533073",
          "tgn:7001242",
          "tgn:7016833",
          "tgn:1001091",
          "tgn:7029392"
        ],
        "placetype": [
          "aat:300004792"
        ],
        "id": 7533073,
        "name:xx": "Mişr lil Bitrūl"
      }
    },
    {
      "geometry": {
        "type": "Point",
        "coordinates": [
          31.227338,
          30.069008
        ]
      },
      "type": "Feature",
      "properties": {
        "hierarchy": [
          "tgn:7533074",
          "tgn:7001242",
          "tgn:7016833",
          "tgn:1001091",
          "tgn:7029392"
        ],
        "placetype": [
          "aat:300004792"
        ],
        "id": 7533074,
        "name:xx": "Al Jam'īyah at Ta'āwunīyah lil Bitrūl"
      }
    },
    {
      "geometry": {
        "type": "Point",
        "coordinates": [
          31.227388,
          30.067583
        ]
      },
      "type": "Feature",
      "properties": {
        "hierarchy": [
          "tgn:7533075",
          "tgn:7001242",
          "tgn:7016833",
          "tgn:1001091",
          "tgn:7029392"
        ],
        "placetype": [
          "aat:300004792"
        ],
        "id": 7533075,
        "name:xx": "Ittiḩād aş Şinā'āt al Mişrīyah"
      }
    },
    {
      "geometry": {
        "type": "Point",
        "coordinates": [
          31.227944,
          30.066922
        ]
      },
      "type": "Feature",
      "properties": {
        "hierarchy": [
          "tgn:7533076",
          "tgn:7001242",
          "tgn:7016833",
          "tgn:1001091",
          "tgn:7029392"
        ],
        "placetype": [
          "aat:300004792"
        ],
        "id": 7533076,
        "name:xx": "Al Hay'ah al Mişrīyah al 'Āmmah lil Kitāb"
      }
    },
    {
      "geometry": {
        "type": "Point",
        "coordinates": [
          31.228648,
          30.074774
        ]
      },
      "type": "Feature",
      "properties": {
        "hierarchy": [
          "tgn:7533077",
          "tgn:7001242",
          "tgn:7016833",
          "tgn:1001091",
          "tgn:7029392"
        ],
        "placetype": [
          "aat:300004792"
        ],
        "id": 7533077,
        "name:xx": "Nādī wa Qaşr Thaqāfat Rawḑ al Faraj"
      }
    },
    {
      "geometry": {
        "type": "Point",
        "coordinates": [
          31.229968,
          30.070678
        ]
      },
      "type": "Feature",
      "properties": {
        "hierarchy": [
          "tgn:7533078",
          "tgn:7001242",
          "tgn:7016833",
          "tgn:1001091",
          "tgn:7029392"
        ],
        "placetype": [
          "aat:300000745"
        ],
        "id": 7533078,
        "name:xx": "Masākin Ramlat Būlāq"
      }
    },
    {
      "geometry": {
        "type": "Point",
        "coordinates": [
          31.228079,
          30.072155
        ]
      },
      "type": "Feature",
      "properties": {
        "hierarchy": [
          "tgn:7533079",
          "tgn:7001242",
          "tgn:7016833",
          "tgn:1001091",
          "tgn:7029392"
        ],
        "placetype": [
          "aat:300006653"
        ],
        "id": 7533079,
        "name:xx": "Majma' al Khidmāt Bayţarīyah"
      }
    }
  ]
}
