{
  "type": "FeatureCollection",
  "features": [
    {
      "geometry": {
        "type": "Point",
        "coordinates": [
          -98.522222,
          21.158333
        ]
      },
      "type": "Feature",
      "properties": {
        "hierarchy": [
          "tgn:7412290",
          "tgn:7005587",
          "tgn:1000001",
          "tgn:7005560",
          "tgn:7029392"
        ],
        "placetype": [
          "aat:300008347"
        ],
        "id": 7412290,
        "name:es": "Vinazco"
      }
    },
    {
      "geometry": {
        "type": "Point",
        "coordinates": [
          -98.504167,
          21.138889
        ]
      },
      "type": "Feature",
      "properties": {
        "hierarchy": [
          "tgn:7412291",
          "tgn:7005587",
          "tgn:1000001",
          "tgn:7005560",
          "tgn:7029392"
        ],
        "placetype": [
          "aat:300008347"
        ],
        "id": 7412291,
        "name:es": "Amayac"
      }
    },
    {
      "geometry": {
        "type": "Point",
        "coordinates": [
          -98.55,
          21.133333
        ]
      },
      "type": "Feature",
      "properties": {
        "hierarchy": [
          "tgn:7412292",
          "tgn:7005587",
          "tgn:1000001",
          "tgn:7005560",
          "tgn:7029392"
        ],
        "placetype": [
          "aat:300008347"
        ],
        "id": 7412292,
        "name:es": "Cuapaxtitla"
      }
    },
    {
      "geometry": {
        "type": "Point",
        "coordinates": [
          -98.573611,
          21.133333
        ]
      },
      "type": "Feature",
      "properties": {
        "hierarchy": [
          "tgn:7412293",
          "tgn:7005587",
          "tgn:1000001",
          "tgn:7005560",
          "tgn:7029392"
        ],
        "placetype": [
          "aat:300008347"
        ],
        "id": 7412293,
        "name:es": "Poxtla"
      }
    },
    {
      "geometry": {
        "type": "Point",
        "coordinates": [
          -98.558333,
          21.163889
        ]
      },
      "type": "Feature",
      "properties": {
        "hierarchy": [
          "tgn:7412294",
          "tgn:7005587",
          "tgn:1000001",
          "tgn:7005560",
          "tgn:7029392"
        ],
        "placetype": [
          "aat:300008347"
        ],
        "id": 7412294,
        "name:es": "Huextetitla"
      }
    },
    {
      "geometry": {
        "type": "Point",
        "coordinates": [
          -98.536111,
          21.202778
        ]
      },
      "type": "Feature",
      "properties": {
        "hierarchy": [
          "tgn:7412295",
          "tgn:7005587",
          "tgn:1000001",
          "tgn:7005560",
          "tgn:7029392"
        ],
        "placetype": [
          "aat:300008347"
        ],
        "id": 7412295,
        "name:es": "El Zapote"
      }
    },
    {
      "geometry": {
        "type": "Point",
        "coordinates": [
          -98.595833,
          21.2375
        ]
      },
      "type": "Feature",
      "properties": {
        "hierarchy": [
          "tgn:7412296",
          "tgn:7005587",
          "tgn:1000001",
          "tgn:7005560",
          "tgn:7029392"
        ],
        "placetype": [
          "aat:300008347"
        ],
        "id": 7412296,
        "name:es": "Petacatl"
      }
    },
    {
      "geometry": {
        "type": "Point",
        "coordinates": [
          -98.573611,
          21.220833
        ]
      },
      "type": "Feature",
      "properties": {
        "hierarchy": [
          "tgn:7412297",
          "tgn:7005587",
          "tgn:1000001",
          "tgn:7005560",
          "tgn:7029392"
        ],
        "placetype": [
          "aat:300008347"
        ],
        "id": 7412297,
        "name:es": "Hueytale"
      }
    },
    {
      "geometry": {
        "type": "Point",
        "coordinates": [
          -98.590278,
          21.158333
        ]
      },
      "type": "Feature",
      "properties": {
        "hierarchy": [
          "tgn:7412298",
          "tgn:7005587",
          "tgn:1000001",
          "tgn:7005560",
          "tgn:7029392"
        ],
        "placetype": [
          "aat:300008347"
        ],
        "id": 7412298,
        "name:es": "Totonicapa"
      }
    },
    {
      "geometry": {
        "type": "Point",
        "coordinates": [
          -98.583333,
          21.141667
        ]
      },
      "type": "Feature",
      "properties": {
        "hierarchy": [
          "tgn:7412299",
          "tgn:7005587",
          "tgn:1000001",
          "tgn:7005560",
          "tgn:7029392"
        ],
        "placetype": [
          "aat:300008347"
        ],
        "id": 7412299,
        "name:es": "Pochotitla"
      }
    }
  ]
}
