{
  "type": "FeatureCollection",
  "features": [
    {
      "geometry": {
        "type": "Point",
        "coordinates": [
          120.691334,
          24.105108
        ]
      },
      "type": "Feature",
      "properties": {
        "hierarchy": [
          "tgn:7497360",
          "tgn:1000004",
          "tgn:7001009",
          "tgn:1000141",
          "tgn:7029392"
        ],
        "placetype": [
          "aat:300006495"
        ],
        "id": 7497360,
        "name:xx": "Liren Gaozhong"
      }
    },
    {
      "geometry": {
        "type": "Point",
        "coordinates": [
          120.695586,
          24.112047
        ]
      },
      "type": "Feature",
      "properties": {
        "hierarchy": [
          "tgn:7497361",
          "tgn:1000004",
          "tgn:7001009",
          "tgn:1000141",
          "tgn:7029392"
        ],
        "placetype": [
          "aat:300006495"
        ],
        "id": 7497361,
        "name:xx": "Neixin Guoxiao"
      }
    },
    {
      "geometry": {
        "type": "Point",
        "coordinates": [
          120.7314,
          24.1106
        ]
      },
      "type": "Feature",
      "properties": {
        "hierarchy": [
          "tgn:7497362",
          "tgn:1000004",
          "tgn:7001009",
          "tgn:1000141",
          "tgn:7029392"
        ],
        "placetype": [
          "aat:300006495"
        ],
        "id": 7497362,
        "name:xx": "Guanglong Guoxiao"
      }
    },
    {
      "geometry": {
        "type": "Point",
        "coordinates": [
          120.751894,
          24.123125
        ]
      },
      "type": "Feature",
      "properties": {
        "hierarchy": [
          "tgn:7497363",
          "tgn:1000004",
          "tgn:7001009",
          "tgn:1000141",
          "tgn:7029392"
        ],
        "placetype": [
          "aat:300006495"
        ],
        "id": 7497363,
        "name:xx": "Toubian Guoxiao"
      }
    },
    {
      "geometry": {
        "type": "Point",
        "coordinates": [
          120.659902,
          24.120832
        ]
      },
      "type": "Feature",
      "properties": {
        "hierarchy": [
          "tgn:7497364",
          "tgn:1000004",
          "tgn:7001009",
          "tgn:1000141",
          "tgn:7029392"
        ],
        "placetype": [
          "aat:300006495"
        ],
        "id": 7497364,
        "name:xx": "Heping Guoxiao"
      }
    },
    {
      "geometry": {
        "type": "Point",
        "coordinates": [
          120.658454,
          24.11935
        ]
      },
      "type": "Feature",
      "properties": {
        "hierarchy": [
          "tgn:7497365",
          "tgn:1000004",
          "tgn:7001009",
          "tgn:1000141",
          "tgn:7029392"
        ],
        "placetype": [
          "aat:300006495"
        ],
        "id": 7497365,
        "name:xx": "Yining"
      }
    },
    {
      "geometry": {
        "type": "Point",
        "coordinates": [
          120.651098,
          24.114181
        ]
      },
      "type": "Feature",
      "properties": {
        "hierarchy": [
          "tgn:7497366",
          "tgn:1000004",
          "tgn:7001009",
          "tgn:1000141",
          "tgn:7029392"
        ],
        "placetype": [
          "aat:300006610"
        ],
        "id": 7497366,
        "name:xx": "Xiuping Xueyuan"
      }
    },
    {
      "geometry": {
        "type": "Point",
        "coordinates": [
          121.616571,
          25.096998
        ]
      },
      "type": "Feature",
      "properties": {
        "hierarchy": [
          "tgn:7497367",
          "tgn:1000004",
          "tgn:1000454",
          "tgn:1000141",
          "tgn:7029392"
        ],
        "placetype": [
          "aat:300008347"
        ],
        "id": 7497367,
        "name:xx": "Shuiweitan"
      }
    },
    {
      "geometry": {
        "type": "Point",
        "coordinates": [
          121.626279,
          25.16969
        ]
      },
      "type": "Feature",
      "properties": {
        "hierarchy": [
          "tgn:7497369",
          "tgn:1000004",
          "tgn:1000454",
          "tgn:1000141",
          "tgn:7029392"
        ],
        "placetype": [
          "aat:300008347"
        ],
        "id": 7497369,
        "name:xx": "Dapinglun"
      }
    }
  ]
}
