{
  "type": "FeatureCollection",
  "features": [
    {
      "geometry": {
        "type": "Point",
        "coordinates": [
          -95.493056,
          17.459722
        ]
      },
      "type": "Feature",
      "properties": {
        "hierarchy": [
          "tgn:7416410",
          "tgn:1000001",
          "tgn:7005591",
          "tgn:7005560",
          "tgn:7029392"
        ],
        "placetype": [
          "aat:300008347"
        ],
        "id": 7416410,
        "name:es": "Campo Nuevo"
      }
    },
    {
      "geometry": {
        "type": "Point",
        "coordinates": [
          -95.445833,
          17.455278
        ]
      },
      "type": "Feature",
      "properties": {
        "hierarchy": [
          "tgn:7416411",
          "tgn:1000001",
          "tgn:7005591",
          "tgn:7005560",
          "tgn:7029392"
        ],
        "placetype": [
          "aat:300008347"
        ],
        "id": 7416411,
        "name:es": "Arroyo Carrizal"
      }
    },
    {
      "geometry": {
        "type": "Point",
        "coordinates": [
          -95.452778,
          17.416111
        ]
      },
      "type": "Feature",
      "properties": {
        "hierarchy": [
          "tgn:7416412",
          "tgn:1000001",
          "tgn:7005591",
          "tgn:7005560",
          "tgn:7029392"
        ],
        "placetype": [
          "aat:300008347"
        ],
        "id": 7416412,
        "name:es": "La Sábana"
      }
    },
    {
      "geometry": {
        "type": "Point",
        "coordinates": [
          -95.380278,
          17.450833
        ]
      },
      "type": "Feature",
      "properties": {
        "hierarchy": [
          "tgn:7416413",
          "tgn:1000001",
          "tgn:7005591",
          "tgn:7005560",
          "tgn:7029392"
        ],
        "placetype": [
          "aat:300008347"
        ],
        "id": 7416413,
        "name:es": "La Primavera"
      }
    },
    {
      "geometry": {
        "type": "Point",
        "coordinates": [
          -95.326667,
          17.452778
        ]
      },
      "type": "Feature",
      "properties": {
        "hierarchy": [
          "tgn:7416414",
          "tgn:1000001",
          "tgn:7005591",
          "tgn:7005560",
          "tgn:7029392"
        ],
        "placetype": [
          "aat:300008347"
        ],
        "id": 7416414,
        "name:es": "Nuevo Cerro Mojarra"
      }
    },
    {
      "geometry": {
        "type": "Point",
        "coordinates": [
          -95.311111,
          17.444444
        ]
      },
      "type": "Feature",
      "properties": {
        "hierarchy": [
          "tgn:7416415",
          "tgn:1000001",
          "tgn:7005591",
          "tgn:7005560",
          "tgn:7029392"
        ],
        "placetype": [
          "aat:300008347"
        ],
        "id": 7416415,
        "name:es": "Arroyo Encino"
      }
    },
    {
      "geometry": {
        "type": "Point",
        "coordinates": [
          -95.256944,
          17.479722
        ]
      },
      "type": "Feature",
      "properties": {
        "hierarchy": [
          "tgn:7416416",
          "tgn:1000001",
          "tgn:7005591",
          "tgn:7005560",
          "tgn:7029392"
        ],
        "placetype": [
          "aat:300008347"
        ],
        "id": 7416416,
        "name:es": "El Porvenir"
      }
    },
    {
      "geometry": {
        "type": "Point",
        "coordinates": [
          -95.194444,
          17.455556
        ]
      },
      "type": "Feature",
      "properties": {
        "hierarchy": [
          "tgn:7416417",
          "tgn:1000001",
          "tgn:7005591",
          "tgn:7005560",
          "tgn:7029392"
        ],
        "placetype": [
          "aat:300008347"
        ],
        "id": 7416417,
        "name:es": "Benito Juárez"
      }
    },
    {
      "geometry": {
        "type": "Point",
        "coordinates": [
          -95.156111,
          17.459167
        ]
      },
      "type": "Feature",
      "properties": {
        "hierarchy": [
          "tgn:7416418",
          "tgn:1000001",
          "tgn:7005591",
          "tgn:7005560",
          "tgn:7029392"
        ],
        "placetype": [
          "aat:300008347"
        ],
        "id": 7416418,
        "name:es": "La Nueva Raza"
      }
    },
    {
      "geometry": {
        "type": "Point",
        "coordinates": [
          -95.139167,
          17.514167
        ]
      },
      "type": "Feature",
      "properties": {
        "hierarchy": [
          "tgn:7416419",
          "tgn:1000001",
          "tgn:7005591",
          "tgn:7005560",
          "tgn:7029392"
        ],
        "placetype": [
          "aat:300008347"
        ],
        "id": 7416419,
        "name:es": "El Paraíso"
      }
    }
  ]
}
