{
  "type": "FeatureCollection",
  "features": [
    {
      "geometry": {
        "type": "Point",
        "coordinates": [
          79.032518,
          25.711622
        ]
      },
      "type": "Feature",
      "properties": {
        "hierarchy": [
          "tgn:7566210",
          "tgn:1000004",
          "tgn:7000198",
          "tgn:7016722",
          "tgn:7029392"
        ],
        "placetype": [
          "aat:300008347"
        ],
        "name:en": "Sāran",
        "id": 7566210
      }
    },
    {
      "geometry": {
        "type": "Point",
        "coordinates": [
          79.093871,
          25.712069
        ]
      },
      "type": "Feature",
      "properties": {
        "hierarchy": [
          "tgn:7566211",
          "tgn:1000004",
          "tgn:7000198",
          "tgn:7016722",
          "tgn:7029392"
        ],
        "placetype": [
          "aat:300008347"
        ],
        "name:en": "Hardua",
        "id": 7566211
      }
    },
    {
      "geometry": {
        "type": "Point",
        "coordinates": [
          79.124455,
          25.70996
        ]
      },
      "type": "Feature",
      "properties": {
        "hierarchy": [
          "tgn:7566212",
          "tgn:1000004",
          "tgn:7000198",
          "tgn:7016722",
          "tgn:7029392"
        ],
        "placetype": [
          "aat:300008347"
        ],
        "name:en": "Khareni",
        "id": 7566212
      }
    },
    {
      "geometry": {
        "type": "Point",
        "coordinates": [
          79.059792,
          25.752163
        ]
      },
      "type": "Feature",
      "properties": {
        "hierarchy": [
          "tgn:7566213",
          "tgn:1000004",
          "tgn:7000198",
          "tgn:7016722",
          "tgn:7029392"
        ],
        "placetype": [
          "aat:300008699"
        ],
        "name:en": "Parara Nāla",
        "id": 7566213
      }
    },
    {
      "geometry": {
        "type": "Point",
        "coordinates": [
          79.005055,
          25.726637
        ]
      },
      "type": "Feature",
      "properties": {
        "hierarchy": [
          "tgn:7566214",
          "tgn:1000004",
          "tgn:7000198",
          "tgn:7016722",
          "tgn:7029392"
        ],
        "placetype": [
          "aat:300008347"
        ],
        "name:en": "Jaunra",
        "id": 7566214
      }
    },
    {
      "geometry": {
        "type": "Point",
        "coordinates": [
          79.08832,
          25.683434
        ]
      },
      "type": "Feature",
      "properties": {
        "hierarchy": [
          "tgn:7566215",
          "tgn:1000004",
          "tgn:7000198",
          "tgn:7016722",
          "tgn:7029392"
        ],
        "placetype": [
          "aat:300008347"
        ],
        "name:en": "Semra",
        "id": 7566215
      }
    },
    {
      "geometry": {
        "type": "Point",
        "coordinates": [
          79.083047,
          25.72909
        ]
      },
      "type": "Feature",
      "properties": {
        "hierarchy": [
          "tgn:7566216",
          "tgn:1000004",
          "tgn:7000198",
          "tgn:7016722",
          "tgn:7029392"
        ],
        "placetype": [
          "aat:300008347"
        ],
        "name:en": "Labhera",
        "id": 7566216
      }
    },
    {
      "geometry": {
        "type": "Point",
        "coordinates": [
          79.040392,
          25.724195
        ]
      },
      "type": "Feature",
      "properties": {
        "hierarchy": [
          "tgn:7566217",
          "tgn:1000004",
          "tgn:7000198",
          "tgn:7016722",
          "tgn:7029392"
        ],
        "placetype": [
          "aat:300008865"
        ],
        "name:en": "Sāran Reserved Forest",
        "id": 7566217
      }
    },
    {
      "geometry": {
        "type": "Point",
        "coordinates": [
          79.058233,
          25.72347
        ]
      },
      "type": "Feature",
      "properties": {
        "hierarchy": [
          "tgn:7566218",
          "tgn:1000004",
          "tgn:7000198",
          "tgn:7016722",
          "tgn:7029392"
        ],
        "placetype": [
          "aat:300008347"
        ],
        "name:en": "Jujhārpura",
        "id": 7566218
      }
    },
    {
      "geometry": {
        "type": "Point",
        "coordinates": [
          79.165728,
          25.71497
        ]
      },
      "type": "Feature",
      "properties": {
        "hierarchy": [
          "tgn:7566219",
          "tgn:1000004",
          "tgn:7000198",
          "tgn:7016722",
          "tgn:7029392"
        ],
        "placetype": [
          "aat:300008347"
        ],
        "name:en": "Bāmaur",
        "id": 7566219
      }
    }
  ]
}
