{
  "type": "FeatureCollection",
  "features": [
    {
      "geometry": {
        "type": "Point",
        "coordinates": [
          72.952096,
          23.745544
        ]
      },
      "type": "Feature",
      "properties": {
        "hierarchy": [
          "tgn:7573800",
          "tgn:1000004",
          "tgn:1001869",
          "tgn:7000198",
          "tgn:7029392"
        ],
        "placetype": [
          "aat:300007783"
        ],
        "name:en": "Jādar",
        "id": 7573800
      }
    },
    {
      "geometry": {
        "type": "Point",
        "coordinates": [
          73.489053,
          25.841865
        ]
      },
      "type": "Feature",
      "properties": {
        "hierarchy": [
          "tgn:7573801",
          "tgn:1000004",
          "tgn:7000198",
          "tgn:7016788",
          "tgn:7029392"
        ],
        "placetype": [
          "aat:300008347"
        ],
        "name:en": "Jādan",
        "id": 7573801
      }
    },
    {
      "geometry": {
        "type": "Point",
        "coordinates": [
          88.37873,
          22.487935
        ]
      },
      "type": "Feature",
      "properties": {
        "hierarchy": [
          "tgn:7573802",
          "tgn:1000004",
          "tgn:7000198",
          "tgn:1001977",
          "tgn:7029392"
        ],
        "placetype": [
          "aat:300008347"
        ],
        "name:en": "Jādabpur",
        "id": 7573802
      }
    },
    {
      "geometry": {
        "type": "Point",
        "coordinates": [
          84.848808,
          24.016061
        ]
      },
      "type": "Feature",
      "properties": {
        "hierarchy": [
          "tgn:7573804",
          "tgn:1000004",
          "tgn:7000198",
          "tgn:7031783",
          "tgn:7029392"
        ],
        "placetype": [
          "aat:300008347"
        ],
        "name:en": "Jabra",
        "id": 7573804
      }
    },
    {
      "geometry": {
        "type": "Point",
        "coordinates": [
          79.677755,
          23.558023
        ]
      },
      "type": "Feature",
      "properties": {
        "hierarchy": [
          "tgn:7573805",
          "tgn:1000004",
          "tgn:7000198",
          "tgn:1001894",
          "tgn:7029392"
        ],
        "placetype": [
          "aat:300008347"
        ],
        "name:en": "Jaberā",
        "id": 7573805
      }
    },
    {
      "geometry": {
        "type": "Point",
        "coordinates": [
          77.775628,
          29.809972
        ]
      },
      "type": "Feature",
      "properties": {
        "hierarchy": [
          "tgn:7573806",
          "tgn:1000004",
          "tgn:7000198",
          "tgn:7016722",
          "tgn:7029392"
        ],
        "placetype": [
          "aat:300008347"
        ],
        "name:en": "Jhabrera",
        "id": 7573806
      }
    },
    {
      "geometry": {
        "type": "Point",
        "coordinates": [
          82.583333,
          18.45
        ]
      },
      "type": "Feature",
      "properties": {
        "hierarchy": [
          "tgn:7573809",
          "tgn:1000004",
          "tgn:7000198",
          "tgn:7016694",
          "tgn:7029392"
        ],
        "placetype": [
          "aat:300008347"
        ],
        "name:en": "Jabāgarh",
        "id": 7573809
      }
    }
  ]
}
