{
  "type": "FeatureCollection",
  "features": [
    {
      "geometry": {
        "type": "Point",
        "coordinates": [
          82.466905,
          25.332379
        ]
      },
      "type": "Feature",
      "properties": {
        "hierarchy": [
          "tgn:7573840",
          "tgn:1000004",
          "tgn:7000198",
          "tgn:7016722",
          "tgn:7029392"
        ],
        "placetype": [
          "aat:300008347"
        ],
        "name:en": "Gyānpur",
        "id": 7573840
      }
    },
    {
      "geometry": {
        "type": "Point",
        "coordinates": [
          88.257074,
          27.281162
        ]
      },
      "type": "Feature",
      "properties": {
        "hierarchy": [
          "tgn:7573841",
          "tgn:1000004",
          "tgn:7000198",
          "tgn:1001957",
          "tgn:7029392"
        ],
        "placetype": [
          "aat:300008347"
        ],
        "name:en": "Gyalshing",
        "id": 7573841
      }
    },
    {
      "geometry": {
        "type": "Point",
        "coordinates": [
          77.736398,
          33.649833
        ]
      },
      "type": "Feature",
      "properties": {
        "hierarchy": [
          "tgn:7573842",
          "tgn:1000004",
          "tgn:7000198",
          "tgn:7000799",
          "tgn:7029392"
        ],
        "placetype": [
          "aat:300008347"
        ],
        "name:en": "Gya",
        "id": 7573842
      }
    },
    {
      "geometry": {
        "type": "Point",
        "coordinates": [
          79.981929,
          30.103564
        ]
      },
      "type": "Feature",
      "properties": {
        "hierarchy": [
          "tgn:7573843",
          "tgn:1000004",
          "tgn:7000198",
          "tgn:7031786",
          "tgn:7029392"
        ],
        "placetype": [
          "aat:300008347"
        ],
        "name:en": "Gwāra",
        "id": 7573843
      }
    },
    {
      "geometry": {
        "type": "Point",
        "coordinates": [
          81.229769,
          22.594127
        ]
      },
      "type": "Feature",
      "properties": {
        "hierarchy": [
          "tgn:7573844",
          "tgn:1000004",
          "tgn:7000198",
          "tgn:1001894",
          "tgn:7029392"
        ],
        "placetype": [
          "aat:300008347"
        ],
        "name:en": "Gwara",
        "id": 7573844
      }
    },
    {
      "geometry": {
        "type": "Point",
        "coordinates": [
          79.083333,
          30.216667
        ]
      },
      "type": "Feature",
      "properties": {
        "hierarchy": [
          "tgn:7573845",
          "tgn:1000004",
          "tgn:7000198",
          "tgn:7031786",
          "tgn:7029392"
        ],
        "placetype": [
          "aat:300008795"
        ],
        "name:en": "Gwānagarh",
        "id": 7573845
      }
    },
    {
      "geometry": {
        "type": "Point",
        "coordinates": [
          79.066991,
          24.746193
        ]
      },
      "type": "Feature",
      "properties": {
        "hierarchy": [
          "tgn:7573846",
          "tgn:1000004",
          "tgn:7000198",
          "tgn:1001894",
          "tgn:7029392"
        ],
        "placetype": [
          "aat:300008680"
        ],
        "name:en": "Gwāl Sāgar",
        "id": 7573846
      }
    },
    {
      "geometry": {
        "type": "Point",
        "coordinates": [
          74.844457,
          24.933487
        ]
      },
      "type": "Feature",
      "properties": {
        "hierarchy": [
          "tgn:7573848",
          "tgn:1000004",
          "tgn:7000198",
          "tgn:7016788",
          "tgn:7029392"
        ],
        "placetype": [
          "aat:300008347"
        ],
        "name:en": "Gwalior",
        "id": 7573848
      }
    }
  ]
}
