{
  "type": "FeatureCollection",
  "features": [
    {
      "geometry": {
        "type": "Point",
        "coordinates": [
          13.203889,
          46.139444
        ]
      },
      "type": "Feature",
      "properties": {
        "hierarchy": [
          "tgn:7035280",
          "tgn:1003506",
          "tgn:1000003",
          "tgn:7002993",
          "tgn:1000080",
          "tgn:7029392"
        ],
        "placetype": [
          "aat:300008347"
        ],
        "id": 7035280,
        "name:xx": "Leonacco"
      }
    },
    {
      "geometry": {
        "type": "Point",
        "coordinates": [
          12.838056,
          45.77
        ]
      },
      "type": "Feature",
      "properties": {
        "hierarchy": [
          "tgn:7035281",
          "tgn:7003006",
          "tgn:1000003",
          "tgn:7002997",
          "tgn:1000080",
          "tgn:7029392"
        ],
        "placetype": [
          "aat:300008699"
        ],
        "id": 7035281,
        "name:xx": "Versa"
      }
    },
    {
      "geometry": {
        "type": "Point",
        "coordinates": [
          12.834722,
          45.770833
        ]
      },
      "type": "Feature",
      "properties": {
        "hierarchy": [
          "tgn:7035282",
          "tgn:7003006",
          "tgn:1000003",
          "tgn:7002997",
          "tgn:1000080",
          "tgn:7029392"
        ],
        "placetype": [
          "aat:300008699"
        ],
        "id": 7035282,
        "name:xx": "Reghena"
      }
    },
    {
      "geometry": {
        "type": "Point",
        "coordinates": [
          12.890833,
          45.631944
        ]
      },
      "type": "Feature",
      "properties": {
        "hierarchy": [
          "tgn:7035283",
          "tgn:7003006",
          "tgn:1000003",
          "tgn:7002997",
          "tgn:1000080",
          "tgn:7029392"
        ],
        "placetype": [
          "aat:300008699"
        ],
        "id": 7035283,
        "name:xx": "Loncon"
      }
    },
    {
      "geometry": {
        "type": "Point",
        "coordinates": [
          13.115,
          46.127778
        ]
      },
      "type": "Feature",
      "properties": {
        "hierarchy": [
          "tgn:7035284",
          "tgn:1003506",
          "tgn:1000003",
          "tgn:7002993",
          "tgn:1000080",
          "tgn:7029392"
        ],
        "placetype": [
          "aat:300008347"
        ],
        "id": 7035284,
        "name:xx": "Modotto"
      }
    },
    {
      "geometry": {
        "type": "Point",
        "coordinates": [
          13.190278,
          46.121667
        ]
      },
      "type": "Feature",
      "properties": {
        "hierarchy": [
          "tgn:7035285",
          "tgn:1003506",
          "tgn:1000003",
          "tgn:7002993",
          "tgn:1000080",
          "tgn:7029392"
        ],
        "placetype": [
          "aat:300008347"
        ],
        "id": 7035285,
        "name:xx": "Pagnacco"
      }
    },
    {
      "geometry": {
        "type": "Point",
        "coordinates": [
          13.18,
          46.1175
        ]
      },
      "type": "Feature",
      "properties": {
        "hierarchy": [
          "tgn:7035286",
          "tgn:1003506",
          "tgn:1000003",
          "tgn:7002993",
          "tgn:1000080",
          "tgn:7029392"
        ],
        "placetype": [
          "aat:300008347"
        ],
        "id": 7035286,
        "name:xx": "Zampis"
      }
    },
    {
      "geometry": {
        "type": "Point",
        "coordinates": [
          13.179444,
          46.110556
        ]
      },
      "type": "Feature",
      "properties": {
        "hierarchy": [
          "tgn:7035287",
          "tgn:1003506",
          "tgn:1000003",
          "tgn:7002993",
          "tgn:1000080",
          "tgn:7029392"
        ],
        "placetype": [
          "aat:300008347"
        ],
        "id": 7035287,
        "name:xx": "Plaino"
      }
    },
    {
      "geometry": {
        "type": "Point",
        "coordinates": [
          13.155278,
          46.105556
        ]
      },
      "type": "Feature",
      "properties": {
        "hierarchy": [
          "tgn:7035288",
          "tgn:1003506",
          "tgn:1000003",
          "tgn:7002993",
          "tgn:1000080",
          "tgn:7029392"
        ],
        "placetype": [
          "aat:300008347"
        ],
        "id": 7035288,
        "name:xx": "Torreano"
      }
    },
    {
      "geometry": {
        "type": "Point",
        "coordinates": [
          13.121389,
          46.103333
        ]
      },
      "type": "Feature",
      "properties": {
        "hierarchy": [
          "tgn:7035289",
          "tgn:1003506",
          "tgn:1000003",
          "tgn:7002993",
          "tgn:1000080",
          "tgn:7029392"
        ],
        "placetype": [
          "aat:300008347"
        ],
        "id": 7035289,
        "name:xx": "Villatta"
      }
    }
  ]
}
