{
  "type": "FeatureCollection",
  "features": [
    {
      "geometry": {
        "type": "Point",
        "coordinates": [
          120.196944,
          23.6975
        ]
      },
      "type": "Feature",
      "properties": {
        "hierarchy": [
          "tgn:7487690",
          "tgn:1000004",
          "tgn:7001014",
          "tgn:1000141",
          "tgn:7029392"
        ],
        "placetype": [
          "aat:300000745"
        ],
        "id": 7487690,
        "name:xx": "Liukuaicuo"
      }
    },
    {
      "geometry": {
        "type": "Point",
        "coordinates": [
          121.161944,
          24.945556
        ]
      },
      "type": "Feature",
      "properties": {
        "hierarchy": [
          "tgn:7487691",
          "tgn:1000004",
          "tgn:7001013",
          "tgn:1000141",
          "tgn:7029392"
        ],
        "placetype": [
          "aat:300008347"
        ],
        "id": 7487691,
        "name:xx": "Liugu"
      }
    },
    {
      "geometry": {
        "type": "Point",
        "coordinates": [
          121.103056,
          24.818056
        ]
      },
      "type": "Feature",
      "properties": {
        "hierarchy": [
          "tgn:7487692",
          "tgn:1000004",
          "tgn:7471332",
          "tgn:1000141",
          "tgn:7029392"
        ],
        "placetype": [
          "aat:300008347"
        ],
        "id": 7487692,
        "name:xx": "Liugu"
      }
    },
    {
      "geometry": {
        "type": "Point",
        "coordinates": [
          120.684722,
          24.365
        ]
      },
      "type": "Feature",
      "properties": {
        "hierarchy": [
          "tgn:7487693",
          "tgn:7487020",
          "tgn:1000004",
          "tgn:1000141",
          "tgn:7029392"
        ],
        "placetype": [
          "aat:300008347"
        ],
        "id": 7487693,
        "name:xx": "Liugu"
      }
    },
    {
      "geometry": {
        "type": "Point",
        "coordinates": [
          120.6912,
          24.0418
        ]
      },
      "type": "Feature",
      "properties": {
        "hierarchy": [
          "tgn:7487694",
          "tgn:1000004",
          "tgn:7001009",
          "tgn:1000141",
          "tgn:7029392"
        ],
        "placetype": [
          "aat:300008347",
          "aat:300387200"
        ],
        "id": 7487694,
        "name:xx": "Liugu Cun"
      }
    },
    {
      "geometry": {
        "type": "Point",
        "coordinates": [
          120.42393,
          23.590774
        ]
      },
      "type": "Feature",
      "properties": {
        "hierarchy": [
          "tgn:7487695",
          "tgn:7468018",
          "tgn:1000004",
          "tgn:1000141",
          "tgn:7029392"
        ],
        "placetype": [
          "aat:300008347"
        ],
        "id": 7487695,
        "name:xx": "Alianzhuang"
      }
    },
    {
      "geometry": {
        "type": "Point",
        "coordinates": [
          121.8175,
          24.771944
        ]
      },
      "type": "Feature",
      "properties": {
        "hierarchy": [
          "tgn:7487696",
          "tgn:1000004",
          "tgn:7489179",
          "tgn:1000141",
          "tgn:7029392"
        ],
        "placetype": [
          "aat:300008347"
        ],
        "id": 7487696,
        "name:xx": "Liuge"
      }
    },
    {
      "geometry": {
        "type": "Point",
        "coordinates": [
          121.794847,
          25.12053
        ]
      },
      "type": "Feature",
      "properties": {
        "hierarchy": [
          "tgn:7487697",
          "tgn:1000004",
          "tgn:1000454",
          "tgn:1000141",
          "tgn:7029392"
        ],
        "placetype": [
          "aat:300008347"
        ],
        "id": 7487697,
        "name:xx": "Liukeng"
      }
    },
    {
      "geometry": {
        "type": "Point",
        "coordinates": [
          121.188056,
          24.839444
        ]
      },
      "type": "Feature",
      "properties": {
        "hierarchy": [
          "tgn:7487698",
          "tgn:1000004",
          "tgn:7001013",
          "tgn:1000141",
          "tgn:7029392"
        ],
        "placetype": [
          "aat:300008347"
        ],
        "id": 7487698,
        "name:xx": "Liugangliao"
      }
    },
    {
      "geometry": {
        "type": "Point",
        "coordinates": [
          121.616667,
          24.45
        ]
      },
      "type": "Feature",
      "properties": {
        "hierarchy": [
          "tgn:7487699",
          "tgn:1000004",
          "tgn:7489179",
          "tgn:1000141",
          "tgn:7029392"
        ],
        "placetype": [
          "aat:300008347"
        ],
        "id": 7487699,
        "name:xx": "Liuxing"
      }
    }
  ]
}
