{
  "type": "FeatureCollection",
  "features": [
    {
      "geometry": {
        "type": "Point",
        "coordinates": [
          121.301135,
          23.628103
        ]
      },
      "type": "Feature",
      "properties": {
        "hierarchy": [
          "tgn:7494760",
          "tgn:7001010",
          "tgn:1000004",
          "tgn:1000141",
          "tgn:7029392"
        ],
        "placetype": [
          "aat:300008798"
        ],
        "id": 7494760,
        "name:xx": "Mahouwan Shan"
      }
    },
    {
      "geometry": {
        "type": "Point",
        "coordinates": [
          121.310169,
          23.622279
        ]
      },
      "type": "Feature",
      "properties": {
        "hierarchy": [
          "tgn:7494761",
          "tgn:7001010",
          "tgn:1000004",
          "tgn:1000141",
          "tgn:7029392"
        ],
        "placetype": [
          "aat:300008798"
        ],
        "id": 7494761,
        "name:xx": "Xinglujun Shan"
      }
    },
    {
      "geometry": {
        "type": "Point",
        "coordinates": [
          121.301293,
          23.591317
        ]
      },
      "type": "Feature",
      "properties": {
        "hierarchy": [
          "tgn:7494762",
          "tgn:7001010",
          "tgn:1000004",
          "tgn:1000141",
          "tgn:7029392"
        ],
        "placetype": [
          "aat:300008798"
        ],
        "id": 7494762,
        "name:xx": "Shajia Shan"
      }
    },
    {
      "geometry": {
        "type": "Point",
        "coordinates": [
          120.685538,
          22.526616
        ]
      },
      "type": "Feature",
      "properties": {
        "hierarchy": [
          "tgn:7494763",
          "tgn:1000004",
          "tgn:7492971",
          "tgn:1000141",
          "tgn:7029392"
        ],
        "placetype": [
          "aat:300007836"
        ],
        "id": 7494763,
        "name:xx": "Laishe Qiao"
      }
    },
    {
      "geometry": {
        "type": "Point",
        "coordinates": [
          120.514472,
          22.512298
        ]
      },
      "type": "Feature",
      "properties": {
        "hierarchy": [
          "tgn:7494764",
          "tgn:1000004",
          "tgn:7492971",
          "tgn:1000141",
          "tgn:7029392"
        ],
        "placetype": [
          "aat:300007783"
        ],
        "id": 7494764,
        "name:xx": "Kanding Zhan"
      }
    },
    {
      "geometry": {
        "type": "Point",
        "coordinates": [
          120.647251,
          22.527806
        ]
      },
      "type": "Feature",
      "properties": {
        "hierarchy": [
          "tgn:7494765",
          "tgn:1000004",
          "tgn:7492971",
          "tgn:1000141",
          "tgn:7029392"
        ],
        "placetype": [
          "aat:300006495"
        ],
        "id": 7494765,
        "name:xx": "Laiyi Guoxiao"
      }
    },
    {
      "geometry": {
        "type": "Point",
        "coordinates": [
          120.601583,
          22.7299
        ]
      },
      "type": "Feature",
      "properties": {
        "hierarchy": [
          "tgn:7494766",
          "tgn:1000004",
          "tgn:7492971",
          "tgn:1000141",
          "tgn:7029392"
        ],
        "placetype": [
          "aat:300007836"
        ],
        "id": 7494766,
        "name:xx": "Junde Qiao"
      }
    },
    {
      "geometry": {
        "type": "Point",
        "coordinates": [
          120.619884,
          23.429936
        ]
      },
      "type": "Feature",
      "properties": {
        "hierarchy": [
          "tgn:7494767",
          "tgn:7468018",
          "tgn:1000004",
          "tgn:1000141",
          "tgn:7029392"
        ],
        "placetype": [
          "aat:300008347"
        ],
        "id": 7494767,
        "name:xx": "Niushanxizi"
      }
    },
    {
      "geometry": {
        "type": "Point",
        "coordinates": [
          120.626772,
          23.424074
        ]
      },
      "type": "Feature",
      "properties": {
        "hierarchy": [
          "tgn:7494768",
          "tgn:7468018",
          "tgn:1000004",
          "tgn:1000141",
          "tgn:7029392"
        ],
        "placetype": [
          "aat:300008347"
        ],
        "id": 7494768,
        "name:xx": "Kulingqiao"
      }
    },
    {
      "geometry": {
        "type": "Point",
        "coordinates": [
          120.616022,
          23.434992
        ]
      },
      "type": "Feature",
      "properties": {
        "hierarchy": [
          "tgn:7494769",
          "tgn:7468018",
          "tgn:1000004",
          "tgn:1000141",
          "tgn:7029392"
        ],
        "placetype": [
          "aat:300008347"
        ],
        "id": 7494769,
        "name:xx": "Houkezi"
      }
    }
  ]
}
