{
  "type": "FeatureCollection",
  "features": [
    {
      "geometry": {
        "type": "Point",
        "coordinates": [
          34.333945,
          28.11263
        ]
      },
      "type": "Feature",
      "properties": {
        "hierarchy": [
          "tgn:7542520",
          "tgn:7001242",
          "tgn:7016833",
          "tgn:7001336",
          "tgn:7029392"
        ],
        "placetype": [
          "aat:300008795"
        ],
        "name:en": "Ḩamrā', Jabal al",
        "id": 7542520
      }
    },
    {
      "geometry": {
        "type": "Point",
        "coordinates": [
          34.356271,
          28.024238
        ]
      },
      "type": "Feature",
      "properties": {
        "hierarchy": [
          "tgn:7542521",
          "tgn:7001242",
          "tgn:7016833",
          "tgn:7001336",
          "tgn:7029392"
        ],
        "placetype": [
          "aat:300008795"
        ],
        "name:en": "Umm Ţarţīr, Jabal",
        "id": 7542521
      }
    },
    {
      "geometry": {
        "type": "Point",
        "coordinates": [
          34.26238,
          28.083628
        ]
      },
      "type": "Feature",
      "properties": {
        "hierarchy": [
          "tgn:7542522",
          "tgn:7001242",
          "tgn:7016833",
          "tgn:7001336",
          "tgn:7029392"
        ],
        "placetype": [
          "aat:300379998"
        ],
        "name:en": "Umm Misallah, Wādī",
        "id": 7542522
      }
    },
    {
      "geometry": {
        "type": "Point",
        "coordinates": [
          34.262277,
          28.052749
        ]
      },
      "type": "Feature",
      "properties": {
        "hierarchy": [
          "tgn:7542523",
          "tgn:7001242",
          "tgn:7016833",
          "tgn:7001336",
          "tgn:7029392"
        ],
        "placetype": [
          "aat:300008795"
        ],
        "name:en": "Buraykā, Jabal",
        "id": 7542523
      }
    },
    {
      "geometry": {
        "type": "Point",
        "coordinates": [
          33.234722,
          30.670556
        ]
      },
      "type": "Feature",
      "properties": {
        "hierarchy": [
          "tgn:7542524",
          "tgn:7001242",
          "tgn:7016833",
          "tgn:7001335",
          "tgn:7029392"
        ],
        "placetype": [
          "aat:300379998"
        ],
        "name:en": "Marsam, Wādī al",
        "id": 7542524
      }
    },
    {
      "geometry": {
        "type": "Point",
        "coordinates": [
          33.284444,
          30.695833
        ]
      },
      "type": "Feature",
      "properties": {
        "hierarchy": [
          "tgn:7542525",
          "tgn:7001242",
          "tgn:7016833",
          "tgn:7001335",
          "tgn:7029392"
        ],
        "placetype": [
          "aat:300379998"
        ],
        "name:en": "Khurayq, Wādī al",
        "id": 7542525
      }
    },
    {
      "geometry": {
        "type": "Point",
        "coordinates": [
          33.168333,
          30.905278
        ]
      },
      "type": "Feature",
      "properties": {
        "hierarchy": [
          "tgn:7542526",
          "tgn:7001242",
          "tgn:7016833",
          "tgn:7001335",
          "tgn:7029392"
        ],
        "placetype": [
          "aat:300008777"
        ],
        "name:en": "Al 'Aldā'",
        "id": 7542526
      }
    },
    {
      "geometry": {
        "type": "Point",
        "coordinates": [
          33.132778,
          30.880278
        ]
      },
      "type": "Feature",
      "properties": {
        "hierarchy": [
          "tgn:7542527",
          "tgn:7001242",
          "tgn:7016833",
          "tgn:7001335",
          "tgn:7029392"
        ],
        "placetype": [
          "aat:300386870"
        ],
        "name:en": "Al Aşqā'",
        "id": 7542527
      }
    },
    {
      "geometry": {
        "type": "Point",
        "coordinates": [
          33.016944,
          30.9375
        ]
      },
      "type": "Feature",
      "properties": {
        "hierarchy": [
          "tgn:7542528",
          "tgn:7001242",
          "tgn:7016833",
          "tgn:7001335",
          "tgn:7029392"
        ],
        "placetype": [
          "aat:300006207"
        ],
        "name:en": "Bi'r Abū Da'ās",
        "id": 7542528
      }
    },
    {
      "geometry": {
        "type": "Point",
        "coordinates": [
          33.015833,
          30.971944
        ]
      },
      "type": "Feature",
      "properties": {
        "hierarchy": [
          "tgn:7542529",
          "tgn:7001242",
          "tgn:7016833",
          "tgn:7001335",
          "tgn:7029392"
        ],
        "placetype": [
          "aat:300006207"
        ],
        "name:en": "Bi'r al 'Ilwānīyah",
        "id": 7542529
      }
    }
  ]
}
