{
  "type": "FeatureCollection",
  "features": [
    {
      "geometry": {
        "type": "Point",
        "coordinates": [
          31.216086,
          30.031439
        ]
      },
      "type": "Feature",
      "properties": {
        "hierarchy": [
          "tgn:7530770",
          "tgn:7001242",
          "tgn:7016833",
          "tgn:1001083",
          "tgn:7029392"
        ],
        "placetype": [
          "aat:300004792"
        ],
        "name:en": "Egyptian General Survey Authority",
        "id": 7530770
      }
    },
    {
      "geometry": {
        "type": "Point",
        "coordinates": [
          31.217011,
          30.028689
        ]
      },
      "type": "Feature",
      "properties": {
        "hierarchy": [
          "tgn:7530771",
          "tgn:7001242",
          "tgn:7016833",
          "tgn:1001083",
          "tgn:7029392"
        ],
        "placetype": [
          "aat:300386970"
        ],
        "id": 7530771,
        "name:xx": "Ahlī Sawsitīyah, Bank al"
      }
    },
    {
      "geometry": {
        "type": "Point",
        "coordinates": [
          31.21588,
          30.030684
        ]
      },
      "type": "Feature",
      "properties": {
        "hierarchy": [
          "tgn:7530772",
          "tgn:7001242",
          "tgn:7016833",
          "tgn:1001083",
          "tgn:7029392"
        ],
        "placetype": [
          "aat:300386996"
        ],
        "name:en": "Security Department",
        "id": 7530772
      }
    },
    {
      "geometry": {
        "type": "Point",
        "coordinates": [
          31.213595,
          30.02928
        ]
      },
      "type": "Feature",
      "properties": {
        "hierarchy": [
          "tgn:7530773",
          "tgn:7001242",
          "tgn:7016833",
          "tgn:1001083",
          "tgn:7029392"
        ],
        "placetype": [
          "aat:300008187"
        ],
        "id": 7530773,
        "name:xx": "Ḩadīqat al Ūrmān"
      }
    },
    {
      "geometry": {
        "type": "Point",
        "coordinates": [
          31.212111,
          30.025748
        ]
      },
      "type": "Feature",
      "properties": {
        "hierarchy": [
          "tgn:7530774",
          "tgn:7001242",
          "tgn:7016833",
          "tgn:1001083",
          "tgn:7029392"
        ],
        "placetype": [
          "aat:300006610"
        ],
        "id": 7530774,
        "name:xx": "Kullīyat al Handasah"
      }
    },
    {
      "geometry": {
        "type": "Point",
        "coordinates": [
          31.217151,
          30.024251
        ]
      },
      "type": "Feature",
      "properties": {
        "hierarchy": [
          "tgn:7530775",
          "tgn:7001242",
          "tgn:7016833",
          "tgn:1001083",
          "tgn:7029392"
        ],
        "placetype": [
          "aat:300247594"
        ],
        "id": 7530775,
        "name:xx": "First Mawl"
      }
    },
    {
      "geometry": {
        "type": "Point",
        "coordinates": [
          31.217553,
          30.022133
        ]
      },
      "type": "Feature",
      "properties": {
        "hierarchy": [
          "tgn:7530776",
          "tgn:7001242",
          "tgn:7016833",
          "tgn:1001083",
          "tgn:7029392"
        ],
        "placetype": [
          "aat:300005768"
        ],
        "id": 7530776,
        "name:xx": "Mutḩaf Aḩmad Shawqī"
      }
    },
    {
      "geometry": {
        "type": "Point",
        "coordinates": [
          31.216944,
          30.021201
        ]
      },
      "type": "Feature",
      "properties": {
        "hierarchy": [
          "tgn:7530777",
          "tgn:7001242",
          "tgn:7016833",
          "tgn:1001083",
          "tgn:7029392"
        ],
        "placetype": [
          "aat:300004792"
        ],
        "id": 7530777,
        "name:xx": "Burj an Nīl"
      }
    },
    {
      "geometry": {
        "type": "Point",
        "coordinates": [
          31.214949,
          30.020709
        ]
      },
      "type": "Feature",
      "properties": {
        "hierarchy": [
          "tgn:7530778",
          "tgn:7001242",
          "tgn:7016833",
          "tgn:1001083",
          "tgn:7029392"
        ],
        "placetype": [
          "aat:300005768"
        ],
        "id": 7530778,
        "name:xx": "Mutḩaf al Ḩayawānāt"
      }
    },
    {
      "geometry": {
        "type": "Point",
        "coordinates": [
          31.203433,
          30.017093
        ]
      },
      "type": "Feature",
      "properties": {
        "hierarchy": [
          "tgn:7530779",
          "tgn:7001242",
          "tgn:7016833",
          "tgn:1001083",
          "tgn:7029392"
        ],
        "placetype": [
          "aat:300386996"
        ],
        "id": 7530779,
        "name:xx": "Idārat Kahrabā' al Jīzah"
      }
    }
  ]
}
