{
  "type": "FeatureCollection",
  "features": [
    {
      "geometry": {
        "type": "Point",
        "coordinates": [
          77.498653,
          28.780895
        ]
      },
      "type": "Feature",
      "properties": {
        "hierarchy": [
          "tgn:1076280",
          "tgn:1000004",
          "tgn:7000198",
          "tgn:7016722",
          "tgn:7029392"
        ],
        "placetype": [
          "aat:300008347"
        ],
        "name:en": "Murādnagar",
        "id": 1076280
      }
    },
    {
      "geometry": {
        "type": "Point",
        "coordinates": [
          88.39425,
          23.53631
        ]
      },
      "type": "Feature",
      "properties": {
        "hierarchy": [
          "tgn:1076281",
          "tgn:1000004",
          "tgn:7000198",
          "tgn:1001977",
          "tgn:7029392"
        ],
        "placetype": [
          "aat:300008347"
        ],
        "id": 1076281,
        "name:xx": "Murāgācha"
      }
    },
    {
      "geometry": {
        "type": "Point",
        "coordinates": [
          87.861242,
          24.439974
        ]
      },
      "type": "Feature",
      "properties": {
        "hierarchy": [
          "tgn:1076282",
          "tgn:1000004",
          "tgn:7000198",
          "tgn:1001977",
          "tgn:7029392"
        ],
        "placetype": [
          "aat:300008347"
        ],
        "name:en": "Murarai",
        "id": 1076282
      }
    },
    {
      "geometry": {
        "type": "Point",
        "coordinates": [
          88.442509,
          22.988643
        ]
      },
      "type": "Feature",
      "properties": {
        "hierarchy": [
          "tgn:1076283",
          "tgn:1000004",
          "tgn:7000198",
          "tgn:1001977",
          "tgn:7029392"
        ],
        "placetype": [
          "aat:300008347"
        ],
        "name:en": "Muratpur",
        "id": 1076283
      }
    },
    {
      "geometry": {
        "type": "Point",
        "coordinates": [
          95.228,
          27.825
        ]
      },
      "type": "Feature",
      "properties": {
        "hierarchy": [
          "tgn:1076284",
          "tgn:1000004",
          "tgn:1001832",
          "tgn:7000198",
          "tgn:7029392"
        ],
        "placetype": [
          "aat:300008347"
        ],
        "name:en": "Murkong Selek",
        "id": 1076284
      }
    },
    {
      "geometry": {
        "type": "Point",
        "coordinates": [
          86.995772,
          25.896904
        ]
      },
      "type": "Feature",
      "properties": {
        "hierarchy": [
          "tgn:1076285",
          "tgn:1000004",
          "tgn:1001842",
          "tgn:7000198",
          "tgn:7029392"
        ],
        "placetype": [
          "aat:300008347"
        ],
        "name:en": "Murlīganj",
        "id": 1076285
      }
    },
    {
      "geometry": {
        "type": "Point",
        "coordinates": [
          88.27171,
          24.183898
        ]
      },
      "type": "Feature",
      "properties": {
        "hierarchy": [
          "tgn:1076286",
          "tgn:1000004",
          "tgn:7000198",
          "tgn:1001977",
          "tgn:7029392"
        ],
        "placetype": [
          "aat:300008347"
        ],
        "id": 1076286,
        "name:xx": "Murshidabad"
      }
    },
    {
      "geometry": {
        "type": "Point",
        "coordinates": [
          77.367,
          20.732
        ]
      },
      "type": "Feature",
      "properties": {
        "hierarchy": [
          "tgn:1076287",
          "tgn:1000004",
          "tgn:7000198",
          "tgn:1001895",
          "tgn:7029392"
        ],
        "placetype": [
          "aat:300008347"
        ],
        "name:en": "Murtajāpur",
        "id": 1076287
      }
    },
    {
      "geometry": {
        "type": "Point",
        "coordinates": [
          72.965,
          18.325833
        ]
      },
      "type": "Feature",
      "properties": {
        "hierarchy": [
          "tgn:1076288",
          "tgn:1000004",
          "tgn:7000198",
          "tgn:1001895",
          "tgn:7029392"
        ],
        "placetype": [
          "aat:300008347"
        ],
        "name:en": "Murud",
        "id": 1076288
      }
    },
    {
      "geometry": {
        "type": "Point",
        "coordinates": [
          80.405394,
          23.839497
        ]
      },
      "type": "Feature",
      "properties": {
        "hierarchy": [
          "tgn:1076289",
          "tgn:1000004",
          "tgn:7000198",
          "tgn:1001894",
          "tgn:7029392"
        ],
        "placetype": [
          "aat:300008347"
        ],
        "id": 1076289,
        "name:xx": "Murwāra"
      }
    }
  ]
}
