{
  "type": "FeatureCollection",
  "features": [
    {
      "geometry": {
        "type": "Point",
        "coordinates": [
          77.026389,
          31.246944
        ]
      },
      "type": "Feature",
      "properties": {
        "hierarchy": [
          "tgn:7567420",
          "tgn:1000004",
          "tgn:7000198",
          "tgn:1001996",
          "tgn:7029392"
        ],
        "placetype": [
          "aat:300008863"
        ],
        "name:en": "Jain Protected Forest",
        "id": 7567420
      }
    },
    {
      "geometry": {
        "type": "Point",
        "coordinates": [
          77.030833,
          31.247222
        ]
      },
      "type": "Feature",
      "properties": {
        "hierarchy": [
          "tgn:7567421",
          "tgn:1000004",
          "tgn:7000198",
          "tgn:1001996",
          "tgn:7029392"
        ],
        "placetype": [
          "aat:300008347"
        ],
        "name:en": "Bīr ki Jāīn",
        "id": 7567421
      }
    },
    {
      "geometry": {
        "type": "Point",
        "coordinates": [
          77.013611,
          31.248889
        ]
      },
      "type": "Feature",
      "properties": {
        "hierarchy": [
          "tgn:7567422",
          "tgn:1000004",
          "tgn:7000198",
          "tgn:1001996",
          "tgn:7029392"
        ],
        "placetype": [
          "aat:300008347"
        ],
        "name:en": "Jūd",
        "id": 7567422
      }
    },
    {
      "geometry": {
        "type": "Point",
        "coordinates": [
          77.0025,
          31.249444
        ]
      },
      "type": "Feature",
      "properties": {
        "hierarchy": [
          "tgn:7567423",
          "tgn:1000004",
          "tgn:7000198",
          "tgn:1001996",
          "tgn:7029392"
        ],
        "placetype": [
          "aat:300008347"
        ],
        "name:en": "Pakāti",
        "id": 7567423
      }
    },
    {
      "geometry": {
        "type": "Point",
        "coordinates": [
          76.960112,
          28.58516
        ]
      },
      "type": "Feature",
      "properties": {
        "hierarchy": [
          "tgn:7567424",
          "tgn:1000004",
          "tgn:7000201",
          "tgn:7000198",
          "tgn:7029392"
        ],
        "placetype": [
          "aat:300008347"
        ],
        "name:en": "Kharkhari Nāhar",
        "id": 7567424
      }
    },
    {
      "geometry": {
        "type": "Point",
        "coordinates": [
          76.979789,
          28.588216
        ]
      },
      "type": "Feature",
      "properties": {
        "hierarchy": [
          "tgn:7567425",
          "tgn:1000004",
          "tgn:7000201",
          "tgn:7000198",
          "tgn:7029392"
        ],
        "placetype": [
          "aat:300008347"
        ],
        "name:en": "Paprāwat",
        "id": 7567425
      }
    },
    {
      "geometry": {
        "type": "Point",
        "coordinates": [
          76.969893,
          28.594211
        ]
      },
      "type": "Feature",
      "properties": {
        "hierarchy": [
          "tgn:7567427",
          "tgn:1000004",
          "tgn:7000201",
          "tgn:7000198",
          "tgn:7029392"
        ],
        "placetype": [
          "aat:300008347"
        ],
        "name:en": "Khaira",
        "id": 7567427
      }
    },
    {
      "geometry": {
        "type": "Point",
        "coordinates": [
          76.989181,
          28.600568
        ]
      },
      "type": "Feature",
      "properties": {
        "hierarchy": [
          "tgn:7567428",
          "tgn:1000004",
          "tgn:7000201",
          "tgn:7000198",
          "tgn:7029392"
        ],
        "placetype": [
          "aat:300008347"
        ],
        "name:en": "Roshanpura",
        "id": 7567428
      }
    },
    {
      "geometry": {
        "type": "Point",
        "coordinates": [
          76.990999,
          28.609578
        ]
      },
      "type": "Feature",
      "properties": {
        "hierarchy": [
          "tgn:7567429",
          "tgn:1000004",
          "tgn:7000201",
          "tgn:7000198",
          "tgn:7029392"
        ],
        "placetype": [
          "aat:300008347"
        ],
        "name:en": "Roshanpura",
        "id": 7567429
      }
    }
  ]
}
