{
  "type": "FeatureCollection",
  "features": [
    {
      "geometry": {
        "type": "Point",
        "coordinates": [
          33.070833,
          29.712222
        ]
      },
      "type": "Feature",
      "properties": {
        "hierarchy": [
          "tgn:7543670",
          "tgn:7001242",
          "tgn:7016833",
          "tgn:7001336",
          "tgn:7029392"
        ],
        "placetype": [
          "aat:300379998"
        ],
        "id": 7543670,
        "name:xx": "Dalbahīah, Wādī ad"
      }
    },
    {
      "geometry": {
        "type": "Point",
        "coordinates": [
          33.261944,
          29.8275
        ]
      },
      "type": "Feature",
      "properties": {
        "hierarchy": [
          "tgn:7543671",
          "tgn:7001242",
          "tgn:7016833",
          "tgn:7001336",
          "tgn:7029392"
        ],
        "placetype": [
          "aat:300000626"
        ],
        "id": 7543671,
        "name:xx": "Darb ash Sh'wī"
      }
    },
    {
      "geometry": {
        "type": "Point",
        "coordinates": [
          33.255833,
          29.836389
        ]
      },
      "type": "Feature",
      "properties": {
        "hierarchy": [
          "tgn:7543672",
          "tgn:7001242",
          "tgn:7016833",
          "tgn:7001336",
          "tgn:7029392"
        ],
        "placetype": [
          "aat:300000626"
        ],
        "id": 7543672,
        "name:xx": "Darb al Khūtlīah"
      }
    },
    {
      "geometry": {
        "type": "Point",
        "coordinates": [
          33.101667,
          29.817222
        ]
      },
      "type": "Feature",
      "properties": {
        "hierarchy": [
          "tgn:7543673",
          "tgn:7001242",
          "tgn:7016833",
          "tgn:7001336",
          "tgn:7029392"
        ],
        "placetype": [
          "aat:300379998"
        ],
        "id": 7543673,
        "name:xx": "Tīsār al Māliḩ, Wādī"
      }
    },
    {
      "geometry": {
        "type": "Point",
        "coordinates": [
          33.004722,
          29.898611
        ]
      },
      "type": "Feature",
      "properties": {
        "hierarchy": [
          "tgn:7543674",
          "tgn:7001242",
          "tgn:7016833",
          "tgn:7001336",
          "tgn:7029392"
        ],
        "placetype": [
          "aat:300379998"
        ],
        "id": 7543674,
        "name:xx": "Rāḩah, Wādī ar"
      }
    },
    {
      "geometry": {
        "type": "Point",
        "coordinates": [
          33.744722,
          29.726111
        ]
      },
      "type": "Feature",
      "properties": {
        "hierarchy": [
          "tgn:7543675",
          "tgn:7001242",
          "tgn:7016833",
          "tgn:7001336",
          "tgn:7029392"
        ],
        "placetype": [
          "aat:300379998"
        ],
        "id": 7543675,
        "name:xx": "Ḩamārah, Rawḑ al"
      }
    },
    {
      "geometry": {
        "type": "Point",
        "coordinates": [
          33.933949,
          29.58626
        ]
      },
      "type": "Feature",
      "properties": {
        "hierarchy": [
          "tgn:7543676",
          "tgn:7001242",
          "tgn:7016833",
          "tgn:7001336",
          "tgn:7029392"
        ],
        "placetype": [
          "aat:300008795"
        ],
        "id": 7543676,
        "name:xx": "Rukhaymāt al Ghabīyah"
      }
    },
    {
      "geometry": {
        "type": "Point",
        "coordinates": [
          33.973889,
          29.593611
        ]
      },
      "type": "Feature",
      "properties": {
        "hierarchy": [
          "tgn:7543677",
          "tgn:7001242",
          "tgn:7016833",
          "tgn:7001336",
          "tgn:7029392"
        ],
        "placetype": [
          "aat:300055621"
        ],
        "id": 7543677,
        "name:xx": "Ţalḩah"
      }
    },
    {
      "geometry": {
        "type": "Point",
        "coordinates": [
          33.992222,
          29.551667
        ]
      },
      "type": "Feature",
      "properties": {
        "hierarchy": [
          "tgn:7543678",
          "tgn:7001242",
          "tgn:7016833",
          "tgn:7001336",
          "tgn:7029392"
        ],
        "placetype": [
          "aat:300379998"
        ],
        "id": 7543678,
        "name:xx": "Jinīyah, Wādī al"
      }
    },
    {
      "geometry": {
        "type": "Point",
        "coordinates": [
          33.860278,
          29.795556
        ]
      },
      "type": "Feature",
      "properties": {
        "hierarchy": [
          "tgn:7543679",
          "tgn:7001242",
          "tgn:7016833",
          "tgn:7001336",
          "tgn:7029392"
        ],
        "placetype": [
          "aat:300379998"
        ],
        "id": 7543679,
        "name:xx": "Khādim, Rawḑ al"
      }
    }
  ]
}
