{
  "type": "FeatureCollection",
  "features": [
    {
      "geometry": {
        "type": "Point",
        "coordinates": [
          -13.9167,
          17.0333
        ]
      },
      "type": "Feature",
      "properties": {
        "hierarchy": [
          "tgn:1091281",
          "tgn:7001242",
          "tgn:1001639",
          "tgn:1000176",
          "tgn:7029392"
        ],
        "placetype": [
          "aat:300008347",
          "aat:300387220",
          "aat:300008375"
        ],
        "id": 1091281,
        "name:xx": "Aleg"
      }
    },
    {
      "geometry": {
        "type": "Point",
        "coordinates": [
          -12.2667,
          15.6333
        ]
      },
      "type": "Feature",
      "properties": {
        "hierarchy": [
          "tgn:1091282",
          "tgn:7001242",
          "tgn:1001679",
          "tgn:1000176",
          "tgn:7029392"
        ],
        "placetype": [
          "aat:300008347"
        ],
        "id": 1091282,
        "name:xx": "Artémou"
      }
    },
    {
      "geometry": {
        "type": "Point",
        "coordinates": [
          -13.1333,
          20.5333
        ]
      },
      "type": "Feature",
      "properties": {
        "hierarchy": [
          "tgn:1091283",
          "tgn:1001621",
          "tgn:7001242",
          "tgn:1000176",
          "tgn:7029392"
        ],
        "placetype": [
          "aat:300008347",
          "aat:300387220",
          "aat:300008375"
        ],
        "id": 1091283,
        "name:xx": "Atar"
      }
    },
    {
      "geometry": {
        "type": "Point",
        "coordinates": [
          -11.5833,
          25.1667
        ]
      },
      "type": "Feature",
      "properties": {
        "hierarchy": [
          "tgn:1091284",
          "tgn:7001242",
          "tgn:1001758",
          "tgn:1000176",
          "tgn:7029392"
        ],
        "placetype": [
          "aat:300008347"
        ],
        "id": 1091284,
        "name:xx": "Bir Moghrein"
      }
    },
    {
      "geometry": {
        "type": "Point",
        "coordinates": [
          -11.85,
          15.05
        ]
      },
      "type": "Feature",
      "properties": {
        "hierarchy": [
          "tgn:1091285",
          "tgn:7001242",
          "tgn:1001679",
          "tgn:1000176",
          "tgn:7029392"
        ],
        "placetype": [
          "aat:300008347"
        ],
        "id": 1091285,
        "name:xx": "Baediam"
      }
    },
    {
      "geometry": {
        "type": "Point",
        "coordinates": [
          -5.9833,
          15.9167
        ]
      },
      "type": "Feature",
      "properties": {
        "hierarchy": [
          "tgn:1091286",
          "tgn:7001242",
          "tgn:1001682",
          "tgn:1000176",
          "tgn:7029392"
        ],
        "placetype": [
          "aat:300008347"
        ],
        "id": 1091286,
        "name:xx": "Bassikounou"
      }
    },
    {
      "geometry": {
        "type": "Point",
        "coordinates": [
          -9.8333,
          17.4333
        ]
      },
      "type": "Feature",
      "properties": {
        "hierarchy": [
          "tgn:1091287",
          "tgn:7001242",
          "tgn:1001665",
          "tgn:1000176",
          "tgn:7029392"
        ],
        "placetype": [
          "aat:300008347"
        ],
        "id": 1091287,
        "name:xx": "Boûmdeïd"
      }
    },
    {
      "geometry": {
        "type": "Point",
        "coordinates": [
          -14.2833,
          16.5167
        ]
      },
      "type": "Feature",
      "properties": {
        "hierarchy": [
          "tgn:1091288",
          "tgn:7001242",
          "tgn:1001639",
          "tgn:1000176",
          "tgn:7029392"
        ],
        "placetype": [
          "aat:300008347"
        ],
        "id": 1091288,
        "name:xx": "Bogué"
      }
    },
    {
      "geometry": {
        "type": "Point",
        "coordinates": [
          -11.6667,
          15.3667
        ]
      },
      "type": "Feature",
      "properties": {
        "hierarchy": [
          "tgn:1091289",
          "tgn:7001242",
          "tgn:1001679",
          "tgn:1000176",
          "tgn:7029392"
        ],
        "placetype": [
          "aat:300008347"
        ],
        "id": 1091289,
        "name:xx": "Bouly"
      }
    }
  ]
}
