{
  "type": "FeatureCollection",
  "features": [
    {
      "geometry": {
        "type": "Point",
        "coordinates": [
          74.934071,
          29.498157
        ]
      },
      "type": "Feature",
      "properties": {
        "hierarchy": [
          "tgn:7578501",
          "tgn:1000004",
          "tgn:1001871",
          "tgn:7000198",
          "tgn:7029392"
        ],
        "placetype": [
          "aat:300006075"
        ],
        "name:en": "Sirsa Branch",
        "id": 7578501
      }
    },
    {
      "geometry": {
        "type": "Point",
        "coordinates": [
          82.091431,
          25.261772
        ]
      },
      "type": "Feature",
      "properties": {
        "hierarchy": [
          "tgn:7578503",
          "tgn:1000004",
          "tgn:7000198",
          "tgn:7016722",
          "tgn:7029392"
        ],
        "placetype": [
          "aat:300008347"
        ],
        "name:en": "Sirsa",
        "id": 7578503
      }
    },
    {
      "geometry": {
        "type": "Point",
        "coordinates": [
          79.95,
          18.933333
        ]
      },
      "type": "Feature",
      "properties": {
        "hierarchy": [
          "tgn:7578505",
          "tgn:1001828",
          "tgn:1000004",
          "tgn:7000198",
          "tgn:7029392"
        ],
        "placetype": [
          "aat:300008347"
        ],
        "name:en": "Sirsa",
        "id": 7578505
      }
    },
    {
      "geometry": {
        "type": "Point",
        "coordinates": [
          81.722852,
          20.948954
        ]
      },
      "type": "Feature",
      "properties": {
        "hierarchy": [
          "tgn:7578507",
          "tgn:1000004",
          "tgn:7031781",
          "tgn:7000198",
          "tgn:7029392"
        ],
        "placetype": [
          "aat:300007783"
        ],
        "name:en": "Sirri",
        "id": 7578507
      }
    },
    {
      "geometry": {
        "type": "Point",
        "coordinates": [
          80.566667,
          18.483333
        ]
      },
      "type": "Feature",
      "properties": {
        "hierarchy": [
          "tgn:7578508",
          "tgn:1001828",
          "tgn:1000004",
          "tgn:7000198",
          "tgn:7029392"
        ],
        "placetype": [
          "aat:300008347"
        ],
        "name:en": "SÄ«rpuram",
        "id": 7578508
      }
    },
    {
      "geometry": {
        "type": "Point",
        "coordinates": [
          82.18245,
          21.347706
        ]
      },
      "type": "Feature",
      "properties": {
        "hierarchy": [
          "tgn:7578509",
          "tgn:1000004",
          "tgn:7031781",
          "tgn:7000198",
          "tgn:7029392"
        ],
        "placetype": [
          "aat:300008347"
        ],
        "name:en": "Sirpur",
        "id": 7578509
      }
    }
  ]
}
