{
  "type": "FeatureCollection",
  "features": [
    {
      "geometry": {
        "type": "Point",
        "coordinates": [
          76.23481,
          32.468891
        ]
      },
      "type": "Feature",
      "properties": {
        "hierarchy": [
          "tgn:7556470",
          "tgn:1000004",
          "tgn:7000198",
          "tgn:1001996",
          "tgn:7029392"
        ],
        "placetype": [
          "aat:300008347"
        ],
        "name:en": "Rākh",
        "id": 7556470
      }
    },
    {
      "geometry": {
        "type": "Point",
        "coordinates": [
          80.908434,
          28.21582
        ]
      },
      "type": "Feature",
      "properties": {
        "hierarchy": [
          "tgn:7556471",
          "tgn:1000004",
          "tgn:7000198",
          "tgn:7016722",
          "tgn:7029392"
        ],
        "placetype": [
          "aat:300008347"
        ],
        "name:en": "Rakehti",
        "id": 7556471
      }
    },
    {
      "geometry": {
        "type": "Point",
        "coordinates": [
          83.130949,
          25.498127
        ]
      },
      "type": "Feature",
      "properties": {
        "hierarchy": [
          "tgn:7556472",
          "tgn:1000004",
          "tgn:7000198",
          "tgn:7016722",
          "tgn:7029392"
        ],
        "placetype": [
          "aat:300007783"
        ],
        "name:en": "Rajwāri",
        "id": 7556472
      }
    },
    {
      "geometry": {
        "type": "Point",
        "coordinates": [
          86.716667,
          24.716667
        ]
      },
      "type": "Feature",
      "properties": {
        "hierarchy": [
          "tgn:7556473",
          "tgn:1000004",
          "tgn:1001842",
          "tgn:7000198",
          "tgn:7029392"
        ],
        "placetype": [
          "aat:300008347"
        ],
        "name:en": "Rajwāra",
        "id": 7556473
      }
    },
    {
      "geometry": {
        "type": "Point",
        "coordinates": [
          75.199562,
          20.965853
        ]
      },
      "type": "Feature",
      "properties": {
        "hierarchy": [
          "tgn:7556474",
          "tgn:1000004",
          "tgn:7000198",
          "tgn:1001895",
          "tgn:7029392"
        ],
        "placetype": [
          "aat:300008347"
        ],
        "name:en": "Rajvad",
        "id": 7556474
      }
    },
    {
      "geometry": {
        "type": "Point",
        "coordinates": [
          78.416667,
          20.083333
        ]
      },
      "type": "Feature",
      "properties": {
        "hierarchy": [
          "tgn:7556475",
          "tgn:1000004",
          "tgn:7000198",
          "tgn:1001895",
          "tgn:7029392"
        ],
        "placetype": [
          "aat:300008347"
        ],
        "name:en": "Rājurwādi",
        "id": 7556475
      }
    },
    {
      "geometry": {
        "type": "Point",
        "coordinates": [
          77.483333,
          18.533333
        ]
      },
      "type": "Feature",
      "properties": {
        "hierarchy": [
          "tgn:7556476",
          "tgn:1000004",
          "tgn:7000198",
          "tgn:1001895",
          "tgn:7029392"
        ],
        "placetype": [
          "aat:300008347"
        ],
        "name:en": "Rājur Khurd",
        "id": 7556476
      }
    },
    {
      "geometry": {
        "type": "Point",
        "coordinates": [
          75.37251,
          18.68432
        ]
      },
      "type": "Feature",
      "properties": {
        "hierarchy": [
          "tgn:7556477",
          "tgn:1000004",
          "tgn:7000198",
          "tgn:1001895",
          "tgn:7029392"
        ],
        "placetype": [
          "aat:300008347"
        ],
        "name:en": "Rājuri",
        "id": 7556477
      }
    },
    {
      "geometry": {
        "type": "Point",
        "coordinates": [
          75.000331,
          18.335958
        ]
      },
      "type": "Feature",
      "properties": {
        "hierarchy": [
          "tgn:7556478",
          "tgn:1000004",
          "tgn:7000198",
          "tgn:1001895",
          "tgn:7029392"
        ],
        "placetype": [
          "aat:300008347"
        ],
        "name:en": "Rājuri",
        "id": 7556478
      }
    },
    {
      "geometry": {
        "type": "Point",
        "coordinates": [
          79.366667,
          19.783333
        ]
      },
      "type": "Feature",
      "properties": {
        "hierarchy": [
          "tgn:7556479",
          "tgn:1000004",
          "tgn:7000198",
          "tgn:1001895",
          "tgn:7029392"
        ],
        "placetype": [
          "aat:300008347"
        ],
        "name:en": "Rājūra",
        "id": 7556479
      }
    }
  ]
}
