{
  "type": "FeatureCollection",
  "features": [
    {
      "geometry": {
        "type": "Point",
        "coordinates": [
          77.065278,
          31.134444
        ]
      },
      "type": "Feature",
      "properties": {
        "hierarchy": [
          "tgn:7569020",
          "tgn:1000004",
          "tgn:7000198",
          "tgn:1001996",
          "tgn:7029392"
        ],
        "placetype": [
          "aat:300008347"
        ],
        "name:en": "Korhech",
        "id": 7569020
      }
    },
    {
      "geometry": {
        "type": "Point",
        "coordinates": [
          77.06,
          31.134167
        ]
      },
      "type": "Feature",
      "properties": {
        "hierarchy": [
          "tgn:7569021",
          "tgn:1000004",
          "tgn:7000198",
          "tgn:1001996",
          "tgn:7029392"
        ],
        "placetype": [
          "aat:300008347"
        ],
        "name:en": "Panjauti",
        "id": 7569021
      }
    },
    {
      "geometry": {
        "type": "Point",
        "coordinates": [
          77.044313,
          31.134495
        ]
      },
      "type": "Feature",
      "properties": {
        "hierarchy": [
          "tgn:7569022",
          "tgn:1000004",
          "tgn:7000198",
          "tgn:1001996",
          "tgn:7029392"
        ],
        "placetype": [
          "aat:300008347"
        ],
        "name:en": "K훮lihatti",
        "id": 7569022
      }
    },
    {
      "geometry": {
        "type": "Point",
        "coordinates": [
          77.051389,
          31.140278
        ]
      },
      "type": "Feature",
      "properties": {
        "hierarchy": [
          "tgn:7569023",
          "tgn:1000004",
          "tgn:7000198",
          "tgn:1001996",
          "tgn:7029392"
        ],
        "placetype": [
          "aat:300008347"
        ],
        "name:en": "Shakr훮h",
        "id": 7569023
      }
    },
    {
      "geometry": {
        "type": "Point",
        "coordinates": [
          77.06,
          31.138611
        ]
      },
      "type": "Feature",
      "properties": {
        "hierarchy": [
          "tgn:7569024",
          "tgn:1000004",
          "tgn:7000198",
          "tgn:1001996",
          "tgn:7029392"
        ],
        "placetype": [
          "aat:300008347"
        ],
        "name:en": "Char큰na",
        "id": 7569024
      }
    },
    {
      "geometry": {
        "type": "Point",
        "coordinates": [
          77.070833,
          31.139722
        ]
      },
      "type": "Feature",
      "properties": {
        "hierarchy": [
          "tgn:7569025",
          "tgn:1000004",
          "tgn:7000198",
          "tgn:1001996",
          "tgn:7029392"
        ],
        "placetype": [
          "aat:300008863"
        ],
        "name:en": "Manghech Protected Forest",
        "id": 7569025
      }
    },
    {
      "geometry": {
        "type": "Point",
        "coordinates": [
          77.077778,
          31.143056
        ]
      },
      "type": "Feature",
      "properties": {
        "hierarchy": [
          "tgn:7569026",
          "tgn:1000004",
          "tgn:7000198",
          "tgn:1001996",
          "tgn:7029392"
        ],
        "placetype": [
          "aat:300008863"
        ],
        "name:en": "Panhech Protected Forest",
        "id": 7569026
      }
    },
    {
      "geometry": {
        "type": "Point",
        "coordinates": [
          77.069444,
          31.1425
        ]
      },
      "type": "Feature",
      "properties": {
        "hierarchy": [
          "tgn:7569027",
          "tgn:1000004",
          "tgn:7000198",
          "tgn:1001996",
          "tgn:7029392"
        ],
        "placetype": [
          "aat:300008347"
        ],
        "name:en": "Manghech",
        "id": 7569027
      }
    },
    {
      "geometry": {
        "type": "Point",
        "coordinates": [
          77.063333,
          31.140833
        ]
      },
      "type": "Feature",
      "properties": {
        "hierarchy": [
          "tgn:7569028",
          "tgn:1000004",
          "tgn:7000198",
          "tgn:1001996",
          "tgn:7029392"
        ],
        "placetype": [
          "aat:300008347"
        ],
        "name:en": "Bal훮hu",
        "id": 7569028
      }
    },
    {
      "geometry": {
        "type": "Point",
        "coordinates": [
          77.054167,
          31.141667
        ]
      },
      "type": "Feature",
      "properties": {
        "hierarchy": [
          "tgn:7569029",
          "tgn:1000004",
          "tgn:7000198",
          "tgn:1001996",
          "tgn:7029392"
        ],
        "placetype": [
          "aat:300008863"
        ],
        "name:en": "Chaunri Protected Forest",
        "id": 7569029
      }
    }
  ]
}
