{
  "type": "FeatureCollection",
  "features": [
    {
      "geometry": {
        "type": "Point",
        "coordinates": [
          85.176113,
          20.404708
        ]
      },
      "type": "Feature",
      "properties": {
        "hierarchy": [
          "tgn:7577220",
          "tgn:1000004",
          "tgn:7000198",
          "tgn:7016694",
          "tgn:7029392"
        ],
        "placetype": [
          "aat:300008347"
        ],
        "name:en": "Kānpur",
        "id": 7577220
      }
    },
    {
      "geometry": {
        "type": "Point",
        "coordinates": [
          71.05,
          21.966667
        ]
      },
      "type": "Feature",
      "properties": {
        "hierarchy": [
          "tgn:7577222",
          "tgn:1000004",
          "tgn:1001869",
          "tgn:7000198",
          "tgn:7029392"
        ],
        "placetype": [
          "aat:300008347"
        ],
        "name:en": "Kānpar",
        "id": 7577222
      }
    },
    {
      "geometry": {
        "type": "Point",
        "coordinates": [
          79.583333,
          20.666667
        ]
      },
      "type": "Feature",
      "properties": {
        "hierarchy": [
          "tgn:7577223",
          "tgn:1000004",
          "tgn:7000198",
          "tgn:1001895",
          "tgn:7029392"
        ],
        "placetype": [
          "aat:300008347"
        ],
        "name:en": "Kānpa",
        "id": 7577223
      }
    },
    {
      "geometry": {
        "type": "Point",
        "coordinates": [
          75.947199,
          26.870405
        ]
      },
      "type": "Feature",
      "properties": {
        "hierarchy": [
          "tgn:7577224",
          "tgn:1000004",
          "tgn:7000198",
          "tgn:7016788",
          "tgn:7029392"
        ],
        "placetype": [
          "aat:300008347"
        ],
        "name:en": "Kānauta",
        "id": 7577224
      }
    },
    {
      "geometry": {
        "type": "Point",
        "coordinates": [
          74.26546,
          24.434374
        ]
      },
      "type": "Feature",
      "properties": {
        "hierarchy": [
          "tgn:7577225",
          "tgn:1000004",
          "tgn:7000198",
          "tgn:7016788",
          "tgn:7029392"
        ],
        "placetype": [
          "aat:300008347"
        ],
        "name:en": "Kānor",
        "id": 7577225
      }
    },
    {
      "geometry": {
        "type": "Point",
        "coordinates": [
          79.593378,
          30.259385
        ]
      },
      "type": "Feature",
      "properties": {
        "hierarchy": [
          "tgn:7577226",
          "tgn:1000004",
          "tgn:7000198",
          "tgn:7031786",
          "tgn:7029392"
        ],
        "placetype": [
          "aat:300008347"
        ],
        "name:en": "Kanol",
        "id": 7577226
      }
    },
    {
      "geometry": {
        "type": "Point",
        "coordinates": [
          71.158551,
          27.158404
        ]
      },
      "type": "Feature",
      "properties": {
        "hierarchy": [
          "tgn:7577227",
          "tgn:1000004",
          "tgn:7000198",
          "tgn:7016788",
          "tgn:7029392"
        ],
        "placetype": [
          "aat:300387087"
        ],
        "name:en": "Kānodwāla Rann",
        "id": 7577227
      }
    },
    {
      "geometry": {
        "type": "Point",
        "coordinates": [
          72.393715,
          24.089276
        ]
      },
      "type": "Feature",
      "properties": {
        "hierarchy": [
          "tgn:7577228",
          "tgn:1000004",
          "tgn:1001869",
          "tgn:7000198",
          "tgn:7029392"
        ],
        "placetype": [
          "aat:300008347"
        ],
        "name:en": "Kanodar",
        "id": 7577228
      }
    },
    {
      "geometry": {
        "type": "Point",
        "coordinates": [
          71.109367,
          27.124727
        ]
      },
      "type": "Feature",
      "properties": {
        "hierarchy": [
          "tgn:7577229",
          "tgn:1000004",
          "tgn:7000198",
          "tgn:7016788",
          "tgn:7029392"
        ],
        "placetype": [
          "aat:300008347"
        ],
        "name:en": "Kānod",
        "id": 7577229
      }
    }
  ]
}
