{
  "type": "FeatureCollection",
  "features": [
    {
      "geometry": {
        "type": "Point",
        "coordinates": [
          78.51607,
          29.882217
        ]
      },
      "type": "Feature",
      "properties": {
        "hierarchy": [
          "tgn:7570440",
          "tgn:1000004",
          "tgn:7000198",
          "tgn:7031786",
          "tgn:7029392"
        ],
        "placetype": [
          "aat:300008347"
        ],
        "name:en": "Gūm",
        "id": 7570440
      }
    },
    {
      "geometry": {
        "type": "Point",
        "coordinates": [
          78.5131,
          29.889733
        ]
      },
      "type": "Feature",
      "properties": {
        "hierarchy": [
          "tgn:7570441",
          "tgn:1000004",
          "tgn:7000198",
          "tgn:7031786",
          "tgn:7029392"
        ],
        "placetype": [
          "aat:300008347"
        ],
        "name:en": "Diula",
        "id": 7570441
      }
    },
    {
      "geometry": {
        "type": "Point",
        "coordinates": [
          78.505064,
          29.88005
        ]
      },
      "type": "Feature",
      "properties": {
        "hierarchy": [
          "tgn:7570442",
          "tgn:1000004",
          "tgn:7000198",
          "tgn:7031786",
          "tgn:7029392"
        ],
        "placetype": [
          "aat:300008347"
        ],
        "name:en": "Pathur",
        "id": 7570442
      }
    },
    {
      "geometry": {
        "type": "Point",
        "coordinates": [
          78.498704,
          29.881379
        ]
      },
      "type": "Feature",
      "properties": {
        "hierarchy": [
          "tgn:7570443",
          "tgn:1000004",
          "tgn:7000198",
          "tgn:7031786",
          "tgn:7029392"
        ],
        "placetype": [
          "aat:300008347"
        ],
        "name:en": "Dāngu",
        "id": 7570443
      }
    },
    {
      "geometry": {
        "type": "Point",
        "coordinates": [
          78.741865,
          29.893578
        ]
      },
      "type": "Feature",
      "properties": {
        "hierarchy": [
          "tgn:7570444",
          "tgn:1000004",
          "tgn:7000198",
          "tgn:7031786",
          "tgn:7029392"
        ],
        "placetype": [
          "aat:300008347"
        ],
        "name:en": "Khairāsain",
        "id": 7570444
      }
    },
    {
      "geometry": {
        "type": "Point",
        "coordinates": [
          78.731807,
          29.89182
        ]
      },
      "type": "Feature",
      "properties": {
        "hierarchy": [
          "tgn:7570445",
          "tgn:1000004",
          "tgn:7000198",
          "tgn:7031786",
          "tgn:7029392"
        ],
        "placetype": [
          "aat:300008347"
        ],
        "name:en": "Khaira",
        "id": 7570445
      }
    },
    {
      "geometry": {
        "type": "Point",
        "coordinates": [
          78.721025,
          29.899415
        ]
      },
      "type": "Feature",
      "properties": {
        "hierarchy": [
          "tgn:7570446",
          "tgn:1000004",
          "tgn:7000198",
          "tgn:7031786",
          "tgn:7029392"
        ],
        "placetype": [
          "aat:300008347"
        ],
        "name:en": "Hāndul",
        "id": 7570446
      }
    },
    {
      "geometry": {
        "type": "Point",
        "coordinates": [
          78.701555,
          29.896743
        ]
      },
      "type": "Feature",
      "properties": {
        "hierarchy": [
          "tgn:7570447",
          "tgn:1000004",
          "tgn:7000198",
          "tgn:7031786",
          "tgn:7029392"
        ],
        "placetype": [
          "aat:300008347"
        ],
        "name:en": "Gadkot",
        "id": 7570447
      }
    },
    {
      "geometry": {
        "type": "Point",
        "coordinates": [
          78.688745,
          29.893481
        ]
      },
      "type": "Feature",
      "properties": {
        "hierarchy": [
          "tgn:7570448",
          "tgn:1000004",
          "tgn:7000198",
          "tgn:7031786",
          "tgn:7029392"
        ],
        "placetype": [
          "aat:300008347"
        ],
        "name:en": "Dyūdāli",
        "id": 7570448
      }
    },
    {
      "geometry": {
        "type": "Point",
        "coordinates": [
          78.676105,
          29.898982
        ]
      },
      "type": "Feature",
      "properties": {
        "hierarchy": [
          "tgn:7570449",
          "tgn:1000004",
          "tgn:7000198",
          "tgn:7031786",
          "tgn:7029392"
        ],
        "placetype": [
          "aat:300008347"
        ],
        "name:en": "Syulia",
        "id": 7570449
      }
    }
  ]
}
