{
  "type": "FeatureCollection",
  "features": [
    {
      "geometry": {
        "type": "Point",
        "coordinates": [
          79.019391,
          26.84203
        ]
      },
      "type": "Feature",
      "properties": {
        "hierarchy": [
          "tgn:7560220",
          "tgn:1000004",
          "tgn:7000198",
          "tgn:7016722",
          "tgn:7029392"
        ],
        "placetype": [
          "aat:300008347"
        ],
        "name:en": "Umrāi",
        "id": 7560220
      }
    },
    {
      "geometry": {
        "type": "Point",
        "coordinates": [
          79.009789,
          26.844857
        ]
      },
      "type": "Feature",
      "properties": {
        "hierarchy": [
          "tgn:7560221",
          "tgn:1000004",
          "tgn:7000198",
          "tgn:7016722",
          "tgn:7029392"
        ],
        "placetype": [
          "aat:300008347"
        ],
        "name:en": "Jaitia",
        "id": 7560221
      }
    },
    {
      "geometry": {
        "type": "Point",
        "coordinates": [
          79.612096,
          27.633757
        ]
      },
      "type": "Feature",
      "properties": {
        "hierarchy": [
          "tgn:7560222",
          "tgn:1000004",
          "tgn:7000198",
          "tgn:7016722",
          "tgn:7029392"
        ],
        "placetype": [
          "aat:300008347"
        ],
        "name:en": "Budhaura",
        "id": 7560222
      }
    },
    {
      "geometry": {
        "type": "Point",
        "coordinates": [
          79.585855,
          27.626834
        ]
      },
      "type": "Feature",
      "properties": {
        "hierarchy": [
          "tgn:7560223",
          "tgn:1000004",
          "tgn:7000198",
          "tgn:7016722",
          "tgn:7029392"
        ],
        "placetype": [
          "aat:300008347"
        ],
        "name:en": "Khagia",
        "id": 7560223
      }
    },
    {
      "geometry": {
        "type": "Point",
        "coordinates": [
          79.600523,
          27.631359
        ]
      },
      "type": "Feature",
      "properties": {
        "hierarchy": [
          "tgn:7560224",
          "tgn:1000004",
          "tgn:7000198",
          "tgn:7016722",
          "tgn:7029392"
        ],
        "placetype": [
          "aat:300008347"
        ],
        "name:en": "Singha",
        "id": 7560224
      }
    },
    {
      "geometry": {
        "type": "Point",
        "coordinates": [
          79.594041,
          27.634637
        ]
      },
      "type": "Feature",
      "properties": {
        "hierarchy": [
          "tgn:7560225",
          "tgn:1000004",
          "tgn:7000198",
          "tgn:7016722",
          "tgn:7029392"
        ],
        "placetype": [
          "aat:300008347"
        ],
        "name:en": "Pulchand",
        "id": 7560225
      }
    },
    {
      "geometry": {
        "type": "Point",
        "coordinates": [
          79.577876,
          27.634201
        ]
      },
      "type": "Feature",
      "properties": {
        "hierarchy": [
          "tgn:7560226",
          "tgn:1000004",
          "tgn:7000198",
          "tgn:7016722",
          "tgn:7029392"
        ],
        "placetype": [
          "aat:300008347"
        ],
        "name:en": "Saria Khurd",
        "id": 7560226
      }
    },
    {
      "geometry": {
        "type": "Point",
        "coordinates": [
          79.582283,
          27.635387
        ]
      },
      "type": "Feature",
      "properties": {
        "hierarchy": [
          "tgn:7560227",
          "tgn:1000004",
          "tgn:7000198",
          "tgn:7016722",
          "tgn:7029392"
        ],
        "placetype": [
          "aat:300008347"
        ],
        "name:en": "Saria Kalān",
        "id": 7560227
      }
    },
    {
      "geometry": {
        "type": "Point",
        "coordinates": [
          79.590684,
          27.665599
        ]
      },
      "type": "Feature",
      "properties": {
        "hierarchy": [
          "tgn:7560228",
          "tgn:1000004",
          "tgn:7000198",
          "tgn:7016722",
          "tgn:7029392"
        ],
        "placetype": [
          "aat:300008347"
        ],
        "name:en": "Zarainpur",
        "id": 7560228
      }
    },
    {
      "geometry": {
        "type": "Point",
        "coordinates": [
          79.601618,
          27.657628
        ]
      },
      "type": "Feature",
      "properties": {
        "hierarchy": [
          "tgn:7560229",
          "tgn:1000004",
          "tgn:7000198",
          "tgn:7016722",
          "tgn:7029392"
        ],
        "placetype": [
          "aat:300008347"
        ],
        "name:en": "Bhura",
        "id": 7560229
      }
    }
  ]
}
