{
  "type": "FeatureCollection",
  "features": [
    {
      "geometry": {
        "type": "Point",
        "coordinates": [
          -99.133333,
          21.152778
        ]
      },
      "type": "Feature",
      "properties": {
        "hierarchy": [
          "tgn:7399790",
          "tgn:1000001",
          "tgn:7005593",
          "tgn:7005560",
          "tgn:7029392"
        ],
        "placetype": [
          "aat:300008699"
        ],
        "id": 7399790,
        "name:xx": "Moctezuma, Río"
      }
    },
    {
      "geometry": {
        "type": "Point",
        "coordinates": [
          -99.183333,
          21.233333
        ]
      },
      "type": "Feature",
      "properties": {
        "hierarchy": [
          "tgn:7399791",
          "tgn:1000001",
          "tgn:7005593",
          "tgn:7005560",
          "tgn:7029392"
        ],
        "placetype": [
          "aat:300266554",
          "aat:300008699"
        ],
        "id": 7399791,
        "name:xx": "Acatitlán, Cañada"
      }
    },
    {
      "geometry": {
        "type": "Point",
        "coordinates": [
          -99.122222,
          21.177778
        ]
      },
      "type": "Feature",
      "properties": {
        "hierarchy": [
          "tgn:7399792",
          "tgn:1000001",
          "tgn:7005593",
          "tgn:7005560",
          "tgn:7029392"
        ],
        "placetype": [
          "aat:300008347"
        ],
        "id": 7399792,
        "name:xx": "Santa Inés"
      }
    },
    {
      "geometry": {
        "type": "Point",
        "coordinates": [
          -99.101389,
          21.156944
        ]
      },
      "type": "Feature",
      "properties": {
        "hierarchy": [
          "tgn:7399793",
          "tgn:1000001",
          "tgn:7005593",
          "tgn:7005560",
          "tgn:7029392"
        ],
        "placetype": [
          "aat:300008699"
        ],
        "id": 7399793,
        "name:xx": "Tangojo, Río"
      }
    },
    {
      "geometry": {
        "type": "Point",
        "coordinates": [
          -99.134722,
          21.209722
        ]
      },
      "type": "Feature",
      "properties": {
        "hierarchy": [
          "tgn:7399794",
          "tgn:1000001",
          "tgn:7005593",
          "tgn:7005560",
          "tgn:7029392"
        ],
        "placetype": [
          "aat:300008795"
        ],
        "id": 7399794,
        "name:xx": "Cueva El Tigre, Cerro"
      }
    },
    {
      "geometry": {
        "type": "Point",
        "coordinates": [
          -99.091667,
          21.175
        ]
      },
      "type": "Feature",
      "properties": {
        "hierarchy": [
          "tgn:7399795",
          "tgn:1000001",
          "tgn:7005593",
          "tgn:7005560",
          "tgn:7029392"
        ],
        "placetype": [
          "aat:300008347"
        ],
        "id": 7399795,
        "name:xx": "Jagüey Colorado"
      }
    },
    {
      "geometry": {
        "type": "Point",
        "coordinates": [
          -99.091667,
          21.193056
        ]
      },
      "type": "Feature",
      "properties": {
        "hierarchy": [
          "tgn:7399796",
          "tgn:1000001",
          "tgn:7005593",
          "tgn:7005560",
          "tgn:7029392"
        ],
        "placetype": [
          "aat:300008347"
        ],
        "id": 7399796,
        "name:xx": "El Sabinito"
      }
    },
    {
      "geometry": {
        "type": "Point",
        "coordinates": [
          -99.068056,
          21.194444
        ]
      },
      "type": "Feature",
      "properties": {
        "hierarchy": [
          "tgn:7399797",
          "tgn:1000001",
          "tgn:7005593",
          "tgn:7005560",
          "tgn:7029392"
        ],
        "placetype": [
          "aat:300008347"
        ],
        "id": 7399797,
        "name:xx": "La Palma"
      }
    },
    {
      "geometry": {
        "type": "Point",
        "coordinates": [
          -99.05,
          21.198611
        ]
      },
      "type": "Feature",
      "properties": {
        "hierarchy": [
          "tgn:7399798",
          "tgn:1000001",
          "tgn:7005593",
          "tgn:7005560",
          "tgn:7029392"
        ],
        "placetype": [
          "aat:300008699"
        ],
        "id": 7399798,
        "name:xx": "San, Arroyo"
      }
    },
    {
      "geometry": {
        "type": "Point",
        "coordinates": [
          -99.058333,
          21.213889
        ]
      },
      "type": "Feature",
      "properties": {
        "hierarchy": [
          "tgn:7399799",
          "tgn:1000001",
          "tgn:7005593",
          "tgn:7005560",
          "tgn:7029392"
        ],
        "placetype": [
          "aat:300008347"
        ],
        "id": 7399799,
        "name:xx": "San Onofre"
      }
    }
  ]
}
