{
  "type": "FeatureCollection",
  "features": [
    {
      "geometry": {
        "type": "Point",
        "coordinates": [
          120.079444,
          23.181667
        ]
      },
      "type": "Feature",
      "properties": {
        "hierarchy": [
          "tgn:7478920",
          "tgn:1000004",
          "tgn:7490934",
          "tgn:1000141",
          "tgn:7029392"
        ],
        "placetype": [
          "aat:300386871"
        ],
        "id": 7478920,
        "name:xx": "Qigu Yanchang Di'ergongqu"
      }
    },
    {
      "geometry": {
        "type": "Point",
        "coordinates": [
          120.0675,
          23.183056
        ]
      },
      "type": "Feature",
      "properties": {
        "hierarchy": [
          "tgn:7478921",
          "tgn:1000004",
          "tgn:7490934",
          "tgn:1000141",
          "tgn:7029392"
        ],
        "placetype": [
          "aat:300008678"
        ],
        "id": 7478921,
        "name:xx": "Kunshen Yugang"
      }
    },
    {
      "geometry": {
        "type": "Point",
        "coordinates": [
          120.091944,
          23.210556
        ]
      },
      "type": "Feature",
      "properties": {
        "hierarchy": [
          "tgn:7478922",
          "tgn:1000004",
          "tgn:7490934",
          "tgn:1000141",
          "tgn:7029392"
        ],
        "placetype": [
          "aat:300007836"
        ],
        "id": 7478922,
        "name:xx": "Yanxing Qiao"
      }
    },
    {
      "geometry": {
        "type": "Point",
        "coordinates": [
          120.078889,
          23.211944
        ]
      },
      "type": "Feature",
      "properties": {
        "hierarchy": [
          "tgn:7478923",
          "tgn:1000004",
          "tgn:7490934",
          "tgn:1000141",
          "tgn:7029392"
        ],
        "placetype": [
          "aat:300008678"
        ],
        "id": 7478923,
        "name:xx": "Jiangjun Yugang"
      }
    },
    {
      "geometry": {
        "type": "Point",
        "coordinates": [
          120.090833,
          23.233056
        ]
      },
      "type": "Feature",
      "properties": {
        "hierarchy": [
          "tgn:7478924",
          "tgn:1000004",
          "tgn:7490934",
          "tgn:1000141",
          "tgn:7029392"
        ],
        "placetype": [
          "aat:300008678"
        ],
        "id": 7478924,
        "name:xx": "Beimen Yugang"
      }
    },
    {
      "geometry": {
        "type": "Point",
        "coordinates": [
          120.308889,
          23.251944
        ]
      },
      "type": "Feature",
      "properties": {
        "hierarchy": [
          "tgn:7478925",
          "tgn:1000004",
          "tgn:7490934",
          "tgn:1000141",
          "tgn:7029392"
        ],
        "placetype": [
          "aat:300007595"
        ],
        "id": 7478925,
        "name:xx": "Bao'an Gong"
      }
    },
    {
      "geometry": {
        "type": "Point",
        "coordinates": [
          121.856,
          24.6044
        ]
      },
      "type": "Feature",
      "properties": {
        "hierarchy": [
          "tgn:7478926",
          "tgn:1000004",
          "tgn:7489179",
          "tgn:1000141",
          "tgn:7029392"
        ],
        "placetype": [
          "aat:300007899"
        ],
        "id": 7478926,
        "name:xx": "Lanyang Suidao"
      }
    },
    {
      "geometry": {
        "type": "Point",
        "coordinates": [
          121.857769,
          24.61054
        ]
      },
      "type": "Feature",
      "properties": {
        "hierarchy": [
          "tgn:7478927",
          "tgn:1000004",
          "tgn:7489179",
          "tgn:1000141",
          "tgn:7029392"
        ],
        "placetype": [
          "aat:300000498"
        ],
        "id": 7478927,
        "name:xx": "Yueming Xincun"
      }
    },
    {
      "geometry": {
        "type": "Point",
        "coordinates": [
          121.853712,
          24.612693
        ]
      },
      "type": "Feature",
      "properties": {
        "hierarchy": [
          "tgn:7478928",
          "tgn:1000004",
          "tgn:7489179",
          "tgn:1000141",
          "tgn:7029392"
        ],
        "placetype": [
          "aat:300000498"
        ],
        "id": 7478928,
        "name:xx": "Zhongxing Xincun"
      }
    },
    {
      "geometry": {
        "type": "Point",
        "coordinates": [
          121.843208,
          24.618091
        ]
      },
      "type": "Feature",
      "properties": {
        "hierarchy": [
          "tgn:7478929",
          "tgn:1000004",
          "tgn:7489179",
          "tgn:1000141",
          "tgn:7029392"
        ],
        "placetype": [
          "aat:300008347"
        ],
        "id": 7478929,
        "name:xx": "Tianxin"
      }
    }
  ]
}
