{
  "type": "FeatureCollection",
  "features": [
    {
      "geometry": {
        "type": "Point",
        "coordinates": [
          79.26375,
          27.992392
        ]
      },
      "type": "Feature",
      "properties": {
        "hierarchy": [
          "tgn:7561300",
          "tgn:1000004",
          "tgn:7000198",
          "tgn:7016722",
          "tgn:7029392"
        ],
        "placetype": [
          "aat:300008347"
        ],
        "name:en": "Mahora",
        "id": 7561300
      }
    },
    {
      "geometry": {
        "type": "Point",
        "coordinates": [
          79.064158,
          26.893777
        ]
      },
      "type": "Feature",
      "properties": {
        "hierarchy": [
          "tgn:7561301",
          "tgn:1000004",
          "tgn:7000198",
          "tgn:7016722",
          "tgn:7029392"
        ],
        "placetype": [
          "aat:300008347"
        ],
        "name:en": "Jāfarpur",
        "id": 7561301
      }
    },
    {
      "geometry": {
        "type": "Point",
        "coordinates": [
          79.068397,
          26.89168
        ]
      },
      "type": "Feature",
      "properties": {
        "hierarchy": [
          "tgn:7561302",
          "tgn:1000004",
          "tgn:7000198",
          "tgn:7016722",
          "tgn:7029392"
        ],
        "placetype": [
          "aat:300008347"
        ],
        "name:en": "Selampur",
        "id": 7561302
      }
    },
    {
      "geometry": {
        "type": "Point",
        "coordinates": [
          79.079134,
          26.894747
        ]
      },
      "type": "Feature",
      "properties": {
        "hierarchy": [
          "tgn:7561303",
          "tgn:1000004",
          "tgn:7000198",
          "tgn:7016722",
          "tgn:7029392"
        ],
        "placetype": [
          "aat:300008347"
        ],
        "name:en": "Nagla Malik",
        "id": 7561303
      }
    },
    {
      "geometry": {
        "type": "Point",
        "coordinates": [
          79.071931,
          26.899836
        ]
      },
      "type": "Feature",
      "properties": {
        "hierarchy": [
          "tgn:7561304",
          "tgn:1000004",
          "tgn:7000198",
          "tgn:7016722",
          "tgn:7029392"
        ],
        "placetype": [
          "aat:300008347"
        ],
        "name:en": "Bhāgīpur",
        "id": 7561304
      }
    },
    {
      "geometry": {
        "type": "Point",
        "coordinates": [
          79.093845,
          26.896932
        ]
      },
      "type": "Feature",
      "properties": {
        "hierarchy": [
          "tgn:7561305",
          "tgn:1000004",
          "tgn:7000198",
          "tgn:7016722",
          "tgn:7029392"
        ],
        "placetype": [
          "aat:300008347"
        ],
        "name:en": "Gulābpur",
        "id": 7561305
      }
    },
    {
      "geometry": {
        "type": "Point",
        "coordinates": [
          79.7713,
          27.2251
        ]
      },
      "type": "Feature",
      "properties": {
        "hierarchy": [
          "tgn:7561306",
          "tgn:1000004",
          "tgn:7000198",
          "tgn:7016722",
          "tgn:7029392"
        ],
        "placetype": [
          "aat:300008347"
        ],
        "name:en": "Murcha",
        "id": 7561306
      }
    },
    {
      "geometry": {
        "type": "Point",
        "coordinates": [
          79.7665,
          27.2263
        ]
      },
      "type": "Feature",
      "properties": {
        "hierarchy": [
          "tgn:7561307",
          "tgn:1000004",
          "tgn:7000198",
          "tgn:7016722",
          "tgn:7029392"
        ],
        "placetype": [
          "aat:300008347"
        ],
        "name:en": "Rāmnagar",
        "id": 7561307
      }
    },
    {
      "geometry": {
        "type": "Point",
        "coordinates": [
          79.7585,
          27.2305
        ]
      },
      "type": "Feature",
      "properties": {
        "hierarchy": [
          "tgn:7561308",
          "tgn:1000004",
          "tgn:7000198",
          "tgn:7016722",
          "tgn:7029392"
        ],
        "placetype": [
          "aat:300008347"
        ],
        "name:en": "Nikāwanpur",
        "id": 7561308
      }
    },
    {
      "geometry": {
        "type": "Point",
        "coordinates": [
          79.787,
          27.2322
        ]
      },
      "type": "Feature",
      "properties": {
        "hierarchy": [
          "tgn:7561309",
          "tgn:1000004",
          "tgn:7000198",
          "tgn:7016722",
          "tgn:7029392"
        ],
        "placetype": [
          "aat:300008347"
        ],
        "name:en": "Pyārīpur",
        "id": 7561309
      }
    }
  ]
}
