{
  "type": "FeatureCollection",
  "features": [
    {
      "geometry": {
        "type": "Point",
        "coordinates": [
          74.821009,
          32.914486
        ]
      },
      "type": "Feature",
      "properties": {
        "hierarchy": [
          "tgn:7592680",
          "tgn:1000004",
          "tgn:7000198",
          "tgn:7000799",
          "tgn:7029392"
        ],
        "placetype": [
          "aat:300008347"
        ],
        "name:en": "Pachawa",
        "id": 7592680
      }
    },
    {
      "geometry": {
        "type": "Point",
        "coordinates": [
          74.838841,
          32.909698
        ]
      },
      "type": "Feature",
      "properties": {
        "hierarchy": [
          "tgn:7592681",
          "tgn:1000004",
          "tgn:7000198",
          "tgn:7000799",
          "tgn:7029392"
        ],
        "placetype": [
          "aat:300008347"
        ],
        "name:en": "Chhowāh",
        "id": 7592681
      }
    },
    {
      "geometry": {
        "type": "Point",
        "coordinates": [
          74.870824,
          32.909783
        ]
      },
      "type": "Feature",
      "properties": {
        "hierarchy": [
          "tgn:7592682",
          "tgn:1000004",
          "tgn:7000198",
          "tgn:7000799",
          "tgn:7029392"
        ],
        "placetype": [
          "aat:300008347"
        ],
        "name:en": "Rāmsūla",
        "id": 7592682
      }
    },
    {
      "geometry": {
        "type": "Point",
        "coordinates": [
          74.908333,
          32.9125
        ]
      },
      "type": "Feature",
      "properties": {
        "hierarchy": [
          "tgn:7592683",
          "tgn:1000004",
          "tgn:7000198",
          "tgn:7000799",
          "tgn:7029392"
        ],
        "placetype": [
          "aat:300008863"
        ],
        "name:en": "Gamhīr Rakh",
        "id": 7592683
      }
    },
    {
      "geometry": {
        "type": "Point",
        "coordinates": [
          74.909722,
          32.909722
        ]
      },
      "type": "Feature",
      "properties": {
        "hierarchy": [
          "tgn:7592684",
          "tgn:1000004",
          "tgn:7000198",
          "tgn:7000799",
          "tgn:7029392"
        ],
        "placetype": [
          "aat:300008347"
        ],
        "name:en": "Naulgarh",
        "id": 7592684
      }
    },
    {
      "geometry": {
        "type": "Point",
        "coordinates": [
          74.889961,
          32.907827
        ]
      },
      "type": "Feature",
      "properties": {
        "hierarchy": [
          "tgn:7592685",
          "tgn:1000004",
          "tgn:7000198",
          "tgn:7000799",
          "tgn:7029392"
        ],
        "placetype": [
          "aat:300008347"
        ],
        "name:en": "Dūng",
        "id": 7592685
      }
    },
    {
      "geometry": {
        "type": "Point",
        "coordinates": [
          74.884141,
          32.909116
        ]
      },
      "type": "Feature",
      "properties": {
        "hierarchy": [
          "tgn:7592686",
          "tgn:1000004",
          "tgn:7000198",
          "tgn:7000799",
          "tgn:7029392"
        ],
        "placetype": [
          "aat:300008347"
        ],
        "name:en": "Marh",
        "id": 7592686
      }
    },
    {
      "geometry": {
        "type": "Point",
        "coordinates": [
          74.880556,
          32.911111
        ]
      },
      "type": "Feature",
      "properties": {
        "hierarchy": [
          "tgn:7592687",
          "tgn:1000004",
          "tgn:7000198",
          "tgn:7000799",
          "tgn:7029392"
        ],
        "placetype": [
          "aat:300266554",
          "aat:300008699"
        ],
        "name:en": "Paneās Khad",
        "id": 7592687
      }
    },
    {
      "geometry": {
        "type": "Point",
        "coordinates": [
          74.839022,
          32.900471
        ]
      },
      "type": "Feature",
      "properties": {
        "hierarchy": [
          "tgn:7592688",
          "tgn:1000004",
          "tgn:7000198",
          "tgn:7000799",
          "tgn:7029392"
        ],
        "placetype": [
          "aat:300008347"
        ],
        "name:en": "Nargāra",
        "id": 7592688
      }
    },
    {
      "geometry": {
        "type": "Point",
        "coordinates": [
          74.847222,
          32.897222
        ]
      },
      "type": "Feature",
      "properties": {
        "hierarchy": [
          "tgn:7592689",
          "tgn:1000004",
          "tgn:7000198",
          "tgn:7000799",
          "tgn:7029392"
        ],
        "placetype": [
          "aat:300008347"
        ],
        "name:en": "Pahtu",
        "id": 7592689
      }
    }
  ]
}
