{
  "type": "FeatureCollection",
  "features": [
    {
      "geometry": {
        "type": "Point",
        "coordinates": [
          79.215185,
          26.800916
        ]
      },
      "type": "Feature",
      "properties": {
        "hierarchy": [
          "tgn:7562200",
          "tgn:1000004",
          "tgn:7000198",
          "tgn:7016722",
          "tgn:7029392"
        ],
        "placetype": [
          "aat:300008347"
        ],
        "name:en": "Nagla Dhani",
        "id": 7562200
      }
    },
    {
      "geometry": {
        "type": "Point",
        "coordinates": [
          79.20522,
          26.803238
        ]
      },
      "type": "Feature",
      "properties": {
        "hierarchy": [
          "tgn:7562201",
          "tgn:1000004",
          "tgn:7000198",
          "tgn:7016722",
          "tgn:7029392"
        ],
        "placetype": [
          "aat:300008347"
        ],
        "name:en": "Khoj카pura",
        "id": 7562201
      }
    },
    {
      "geometry": {
        "type": "Point",
        "coordinates": [
          79.334054,
          27.040107
        ]
      },
      "type": "Feature",
      "properties": {
        "hierarchy": [
          "tgn:7562202",
          "tgn:1000004",
          "tgn:7000198",
          "tgn:7016722",
          "tgn:7029392"
        ],
        "placetype": [
          "aat:300008347"
        ],
        "name:en": "Nagla H카ra",
        "id": 7562202
      }
    },
    {
      "geometry": {
        "type": "Point",
        "coordinates": [
          79.325121,
          27.043668
        ]
      },
      "type": "Feature",
      "properties": {
        "hierarchy": [
          "tgn:7562203",
          "tgn:1000004",
          "tgn:7000198",
          "tgn:7016722",
          "tgn:7029392"
        ],
        "placetype": [
          "aat:300008347"
        ],
        "name:en": "Daw훮h",
        "id": 7562203
      }
    },
    {
      "geometry": {
        "type": "Point",
        "coordinates": [
          79.316349,
          27.03888
        ]
      },
      "type": "Feature",
      "properties": {
        "hierarchy": [
          "tgn:7562204",
          "tgn:1000004",
          "tgn:7000198",
          "tgn:7016722",
          "tgn:7029392"
        ],
        "placetype": [
          "aat:300008347"
        ],
        "name:en": "Nagla Paitu",
        "id": 7562204
      }
    },
    {
      "geometry": {
        "type": "Point",
        "coordinates": [
          79.309227,
          27.035362
        ]
      },
      "type": "Feature",
      "properties": {
        "hierarchy": [
          "tgn:7562205",
          "tgn:1000004",
          "tgn:7000198",
          "tgn:7016722",
          "tgn:7029392"
        ],
        "placetype": [
          "aat:300008347"
        ],
        "name:en": "Habi",
        "id": 7562205
      }
    },
    {
      "geometry": {
        "type": "Point",
        "coordinates": [
          79.311485,
          27.031778
        ]
      },
      "type": "Feature",
      "properties": {
        "hierarchy": [
          "tgn:7562206",
          "tgn:1000004",
          "tgn:7000198",
          "tgn:7016722",
          "tgn:7029392"
        ],
        "placetype": [
          "aat:300008347"
        ],
        "name:en": "Ch훮nda",
        "id": 7562206
      }
    },
    {
      "geometry": {
        "type": "Point",
        "coordinates": [
          79.312574,
          27.03427
        ]
      },
      "type": "Feature",
      "properties": {
        "hierarchy": [
          "tgn:7562207",
          "tgn:1000004",
          "tgn:7000198",
          "tgn:7016722",
          "tgn:7029392"
        ],
        "placetype": [
          "aat:300008347"
        ],
        "name:en": "Dharmpur",
        "id": 7562207
      }
    },
    {
      "geometry": {
        "type": "Point",
        "coordinates": [
          79.32168,
          27.030191
        ]
      },
      "type": "Feature",
      "properties": {
        "hierarchy": [
          "tgn:7562208",
          "tgn:1000004",
          "tgn:7000198",
          "tgn:7016722",
          "tgn:7029392"
        ],
        "placetype": [
          "aat:300008347"
        ],
        "name:en": "Ratanpur",
        "id": 7562208
      }
    },
    {
      "geometry": {
        "type": "Point",
        "coordinates": [
          79.320067,
          27.022707
        ]
      },
      "type": "Feature",
      "properties": {
        "hierarchy": [
          "tgn:7562209",
          "tgn:1000004",
          "tgn:7000198",
          "tgn:7016722",
          "tgn:7029392"
        ],
        "placetype": [
          "aat:300008347"
        ],
        "name:en": "Samadpur",
        "id": 7562209
      }
    }
  ]
}
