{
  "type": "FeatureCollection",
  "features": [
    {
      "geometry": {
        "type": "Point",
        "coordinates": [
          120.141944,
          23.145278
        ]
      },
      "type": "Feature",
      "properties": {
        "hierarchy": [
          "tgn:7479800",
          "tgn:1000004",
          "tgn:7490934",
          "tgn:1000141",
          "tgn:7029392"
        ],
        "placetype": [
          "aat:300007595"
        ],
        "id": 7479800,
        "name:xx": "Folong Gong"
      }
    },
    {
      "geometry": {
        "type": "Point",
        "coordinates": [
          120.141389,
          23.136389
        ]
      },
      "type": "Feature",
      "properties": {
        "hierarchy": [
          "tgn:7479802",
          "tgn:1000004",
          "tgn:7490934",
          "tgn:1000141",
          "tgn:7029392"
        ],
        "placetype": [
          "aat:300007595"
        ],
        "id": 7479802,
        "name:xx": "Yongxing Gong"
      }
    },
    {
      "geometry": {
        "type": "Point",
        "coordinates": [
          120.142778,
          23.101944
        ]
      },
      "type": "Feature",
      "properties": {
        "hierarchy": [
          "tgn:7479803",
          "tgn:1000004",
          "tgn:7490934",
          "tgn:1000141",
          "tgn:7029392"
        ],
        "placetype": [
          "aat:300006495"
        ],
        "id": 7479803,
        "name:xx": "Zhuqiao Guozhong"
      }
    },
    {
      "geometry": {
        "type": "Point",
        "coordinates": [
          120.144722,
          23.097222
        ]
      },
      "type": "Feature",
      "properties": {
        "hierarchy": [
          "tgn:7479804",
          "tgn:1000004",
          "tgn:7490934",
          "tgn:1000141",
          "tgn:7029392"
        ],
        "placetype": [
          "aat:300007595"
        ],
        "id": 7479804,
        "name:xx": "Yu'an Gong"
      }
    },
    {
      "geometry": {
        "type": "Point",
        "coordinates": [
          120.158611,
          23.101944
        ]
      },
      "type": "Feature",
      "properties": {
        "hierarchy": [
          "tgn:7479805",
          "tgn:1000004",
          "tgn:7490934",
          "tgn:1000141",
          "tgn:7029392"
        ],
        "placetype": [
          "aat:300006495"
        ],
        "id": 7479805,
        "name:xx": "Zhuqiao Guoxiao"
      }
    },
    {
      "geometry": {
        "type": "Point",
        "coordinates": [
          120.189167,
          23.058056
        ]
      },
      "type": "Feature",
      "properties": {
        "hierarchy": [
          "tgn:7479806",
          "tgn:1000004",
          "tgn:7490934",
          "tgn:1000141",
          "tgn:7029392"
        ],
        "placetype": [
          "aat:300007595"
        ],
        "id": 7479806,
        "name:xx": "Bao'an Tang"
      }
    },
    {
      "geometry": {
        "type": "Point",
        "coordinates": [
          120.163056,
          23.103333
        ]
      },
      "type": "Feature",
      "properties": {
        "hierarchy": [
          "tgn:7479807",
          "tgn:1000004",
          "tgn:7490934",
          "tgn:1000141",
          "tgn:7029392"
        ],
        "placetype": [
          "aat:300007595"
        ],
        "id": 7479807,
        "name:xx": "Qingshan Gong"
      }
    },
    {
      "geometry": {
        "type": "Point",
        "coordinates": [
          120.154722,
          23.112222
        ]
      },
      "type": "Feature",
      "properties": {
        "hierarchy": [
          "tgn:7479808",
          "tgn:1000004",
          "tgn:7490934",
          "tgn:1000141",
          "tgn:7029392"
        ],
        "placetype": [
          "aat:300006495"
        ],
        "id": 7479808,
        "name:xx": "Shulin Guoxiao"
      }
    },
    {
      "geometry": {
        "type": "Point",
        "coordinates": [
          120.171111,
          23.11
        ]
      },
      "type": "Feature",
      "properties": {
        "hierarchy": [
          "tgn:7479809",
          "tgn:1000004",
          "tgn:7490934",
          "tgn:1000141",
          "tgn:7029392"
        ],
        "placetype": [
          "aat:300007595"
        ],
        "id": 7479809,
        "name:xx": "De'an Gong"
      }
    }
  ]
}
