{
  "type": "FeatureCollection",
  "features": [
    {
      "geometry": {
        "type": "Point",
        "coordinates": [
          120.671389,
          24.316944
        ]
      },
      "type": "Feature",
      "properties": {
        "hierarchy": [
          "tgn:7484060",
          "tgn:1000004",
          "tgn:7001009",
          "tgn:1000141",
          "tgn:7029392"
        ],
        "placetype": [
          "aat:300008347"
        ],
        "id": 7484060,
        "name:xx": "Dasirenqi"
      }
    },
    {
      "geometry": {
        "type": "Point",
        "coordinates": [
          120.514167,
          23.070556
        ]
      },
      "type": "Feature",
      "properties": {
        "hierarchy": [
          "tgn:7484061",
          "tgn:1000004",
          "tgn:7490934",
          "tgn:1000141",
          "tgn:7029392"
        ],
        "placetype": [
          "aat:300007836"
        ],
        "id": 7484061,
        "name:xx": "Shoubao Qiao"
      }
    },
    {
      "geometry": {
        "type": "Point",
        "coordinates": [
          120.519444,
          23.070556
        ]
      },
      "type": "Feature",
      "properties": {
        "hierarchy": [
          "tgn:7484062",
          "tgn:1000004",
          "tgn:7490934",
          "tgn:1000141",
          "tgn:7029392"
        ],
        "placetype": [
          "aat:300008347"
        ],
        "id": 7484062,
        "name:xx": "Xiatouzi"
      }
    },
    {
      "geometry": {
        "type": "Point",
        "coordinates": [
          120.52,
          23.073889
        ]
      },
      "type": "Feature",
      "properties": {
        "hierarchy": [
          "tgn:7484063",
          "tgn:1000004",
          "tgn:7490934",
          "tgn:1000141",
          "tgn:7029392"
        ],
        "placetype": [
          "aat:300008347"
        ],
        "id": 7484063,
        "name:xx": "Nanping"
      }
    },
    {
      "geometry": {
        "type": "Point",
        "coordinates": [
          120.519444,
          23.073056
        ]
      },
      "type": "Feature",
      "properties": {
        "hierarchy": [
          "tgn:7484064",
          "tgn:1000004",
          "tgn:7490934",
          "tgn:1000141",
          "tgn:7029392"
        ],
        "placetype": [
          "aat:300007836"
        ],
        "id": 7484064,
        "name:xx": "Yushan Erhao Qiao"
      }
    },
    {
      "geometry": {
        "type": "Point",
        "coordinates": [
          120.56,
          23.082222
        ]
      },
      "type": "Feature",
      "properties": {
        "hierarchy": [
          "tgn:7484065",
          "tgn:7001004",
          "tgn:1000004",
          "tgn:1000141",
          "tgn:7029392"
        ],
        "placetype": [
          "aat:300007836"
        ],
        "id": 7484065,
        "name:xx": "Guanshan Yihao Qiao"
      }
    },
    {
      "geometry": {
        "type": "Point",
        "coordinates": [
          120.543056,
          23.087778
        ]
      },
      "type": "Feature",
      "properties": {
        "hierarchy": [
          "tgn:7484066",
          "tgn:1000004",
          "tgn:7490934",
          "tgn:1000141",
          "tgn:7029392"
        ],
        "placetype": [
          "aat:300006191"
        ],
        "id": 7484066,
        "name:xx": "Nanhua Shuiku"
      }
    },
    {
      "geometry": {
        "type": "Point",
        "coordinates": [
          120.531944,
          23.075833
        ]
      },
      "type": "Feature",
      "properties": {
        "hierarchy": [
          "tgn:7484067",
          "tgn:1000004",
          "tgn:7490934",
          "tgn:1000141",
          "tgn:7029392"
        ],
        "placetype": [
          "aat:300007899"
        ],
        "id": 7484067,
        "name:xx": "Nanhua Suidao"
      }
    },
    {
      "geometry": {
        "type": "Point",
        "coordinates": [
          120.529722,
          23.079444
        ]
      },
      "type": "Feature",
      "properties": {
        "hierarchy": [
          "tgn:7484068",
          "tgn:1000004",
          "tgn:7490934",
          "tgn:1000141",
          "tgn:7029392"
        ],
        "placetype": [
          "aat:300008777"
        ],
        "id": 7484068,
        "name:xx": "Zhutouqi Shan"
      }
    },
    {
      "geometry": {
        "type": "Point",
        "coordinates": [
          120.512778,
          23.081111
        ]
      },
      "type": "Feature",
      "properties": {
        "hierarchy": [
          "tgn:7484069",
          "tgn:1000004",
          "tgn:7490934",
          "tgn:1000141",
          "tgn:7029392"
        ],
        "placetype": [
          "aat:300007836"
        ],
        "id": 7484069,
        "name:xx": "Shuiku Yihao Qiao"
      }
    }
  ]
}
