{
  "type": "FeatureCollection",
  "features": [
    {
      "geometry": {
        "type": "Point",
        "coordinates": [
          -95.126111,
          16.959722
        ]
      },
      "type": "Feature",
      "properties": {
        "hierarchy": [
          "tgn:7417600",
          "tgn:1000001",
          "tgn:7005591",
          "tgn:7005560",
          "tgn:7029392"
        ],
        "placetype": [
          "aat:300008347"
        ],
        "id": 7417600,
        "name:es": "Ocotal"
      }
    },
    {
      "geometry": {
        "type": "Point",
        "coordinates": [
          -95.032222,
          17.000833
        ]
      },
      "type": "Feature",
      "properties": {
        "hierarchy": [
          "tgn:7417601",
          "tgn:1000001",
          "tgn:7005591",
          "tgn:7005560",
          "tgn:7029392"
        ],
        "placetype": [
          "aat:300008347"
        ],
        "id": 7417601,
        "name:es": "Mogoñe"
      }
    },
    {
      "geometry": {
        "type": "Point",
        "coordinates": [
          -95.0625,
          16.885278
        ]
      },
      "type": "Feature",
      "properties": {
        "hierarchy": [
          "tgn:7417602",
          "tgn:1000001",
          "tgn:7005591",
          "tgn:7005560",
          "tgn:7029392"
        ],
        "placetype": [
          "aat:300008347"
        ],
        "id": 7417602,
        "name:es": "Río Pachiñe"
      }
    },
    {
      "geometry": {
        "type": "Point",
        "coordinates": [
          -94.976389,
          16.959722
        ]
      },
      "type": "Feature",
      "properties": {
        "hierarchy": [
          "tgn:7417603",
          "tgn:1000001",
          "tgn:7005591",
          "tgn:7005560",
          "tgn:7029392"
        ],
        "placetype": [
          "aat:300008347"
        ],
        "id": 7417603,
        "name:es": "Guivicia"
      }
    },
    {
      "geometry": {
        "type": "Point",
        "coordinates": [
          -94.969167,
          16.945833
        ]
      },
      "type": "Feature",
      "properties": {
        "hierarchy": [
          "tgn:7417604",
          "tgn:1000001",
          "tgn:7005591",
          "tgn:7005560",
          "tgn:7029392"
        ],
        "placetype": [
          "aat:300008347"
        ],
        "id": 7417604,
        "name:es": "Barreña"
      }
    },
    {
      "geometry": {
        "type": "Point",
        "coordinates": [
          -94.879167,
          16.890278
        ]
      },
      "type": "Feature",
      "properties": {
        "hierarchy": [
          "tgn:7417605",
          "tgn:1000001",
          "tgn:7005591",
          "tgn:7005560",
          "tgn:7029392"
        ],
        "placetype": [
          "aat:300008347"
        ],
        "id": 7417605,
        "name:es": "Ocotal Grande"
      }
    },
    {
      "geometry": {
        "type": "Point",
        "coordinates": [
          -94.898889,
          16.891111
        ]
      },
      "type": "Feature",
      "properties": {
        "hierarchy": [
          "tgn:7417606",
          "tgn:1000001",
          "tgn:7005591",
          "tgn:7005560",
          "tgn:7029392"
        ],
        "placetype": [
          "aat:300008347"
        ],
        "id": 7417606,
        "name:es": "Tierra Blanca"
      }
    },
    {
      "geometry": {
        "type": "Point",
        "coordinates": [
          -94.976944,
          16.757778
        ]
      },
      "type": "Feature",
      "properties": {
        "hierarchy": [
          "tgn:7417607",
          "tgn:1000001",
          "tgn:7005591",
          "tgn:7005560",
          "tgn:7029392"
        ],
        "placetype": [
          "aat:300008347"
        ],
        "id": 7417607,
        "name:es": "Cieneguilla"
      }
    },
    {
      "geometry": {
        "type": "Point",
        "coordinates": [
          -94.961389,
          16.851389
        ]
      },
      "type": "Feature",
      "properties": {
        "hierarchy": [
          "tgn:7417608",
          "tgn:1000001",
          "tgn:7005591",
          "tgn:7005560",
          "tgn:7029392"
        ],
        "placetype": [
          "aat:300008347"
        ],
        "id": 7417608,
        "name:es": "Las Cruces"
      }
    },
    {
      "geometry": {
        "type": "Point",
        "coordinates": [
          -94.977778,
          16.811944
        ]
      },
      "type": "Feature",
      "properties": {
        "hierarchy": [
          "tgn:7417609",
          "tgn:1000001",
          "tgn:7005591",
          "tgn:7005560",
          "tgn:7029392"
        ],
        "placetype": [
          "aat:300008347"
        ],
        "id": 7417609,
        "name:es": "Chivixhuyo"
      }
    }
  ]
}
