{
  "type": "FeatureCollection",
  "features": [
    {
      "geometry": {
        "type": "Point",
        "coordinates": [
          120.240556,
          22.8225
        ]
      },
      "type": "Feature",
      "properties": {
        "hierarchy": [
          "tgn:7485810",
          "tgn:7001004",
          "tgn:1000004",
          "tgn:1000141",
          "tgn:7029392"
        ],
        "placetype": [
          "aat:300387033"
        ],
        "id": 7485810,
        "name:xx": "Erkuaicuo"
      }
    },
    {
      "geometry": {
        "type": "Point",
        "coordinates": [
          120.225278,
          22.914444
        ]
      },
      "type": "Feature",
      "properties": {
        "hierarchy": [
          "tgn:7485811",
          "tgn:1000004",
          "tgn:7490934",
          "tgn:1000141",
          "tgn:7029392"
        ],
        "placetype": [
          "aat:300007836"
        ],
        "id": 7485811,
        "name:xx": "Erceng Qiao"
      }
    },
    {
      "geometry": {
        "type": "Point",
        "coordinates": [
          120.226389,
          22.915833
        ]
      },
      "type": "Feature",
      "properties": {
        "hierarchy": [
          "tgn:7485812",
          "tgn:1000004",
          "tgn:7490934",
          "tgn:1000141",
          "tgn:7029392"
        ],
        "placetype": [
          "aat:300007836"
        ],
        "id": 7485812,
        "name:xx": "Ercenghang Qiao"
      }
    },
    {
      "geometry": {
        "type": "Point",
        "coordinates": [
          120.243333,
          22.8125
        ]
      },
      "type": "Feature",
      "properties": {
        "hierarchy": [
          "tgn:7485813",
          "tgn:7001004",
          "tgn:1000004",
          "tgn:1000141",
          "tgn:7029392"
        ],
        "placetype": [
          "aat:300007836"
        ],
        "id": 7485813,
        "name:xx": "Weixin Qiao"
      }
    },
    {
      "geometry": {
        "type": "Point",
        "coordinates": [
          120.249444,
          22.775833
        ]
      },
      "type": "Feature",
      "properties": {
        "hierarchy": [
          "tgn:7485814",
          "tgn:7001004",
          "tgn:1000004",
          "tgn:1000141",
          "tgn:7029392"
        ],
        "placetype": [
          "aat:300266755"
        ],
        "id": 7485814,
        "name:xx": "Diliu Gongmu"
      }
    },
    {
      "geometry": {
        "type": "Point",
        "coordinates": [
          120.208889,
          22.820833
        ]
      },
      "type": "Feature",
      "properties": {
        "hierarchy": [
          "tgn:7485815",
          "tgn:7001004",
          "tgn:1000004",
          "tgn:1000141",
          "tgn:7029392"
        ],
        "placetype": [
          "aat:300006495"
        ],
        "id": 7485815,
        "name:xx": "Xingang Guoxiao"
      }
    },
    {
      "geometry": {
        "type": "Point",
        "coordinates": [
          120.224722,
          22.813889
        ]
      },
      "type": "Feature",
      "properties": {
        "hierarchy": [
          "tgn:7485816",
          "tgn:7001004",
          "tgn:1000004",
          "tgn:1000141",
          "tgn:7029392"
        ],
        "placetype": [
          "aat:300006495"
        ],
        "id": 7485816,
        "name:xx": "Yong'an Guoxiao"
      }
    },
    {
      "geometry": {
        "type": "Point",
        "coordinates": [
          120.256944,
          22.773056
        ]
      },
      "type": "Feature",
      "properties": {
        "hierarchy": [
          "tgn:7485817",
          "tgn:7001004",
          "tgn:1000004",
          "tgn:1000141",
          "tgn:7029392"
        ],
        "placetype": [
          "aat:300006495"
        ],
        "id": 7485817,
        "name:xx": "Jianqiao Guoxiao"
      }
    },
    {
      "geometry": {
        "type": "Point",
        "coordinates": [
          120.247222,
          22.783333
        ]
      },
      "type": "Feature",
      "properties": {
        "hierarchy": [
          "tgn:7485818",
          "tgn:7001004",
          "tgn:1000004",
          "tgn:1000141",
          "tgn:7029392"
        ],
        "placetype": [
          "aat:300006495"
        ],
        "id": 7485818,
        "name:xx": "Mituo Guoxiao"
      }
    },
    {
      "geometry": {
        "type": "Point",
        "coordinates": [
          120.243889,
          22.764167
        ]
      },
      "type": "Feature",
      "properties": {
        "hierarchy": [
          "tgn:7485819",
          "tgn:7001004",
          "tgn:1000004",
          "tgn:1000141",
          "tgn:7029392"
        ],
        "placetype": [
          "aat:300006495"
        ],
        "id": 7485819,
        "name:xx": "Nan'an Guoxiao"
      }
    }
  ]
}
