{
  "type": "FeatureCollection",
  "features": [
    {
      "geometry": {
        "type": "Point",
        "coordinates": [
          120.740833,
          21.983611
        ]
      },
      "type": "Feature",
      "properties": {
        "hierarchy": [
          "tgn:7501960",
          "tgn:1000004",
          "tgn:7492971",
          "tgn:1000141",
          "tgn:7029392"
        ],
        "placetype": [
          "aat:300008699"
        ],
        "id": 7501960,
        "name:xx": "Dongmen Xi"
      }
    },
    {
      "geometry": {
        "type": "Point",
        "coordinates": [
          120.718889,
          21.964444
        ]
      },
      "type": "Feature",
      "properties": {
        "hierarchy": [
          "tgn:7501961",
          "tgn:1000004",
          "tgn:7492971",
          "tgn:1000141",
          "tgn:7029392"
        ],
        "placetype": [
          "aat:300008347"
        ],
        "id": 7501961,
        "name:xx": "Guanshan"
      }
    },
    {
      "geometry": {
        "type": "Point",
        "coordinates": [
          120.755278,
          21.991667
        ]
      },
      "type": "Feature",
      "properties": {
        "hierarchy": [
          "tgn:7501962",
          "tgn:1000004",
          "tgn:7492971",
          "tgn:1000141",
          "tgn:7029392"
        ],
        "placetype": [
          "aat:300008347"
        ],
        "id": 7501962,
        "name:xx": "Hunei"
      }
    },
    {
      "geometry": {
        "type": "Point",
        "coordinates": [
          120.718333,
          21.971944
        ]
      },
      "type": "Feature",
      "properties": {
        "hierarchy": [
          "tgn:7501963",
          "tgn:1000004",
          "tgn:7492971",
          "tgn:1000141",
          "tgn:7029392"
        ],
        "placetype": [
          "aat:300007595"
        ],
        "id": 7501963,
        "name:xx": "Nantian Gong"
      }
    },
    {
      "geometry": {
        "type": "Point",
        "coordinates": [
          120.731944,
          21.988333
        ]
      },
      "type": "Feature",
      "properties": {
        "hierarchy": [
          "tgn:7501964",
          "tgn:1000004",
          "tgn:7492971",
          "tgn:1000141",
          "tgn:7029392"
        ],
        "placetype": [
          "aat:300008347"
        ],
        "id": 7501964,
        "name:xx": "Paizilu"
      }
    },
    {
      "geometry": {
        "type": "Point",
        "coordinates": [
          120.721667,
          21.945833
        ]
      },
      "type": "Feature",
      "properties": {
        "hierarchy": [
          "tgn:7501965",
          "tgn:1000004",
          "tgn:7492971",
          "tgn:1000141",
          "tgn:7029392"
        ],
        "placetype": [
          "aat:300008777"
        ],
        "id": 7501965,
        "name:xx": "Shuiquanzhuang"
      }
    },
    {
      "geometry": {
        "type": "Point",
        "coordinates": [
          120.715556,
          21.971667
        ]
      },
      "type": "Feature",
      "properties": {
        "hierarchy": [
          "tgn:7501966",
          "tgn:1000004",
          "tgn:7492971",
          "tgn:1000141",
          "tgn:7029392"
        ],
        "placetype": [
          "aat:300008678"
        ],
        "id": 7501966,
        "name:xx": "Hongchaikeng Yugang"
      }
    },
    {
      "geometry": {
        "type": "Point",
        "coordinates": [
          120.716667,
          21.966389
        ]
      },
      "type": "Feature",
      "properties": {
        "hierarchy": [
          "tgn:7501967",
          "tgn:1000004",
          "tgn:7492971",
          "tgn:1000141",
          "tgn:7029392"
        ],
        "placetype": [
          "aat:300266755"
        ],
        "id": 7501967,
        "name:xx": "Dishisi Gongmu"
      }
    },
    {
      "geometry": {
        "type": "Point",
        "coordinates": [
          120.739722,
          21.944444
        ]
      },
      "type": "Feature",
      "properties": {
        "hierarchy": [
          "tgn:7501969",
          "tgn:1000004",
          "tgn:7492971",
          "tgn:1000141",
          "tgn:7029392"
        ],
        "placetype": [
          "aat:300008347"
        ],
        "id": 7501969,
        "name:xx": "Dakuwei"
      }
    }
  ]
}
