{
  "type": "FeatureCollection",
  "features": [
    {
      "geometry": {
        "type": "Point",
        "coordinates": [
          121.249864,
          22.930298
        ]
      },
      "type": "Feature",
      "properties": {
        "hierarchy": [
          "tgn:7499030",
          "tgn:1000004",
          "tgn:7491221",
          "tgn:1000141",
          "tgn:7029392"
        ],
        "placetype": [
          "aat:300387173"
        ],
        "id": 7499030,
        "name:xx": "Longchang Cun"
      }
    },
    {
      "geometry": {
        "type": "Point",
        "coordinates": [
          121.164215,
          22.944726
        ]
      },
      "type": "Feature",
      "properties": {
        "hierarchy": [
          "tgn:7499031",
          "tgn:1000004",
          "tgn:7491221",
          "tgn:1000141",
          "tgn:7029392"
        ],
        "placetype": [
          "aat:300387173"
        ],
        "id": 7499031,
        "name:xx": "Ruilong Cun"
      }
    },
    {
      "geometry": {
        "type": "Point",
        "coordinates": [
          121.140934,
          22.939666
        ]
      },
      "type": "Feature",
      "properties": {
        "hierarchy": [
          "tgn:7499032",
          "tgn:1000004",
          "tgn:7491221",
          "tgn:1000141",
          "tgn:7029392"
        ],
        "placetype": [
          "aat:300008347"
        ],
        "id": 7499032,
        "name:xx": "Yonglong"
      }
    },
    {
      "geometry": {
        "type": "Point",
        "coordinates": [
          121.074815,
          22.939499
        ]
      },
      "type": "Feature",
      "properties": {
        "hierarchy": [
          "tgn:7499033",
          "tgn:1000004",
          "tgn:7491221",
          "tgn:1000141",
          "tgn:7029392"
        ],
        "placetype": [
          "aat:300008347"
        ],
        "id": 7499033,
        "name:xx": "Laogongliao"
      }
    },
    {
      "geometry": {
        "type": "Point",
        "coordinates": [
          121.133058,
          22.946549
        ]
      },
      "type": "Feature",
      "properties": {
        "hierarchy": [
          "tgn:7499034",
          "tgn:1000004",
          "tgn:7491221",
          "tgn:1000141",
          "tgn:7029392"
        ],
        "placetype": [
          "aat:300387173"
        ],
        "id": 7499034,
        "name:xx": "Yong'an Cun"
      }
    },
    {
      "geometry": {
        "type": "Point",
        "coordinates": [
          121.157246,
          22.952625
        ]
      },
      "type": "Feature",
      "properties": {
        "hierarchy": [
          "tgn:7499035",
          "tgn:1000004",
          "tgn:7491221",
          "tgn:1000141",
          "tgn:7029392"
        ],
        "placetype": [
          "aat:300008347"
        ],
        "id": 7499035,
        "name:xx": "Ruilong"
      }
    },
    {
      "geometry": {
        "type": "Point",
        "coordinates": [
          121.165119,
          22.951952
        ]
      },
      "type": "Feature",
      "properties": {
        "hierarchy": [
          "tgn:7499036",
          "tgn:1000004",
          "tgn:7491221",
          "tgn:1000141",
          "tgn:7029392"
        ],
        "placetype": [
          "aat:300008347"
        ],
        "id": 7499036,
        "name:xx": "Pingding"
      }
    },
    {
      "geometry": {
        "type": "Point",
        "coordinates": [
          121.172337,
          22.9483
        ]
      },
      "type": "Feature",
      "properties": {
        "hierarchy": [
          "tgn:7499037",
          "tgn:1000004",
          "tgn:7491221",
          "tgn:1000141",
          "tgn:7029392"
        ],
        "placetype": [
          "aat:300008347"
        ],
        "id": 7499037,
        "name:xx": "Houhu"
      }
    },
    {
      "geometry": {
        "type": "Point",
        "coordinates": [
          121.243895,
          22.956809
        ]
      },
      "type": "Feature",
      "properties": {
        "hierarchy": [
          "tgn:7499038",
          "tgn:1000004",
          "tgn:7491221",
          "tgn:1000141",
          "tgn:7029392"
        ],
        "placetype": [
          "aat:300008347"
        ],
        "id": 7499038,
        "name:xx": "Wukuaicuo"
      }
    },
    {
      "geometry": {
        "type": "Point",
        "coordinates": [
          121.17521,
          22.961169
        ]
      },
      "type": "Feature",
      "properties": {
        "hierarchy": [
          "tgn:7499039",
          "tgn:1000004",
          "tgn:7491221",
          "tgn:1000141",
          "tgn:7029392"
        ],
        "placetype": [
          "aat:300387173"
        ],
        "id": 7499039,
        "name:xx": "Ruiyuan Cun"
      }
    }
  ]
}
