{
  "type": "FeatureCollection",
  "features": [
    {
      "geometry": {
        "type": "Point",
        "coordinates": [
          120.953611,
          24.797778
        ]
      },
      "type": "Feature",
      "properties": {
        "hierarchy": [
          "tgn:7502250",
          "tgn:1000004",
          "tgn:7001002",
          "tgn:1000141",
          "tgn:7029392"
        ],
        "placetype": [
          "aat:300008347"
        ],
        "id": 7502250,
        "name:xx": "Buqiangwei"
      }
    },
    {
      "geometry": {
        "type": "Point",
        "coordinates": [
          120.887081,
          24.159594
        ]
      },
      "type": "Feature",
      "properties": {
        "hierarchy": [
          "tgn:7502251",
          "tgn:1000004",
          "tgn:7001009",
          "tgn:1000141",
          "tgn:7029392"
        ],
        "placetype": [
          "aat:300008347"
        ],
        "id": 7502251,
        "name:xx": "Acunkeng"
      }
    },
    {
      "geometry": {
        "type": "Point",
        "coordinates": [
          120.878848,
          24.132361
        ]
      },
      "type": "Feature",
      "properties": {
        "hierarchy": [
          "tgn:7502252",
          "tgn:1000004",
          "tgn:7001009",
          "tgn:1000141",
          "tgn:7029392"
        ],
        "placetype": [
          "aat:300008347"
        ],
        "id": 7502252,
        "name:xx": "Ergui"
      }
    },
    {
      "geometry": {
        "type": "Point",
        "coordinates": [
          120.880261,
          24.162484
        ]
      },
      "type": "Feature",
      "properties": {
        "hierarchy": [
          "tgn:7502253",
          "tgn:1000004",
          "tgn:7001009",
          "tgn:1000141",
          "tgn:7029392"
        ],
        "placetype": [
          "aat:300007836"
        ],
        "id": 7502253,
        "name:xx": "Fuming Qiao"
      }
    },
    {
      "geometry": {
        "type": "Point",
        "coordinates": [
          120.87855,
          24.162231
        ]
      },
      "type": "Feature",
      "properties": {
        "hierarchy": [
          "tgn:7502254",
          "tgn:1000004",
          "tgn:7001009",
          "tgn:1000141",
          "tgn:7029392"
        ],
        "placetype": [
          "aat:300008347"
        ],
        "id": 7502254,
        "name:xx": "Baimaotai"
      }
    },
    {
      "geometry": {
        "type": "Point",
        "coordinates": [
          121.021944,
          24.737222
        ]
      },
      "type": "Feature",
      "properties": {
        "hierarchy": [
          "tgn:7502255",
          "tgn:1000004",
          "tgn:7471332",
          "tgn:1000141",
          "tgn:7029392"
        ],
        "placetype": [
          "aat:300007836"
        ],
        "id": 7502255,
        "name:xx": "Tongxue Qiao"
      }
    },
    {
      "geometry": {
        "type": "Point",
        "coordinates": [
          121.027778,
          24.733333
        ]
      },
      "type": "Feature",
      "properties": {
        "hierarchy": [
          "tgn:7502256",
          "tgn:1000004",
          "tgn:7471332",
          "tgn:1000141",
          "tgn:7029392"
        ],
        "placetype": [
          "aat:300007836"
        ],
        "id": 7502256,
        "name:xx": "Baoshan Qiao"
      }
    },
    {
      "geometry": {
        "type": "Point",
        "coordinates": [
          121.0225,
          24.74
        ]
      },
      "type": "Feature",
      "properties": {
        "hierarchy": [
          "tgn:7502257",
          "tgn:1000004",
          "tgn:7471332",
          "tgn:1000141",
          "tgn:7029392"
        ],
        "placetype": [
          "aat:300006495"
        ],
        "id": 7502257,
        "name:xx": "Baoshan Guoxiao"
      }
    },
    {
      "geometry": {
        "type": "Point",
        "coordinates": [
          120.780833,
          23.152222
        ]
      },
      "type": "Feature",
      "properties": {
        "hierarchy": [
          "tgn:7502258",
          "tgn:7001004",
          "tgn:1000004",
          "tgn:1000141",
          "tgn:7029392"
        ],
        "placetype": [
          "aat:300132356"
        ],
        "id": 7502258,
        "name:xx": "Salaoshe"
      }
    },
    {
      "geometry": {
        "type": "Point",
        "coordinates": [
          120.798056,
          23.137222
        ]
      },
      "type": "Feature",
      "properties": {
        "hierarchy": [
          "tgn:7502259",
          "tgn:7001004",
          "tgn:1000004",
          "tgn:1000141",
          "tgn:7029392"
        ],
        "placetype": [
          "aat:300132356"
        ],
        "id": 7502259,
        "name:xx": "Touzihuo"
      }
    }
  ]
}
