{
  "type": "FeatureCollection",
  "features": [
    {
      "geometry": {
        "type": "Point",
        "coordinates": [
          30.983333,
          27.216667
        ]
      },
      "type": "Feature",
      "properties": {
        "hierarchy": [
          "tgn:7529420",
          "tgn:7001242",
          "tgn:7016833",
          "tgn:1001114",
          "tgn:7029392"
        ],
        "placetype": [
          "aat:300005926"
        ],
        "name:en": "Sīdī aţ Ţawīl",
        "id": 7529420
      }
    },
    {
      "geometry": {
        "type": "Point",
        "coordinates": [
          31.929704,
          30.079709
        ]
      },
      "type": "Feature",
      "properties": {
        "hierarchy": [
          "tgn:7529421",
          "tgn:7001242",
          "tgn:7016833",
          "tgn:1001110",
          "tgn:7029392"
        ],
        "placetype": [
          "aat:300005926"
        ],
        "name:en": "Sīdī ad Dakrūrī",
        "id": 7529421
      }
    },
    {
      "geometry": {
        "type": "Point",
        "coordinates": [
          26.05,
          31.566667
        ]
      },
      "type": "Feature",
      "properties": {
        "hierarchy": [
          "tgn:7529422",
          "tgn:7001242",
          "tgn:7016833",
          "tgn:1001418",
          "tgn:7029392"
        ],
        "placetype": [
          "aat:300005926"
        ],
        "name:en": "Sîdi Atlya",
        "id": 7529422
      }
    },
    {
      "geometry": {
        "type": "Point",
        "coordinates": [
          31.35,
          31.433333
        ]
      },
      "type": "Feature",
      "properties": {
        "hierarchy": [
          "tgn:7529423",
          "tgn:7001242",
          "tgn:1001059",
          "tgn:7016833",
          "tgn:7029392"
        ],
        "placetype": [
          "aat:300005926"
        ],
        "name:en": "Sīdī 'Aţīyah Abū Māḑī",
        "id": 7529423
      }
    },
    {
      "geometry": {
        "type": "Point",
        "coordinates": [
          29.670877,
          31.021889
        ]
      },
      "type": "Feature",
      "properties": {
        "hierarchy": [
          "tgn:7529424",
          "tgn:7001242",
          "tgn:7016833",
          "tgn:1001079",
          "tgn:7029392"
        ],
        "placetype": [
          "aat:300005926"
        ],
        "name:en": "Sīdī 'Aţīyah",
        "id": 7529424
      }
    },
    {
      "geometry": {
        "type": "Point",
        "coordinates": [
          31.35,
          30.666667
        ]
      },
      "type": "Feature",
      "properties": {
        "hierarchy": [
          "tgn:7529425",
          "tgn:7001242",
          "tgn:1001059",
          "tgn:7016833",
          "tgn:7029392"
        ],
        "placetype": [
          "aat:300005926"
        ],
        "name:en": "Sīdī 'Aţīyah",
        "id": 7529425
      }
    },
    {
      "geometry": {
        "type": "Point",
        "coordinates": [
          32.666667,
          26.183333
        ]
      },
      "type": "Feature",
      "properties": {
        "hierarchy": [
          "tgn:7529426",
          "tgn:7001242",
          "tgn:7016833",
          "tgn:7000123",
          "tgn:7029392"
        ],
        "placetype": [
          "aat:300005926"
        ],
        "name:en": "Sīdī 'Aţā' Allāh",
        "id": 7529426
      }
    },
    {
      "geometry": {
        "type": "Point",
        "coordinates": [
          31.566389,
          30.667222
        ]
      },
      "type": "Feature",
      "properties": {
        "hierarchy": [
          "tgn:7529427",
          "tgn:7001242",
          "tgn:7016833",
          "tgn:1001113",
          "tgn:7029392"
        ],
        "placetype": [
          "aat:300005926"
        ],
        "id": 7529427,
        "name:xx": "Sīdī as Sulţān Sālim"
      }
    },
    {
      "geometry": {
        "type": "Point",
        "coordinates": [
          30.883333,
          29.366667
        ]
      },
      "type": "Feature",
      "properties": {
        "hierarchy": [
          "tgn:7529428",
          "tgn:7001242",
          "tgn:7001105",
          "tgn:7016833",
          "tgn:7029392"
        ],
        "placetype": [
          "aat:300005926"
        ],
        "name:en": "Manāmat Sīdī as Sulţān Ḩasan",
        "id": 7529428
      }
    },
    {
      "geometry": {
        "type": "Point",
        "coordinates": [
          31.033333,
          29.016667
        ]
      },
      "type": "Feature",
      "properties": {
        "hierarchy": [
          "tgn:7529429",
          "tgn:7001242",
          "tgn:7016833",
          "tgn:1001142",
          "tgn:7029392"
        ],
        "placetype": [
          "aat:300005926"
        ],
        "name:en": "Sīdī as Sulţān Abū al Munajjid",
        "id": 7529429
      }
    }
  ]
}
