{
  "type": "FeatureCollection",
  "features": [
    {
      "geometry": {
        "type": "Point",
        "coordinates": [
          121.516734,
          25.064918
        ]
      },
      "type": "Feature",
      "properties": {
        "hierarchy": [
          "tgn:7499720",
          "tgn:1000004",
          "tgn:1000959",
          "tgn:1000141",
          "tgn:7029392"
        ],
        "placetype": [
          "aat:300006495"
        ],
        "id": 7499720,
        "name:xx": "Datong Guoxiao"
      }
    },
    {
      "geometry": {
        "type": "Point",
        "coordinates": [
          121.51742,
          25.069445
        ]
      },
      "type": "Feature",
      "properties": {
        "hierarchy": [
          "tgn:7499721",
          "tgn:1000004",
          "tgn:1000959",
          "tgn:1000141",
          "tgn:7029392"
        ],
        "placetype": [
          "aat:300006495"
        ],
        "id": 7499721,
        "name:xx": "Lanzhou Guozhong"
      }
    },
    {
      "geometry": {
        "type": "Point",
        "coordinates": [
          121.512668,
          25.067042
        ]
      },
      "type": "Feature",
      "properties": {
        "hierarchy": [
          "tgn:7499722",
          "tgn:1000004",
          "tgn:1000959",
          "tgn:1000141",
          "tgn:7029392"
        ],
        "placetype": [
          "aat:300006495"
        ],
        "id": 7499722,
        "name:xx": "Yanping Guoxiao"
      }
    },
    {
      "geometry": {
        "type": "Point",
        "coordinates": [
          121.520851,
          25.077728
        ]
      },
      "type": "Feature",
      "properties": {
        "hierarchy": [
          "tgn:7499723",
          "tgn:1000004",
          "tgn:1000959",
          "tgn:1000141",
          "tgn:7029392"
        ],
        "placetype": [
          "aat:300007836"
        ],
        "id": 7499723,
        "name:xx": "Chengde Qiao"
      }
    },
    {
      "geometry": {
        "type": "Point",
        "coordinates": [
          121.523646,
          25.075426
        ]
      },
      "type": "Feature",
      "properties": {
        "hierarchy": [
          "tgn:7499724",
          "tgn:1000004",
          "tgn:1000959",
          "tgn:1000141",
          "tgn:7029392"
        ],
        "placetype": [
          "aat:300007836"
        ],
        "id": 7499724,
        "name:xx": "Yuanshan Daqiao"
      }
    },
    {
      "geometry": {
        "type": "Point",
        "coordinates": [
          121.565108,
          25.043772
        ]
      },
      "type": "Feature",
      "properties": {
        "hierarchy": [
          "tgn:7499725",
          "tgn:1000004",
          "tgn:1000959",
          "tgn:1000141",
          "tgn:7029392"
        ],
        "placetype": [
          "aat:300006495"
        ],
        "id": 7499725,
        "name:xx": "Songshan Gaozhong"
      }
    },
    {
      "geometry": {
        "type": "Point",
        "coordinates": [
          121.524653,
          25.073837
        ]
      },
      "type": "Feature",
      "properties": {
        "hierarchy": [
          "tgn:7499726",
          "tgn:1000004",
          "tgn:1000959",
          "tgn:1000141",
          "tgn:7029392"
        ],
        "placetype": [
          "aat:300007836"
        ],
        "id": 7499726,
        "name:xx": "Xinzhongshan Qiao"
      }
    },
    {
      "geometry": {
        "type": "Point",
        "coordinates": [
          121.526708,
          25.072601
        ]
      },
      "type": "Feature",
      "properties": {
        "hierarchy": [
          "tgn:7499727",
          "tgn:1000004",
          "tgn:1000959",
          "tgn:1000141",
          "tgn:7029392"
        ],
        "placetype": [
          "aat:300007836"
        ],
        "id": 7499727,
        "name:xx": "Songshan Daqiao"
      }
    },
    {
      "geometry": {
        "type": "Point",
        "coordinates": [
          121.534181,
          25.07923
        ]
      },
      "type": "Feature",
      "properties": {
        "hierarchy": [
          "tgn:7499728",
          "tgn:1000004",
          "tgn:1000959",
          "tgn:1000141",
          "tgn:7029392"
        ],
        "placetype": [
          "aat:300007558"
        ],
        "id": 7499728,
        "name:xx": "Zhonglie Ci"
      }
    },
    {
      "geometry": {
        "type": "Point",
        "coordinates": [
          121.544233,
          25.076399
        ]
      },
      "type": "Feature",
      "properties": {
        "hierarchy": [
          "tgn:7499729",
          "tgn:1000004",
          "tgn:1000959",
          "tgn:1000141",
          "tgn:7029392"
        ],
        "placetype": [
          "aat:300007836"
        ],
        "id": 7499729,
        "name:xx": "Dazhi Qiao"
      }
    }
  ]
}
