{
  "type": "FeatureCollection",
  "features": [
    {
      "geometry": {
        "type": "Point",
        "coordinates": [
          79.7918,
          27.0004
        ]
      },
      "type": "Feature",
      "properties": {
        "hierarchy": [
          "tgn:7563030",
          "tgn:1000004",
          "tgn:7000198",
          "tgn:7016722",
          "tgn:7029392"
        ],
        "placetype": [
          "aat:300008347"
        ],
        "name:en": "Katahara",
        "id": 7563030
      }
    },
    {
      "geometry": {
        "type": "Point",
        "coordinates": [
          79.7846,
          27.0037
        ]
      },
      "type": "Feature",
      "properties": {
        "hierarchy": [
          "tgn:7563031",
          "tgn:1000004",
          "tgn:7000198",
          "tgn:7016722",
          "tgn:7029392"
        ],
        "placetype": [
          "aat:300008347"
        ],
        "name:en": "Lohangāpur",
        "id": 7563031
      }
    },
    {
      "geometry": {
        "type": "Point",
        "coordinates": [
          79.7903,
          27.0106
        ]
      },
      "type": "Feature",
      "properties": {
        "hierarchy": [
          "tgn:7563032",
          "tgn:1000004",
          "tgn:7000198",
          "tgn:7016722",
          "tgn:7029392"
        ],
        "placetype": [
          "aat:300008347"
        ],
        "name:en": "Umrāo Purwa",
        "id": 7563032
      }
    },
    {
      "geometry": {
        "type": "Point",
        "coordinates": [
          79.7963,
          27.014
        ]
      },
      "type": "Feature",
      "properties": {
        "hierarchy": [
          "tgn:7563033",
          "tgn:1000004",
          "tgn:7000198",
          "tgn:7016722",
          "tgn:7029392"
        ],
        "placetype": [
          "aat:300008347"
        ],
        "name:en": "Segaran Purwa",
        "id": 7563033
      }
    },
    {
      "geometry": {
        "type": "Point",
        "coordinates": [
          79.343973,
          27.766069
        ]
      },
      "type": "Feature",
      "properties": {
        "hierarchy": [
          "tgn:7563034",
          "tgn:1000004",
          "tgn:7000198",
          "tgn:7016722",
          "tgn:7029392"
        ],
        "placetype": [
          "aat:300008347"
        ],
        "name:en": "Rasūlpur",
        "id": 7563034
      }
    },
    {
      "geometry": {
        "type": "Point",
        "coordinates": [
          79.336094,
          27.767588
        ]
      },
      "type": "Feature",
      "properties": {
        "hierarchy": [
          "tgn:7563035",
          "tgn:1000004",
          "tgn:7000198",
          "tgn:7016722",
          "tgn:7029392"
        ],
        "placetype": [
          "aat:300008347"
        ],
        "name:en": "Molu Nagla",
        "id": 7563035
      }
    },
    {
      "geometry": {
        "type": "Point",
        "coordinates": [
          79.351274,
          27.768056
        ]
      },
      "type": "Feature",
      "properties": {
        "hierarchy": [
          "tgn:7563036",
          "tgn:1000004",
          "tgn:7000198",
          "tgn:7016722",
          "tgn:7029392"
        ],
        "placetype": [
          "aat:300008347"
        ],
        "name:en": "Naugawān",
        "id": 7563036
      }
    },
    {
      "geometry": {
        "type": "Point",
        "coordinates": [
          79.34696,
          27.769927
        ]
      },
      "type": "Feature",
      "properties": {
        "hierarchy": [
          "tgn:7563037",
          "tgn:1000004",
          "tgn:7000198",
          "tgn:7016722",
          "tgn:7029392"
        ],
        "placetype": [
          "aat:300008347"
        ],
        "name:en": "Bīrampur",
        "id": 7563037
      }
    },
    {
      "geometry": {
        "type": "Point",
        "coordinates": [
          79.342042,
          27.772468
        ]
      },
      "type": "Feature",
      "properties": {
        "hierarchy": [
          "tgn:7563038",
          "tgn:1000004",
          "tgn:7000198",
          "tgn:7016722",
          "tgn:7029392"
        ],
        "placetype": [
          "aat:300008347"
        ],
        "name:en": "Bhadeli",
        "id": 7563038
      }
    },
    {
      "geometry": {
        "type": "Point",
        "coordinates": [
          79.367298,
          27.773876
        ]
      },
      "type": "Feature",
      "properties": {
        "hierarchy": [
          "tgn:7563039",
          "tgn:1000004",
          "tgn:7000198",
          "tgn:7016722",
          "tgn:7029392"
        ],
        "placetype": [
          "aat:300008347"
        ],
        "name:en": "Patna Deokali",
        "id": 7563039
      }
    }
  ]
}
