{
  "type": "FeatureCollection",
  "features": [
    {
      "geometry": {
        "type": "Point",
        "coordinates": [
          84.67062,
          25.577166
        ]
      },
      "type": "Feature",
      "properties": {
        "hierarchy": [
          "tgn:7547330",
          "tgn:1000004",
          "tgn:1001842",
          "tgn:7000198",
          "tgn:7029392"
        ],
        "placetype": [
          "aat:300008699"
        ],
        "name:en": "Banās Nadī",
        "id": 7547330
      }
    },
    {
      "geometry": {
        "type": "Point",
        "coordinates": [
          72.468175,
          27.051432
        ]
      },
      "type": "Feature",
      "properties": {
        "hierarchy": [
          "tgn:7547332",
          "tgn:1000004",
          "tgn:7000198",
          "tgn:7016788",
          "tgn:7029392"
        ],
        "placetype": [
          "aat:300007783"
        ],
        "name:en": "Banāsar",
        "id": 7547332
      }
    },
    {
      "geometry": {
        "type": "Point",
        "coordinates": [
          76.655833,
          13.261111
        ]
      },
      "type": "Feature",
      "properties": {
        "hierarchy": [
          "tgn:7547333",
          "tgn:1000004",
          "tgn:7000198",
          "tgn:1001882",
          "tgn:7029392"
        ],
        "placetype": [
          "aat:300008347"
        ],
        "name:en": "Bānasandra",
        "id": 7547333
      }
    },
    {
      "geometry": {
        "type": "Point",
        "coordinates": [
          72.989328,
          24.713376
        ]
      },
      "type": "Feature",
      "properties": {
        "hierarchy": [
          "tgn:7547334",
          "tgn:1000004",
          "tgn:7000198",
          "tgn:7016788",
          "tgn:7029392"
        ],
        "placetype": [
          "aat:300007783"
        ],
        "name:en": "Banās",
        "id": 7547334
      }
    },
    {
      "geometry": {
        "type": "Point",
        "coordinates": [
          84.339535,
          23.416524
        ]
      },
      "type": "Feature",
      "properties": {
        "hierarchy": [
          "tgn:7547335",
          "tgn:1000004",
          "tgn:7000198",
          "tgn:7031783",
          "tgn:7029392"
        ],
        "placetype": [
          "aat:300008347"
        ],
        "name:en": "Banāri",
        "id": 7547335
      }
    },
    {
      "geometry": {
        "type": "Point",
        "coordinates": [
          89.028296,
          26.792512
        ]
      },
      "type": "Feature",
      "properties": {
        "hierarchy": [
          "tgn:7547336",
          "tgn:1000004",
          "tgn:7000198",
          "tgn:1001977",
          "tgn:7029392"
        ],
        "placetype": [
          "aat:300007783"
        ],
        "name:en": "Bānārhāt",
        "id": 7547336
      }
    },
    {
      "geometry": {
        "type": "Point",
        "coordinates": [
          82.988116,
          25.327836
        ]
      },
      "type": "Feature",
      "properties": {
        "hierarchy": [
          "tgn:7547337",
          "tgn:1000004",
          "tgn:7000198",
          "tgn:7016722",
          "tgn:7029392"
        ],
        "placetype": [
          "aat:300007783"
        ],
        "name:en": "Banāras Cantonment",
        "id": 7547337
      }
    },
    {
      "geometry": {
        "type": "Point",
        "coordinates": [
          73.151627,
          26.329694
        ]
      },
      "type": "Feature",
      "properties": {
        "hierarchy": [
          "tgn:7547338",
          "tgn:1000004",
          "tgn:7000198",
          "tgn:7016788",
          "tgn:7029392"
        ],
        "placetype": [
          "aat:300008347"
        ],
        "name:en": "Banār",
        "id": 7547338
      }
    },
    {
      "geometry": {
        "type": "Point",
        "coordinates": [
          77.484014,
          22.471512
        ]
      },
      "type": "Feature",
      "properties": {
        "hierarchy": [
          "tgn:7547339",
          "tgn:1000004",
          "tgn:7000198",
          "tgn:1001894",
          "tgn:7029392"
        ],
        "placetype": [
          "aat:300007783"
        ],
        "name:en": "Banapura",
        "id": 7547339
      }
    }
  ]
}
