{
  "type": "FeatureCollection",
  "features": [
    {
      "geometry": {
        "type": "Point",
        "coordinates": [
          78.476065,
          20.914373
        ]
      },
      "type": "Feature",
      "properties": {
        "hierarchy": [
          "tgn:7576590",
          "tgn:1000004",
          "tgn:7000198",
          "tgn:1001895",
          "tgn:7029392"
        ],
        "placetype": [
          "aat:300008347"
        ],
        "name:en": "Khārangna",
        "id": 7576590
      }
    },
    {
      "geometry": {
        "type": "Point",
        "coordinates": [
          76.083333,
          34.916667
        ]
      },
      "type": "Feature",
      "properties": {
        "hierarchy": [
          "tgn:7576591",
          "tgn:1000004",
          "tgn:7000198",
          "tgn:7000799",
          "tgn:7029392"
        ],
        "placetype": [
          "aat:300008347"
        ],
        "name:en": "Kharal",
        "id": 7576591
      }
    },
    {
      "geometry": {
        "type": "Point",
        "coordinates": [
          73.75,
          18.416667
        ]
      },
      "type": "Feature",
      "properties": {
        "hierarchy": [
          "tgn:7576592",
          "tgn:1000004",
          "tgn:7000198",
          "tgn:1001895",
          "tgn:7029392"
        ],
        "placetype": [
          "aat:300008680"
        ],
        "name:en": "Fife, Lake",
        "id": 7576592
      }
    },
    {
      "geometry": {
        "type": "Point",
        "coordinates": [
          73.766667,
          18.433333
        ]
      },
      "type": "Feature",
      "properties": {
        "hierarchy": [
          "tgn:7576593",
          "tgn:1000004",
          "tgn:7000198",
          "tgn:1001895",
          "tgn:7029392"
        ],
        "placetype": [
          "aat:300008347"
        ],
        "name:en": "Kharakvasla",
        "id": 7576593
      }
    },
    {
      "geometry": {
        "type": "Point",
        "coordinates": [
          76.306425,
          28.829407
        ]
      },
      "type": "Feature",
      "properties": {
        "hierarchy": [
          "tgn:7576594",
          "tgn:1000004",
          "tgn:1001871",
          "tgn:7000198",
          "tgn:7029392"
        ],
        "placetype": [
          "aat:300008347"
        ],
        "name:en": "Kharak",
        "id": 7576594
      }
    },
    {
      "geometry": {
        "type": "Point",
        "coordinates": [
          76.482853,
          29.013721
        ]
      },
      "type": "Feature",
      "properties": {
        "hierarchy": [
          "tgn:7576595",
          "tgn:1000004",
          "tgn:1001871",
          "tgn:7000198",
          "tgn:7029392"
        ],
        "placetype": [
          "aat:300007783"
        ],
        "name:en": "Kharanti Railroad Station",
        "id": 7576595
      }
    },
    {
      "geometry": {
        "type": "Point",
        "coordinates": [
          81.596849,
          23.419333
        ]
      },
      "type": "Feature",
      "properties": {
        "hierarchy": [
          "tgn:7576596",
          "tgn:1000004",
          "tgn:7000198",
          "tgn:1001894",
          "tgn:7029392"
        ],
        "placetype": [
          "aat:300008347"
        ],
        "name:en": "Kharaini",
        "id": 7576596
      }
    },
    {
      "geometry": {
        "type": "Point",
        "coordinates": [
          87.50582,
          21.968261
        ]
      },
      "type": "Feature",
      "properties": {
        "hierarchy": [
          "tgn:7576597",
          "tgn:1000004",
          "tgn:7000198",
          "tgn:1001977",
          "tgn:7029392"
        ],
        "placetype": [
          "aat:300008347"
        ],
        "name:en": "Kharāi Kotbār",
        "id": 7576597
      }
    },
    {
      "geometry": {
        "type": "Point",
        "coordinates": [
          77.457161,
          25.30844
        ]
      },
      "type": "Feature",
      "properties": {
        "hierarchy": [
          "tgn:7576598",
          "tgn:1000004",
          "tgn:7000198",
          "tgn:1001894",
          "tgn:7029392"
        ],
        "placetype": [
          "aat:300008347"
        ],
        "name:en": "Kharai",
        "id": 7576598
      }
    },
    {
      "geometry": {
        "type": "Point",
        "coordinates": [
          77.004285,
          25.262587
        ]
      },
      "type": "Feature",
      "properties": {
        "hierarchy": [
          "tgn:7576599",
          "tgn:1000004",
          "tgn:7000198",
          "tgn:1001894",
          "tgn:7029392"
        ],
        "placetype": [
          "aat:300008347"
        ],
        "name:en": "Kharai",
        "id": 7576599
      }
    }
  ]
}
