{
  "type": "FeatureCollection",
  "features": [
    {
      "geometry": {
        "type": "Point",
        "coordinates": [
          76.116327,
          31.126117
        ]
      },
      "type": "Feature",
      "properties": {
        "hierarchy": [
          "tgn:1076400",
          "tgn:1000004",
          "tgn:7000198",
          "tgn:7016883",
          "tgn:7029392"
        ],
        "placetype": [
          "aat:300008347"
        ],
        "name:en": "Nawāshahr",
        "id": 1076400
      }
    },
    {
      "geometry": {
        "type": "Point",
        "coordinates": [
          75.273835,
          27.851607
        ]
      },
      "type": "Feature",
      "properties": {
        "hierarchy": [
          "tgn:1076401",
          "tgn:1000004",
          "tgn:7000198",
          "tgn:7016788",
          "tgn:7029392"
        ],
        "placetype": [
          "aat:300008347"
        ],
        "name:en": "Nawalgarh",
        "id": 1076401
      }
    },
    {
      "geometry": {
        "type": "Point",
        "coordinates": [
          88.25,
          23.4833
        ]
      },
      "type": "Feature",
      "properties": {
        "hierarchy": [
          "tgn:1076402",
          "tgn:1000004",
          "tgn:7000198",
          "tgn:1001977",
          "tgn:7029392"
        ],
        "placetype": [
          "aat:300008347"
        ],
        "id": 1076402,
        "name:xx": "Nawapārā"
      }
    },
    {
      "geometry": {
        "type": "Point",
        "coordinates": [
          77.3167,
          28.5833
        ]
      },
      "type": "Feature",
      "properties": {
        "hierarchy": [
          "tgn:1076403",
          "tgn:1000004",
          "tgn:7000198",
          "tgn:7016722",
          "tgn:7029392"
        ],
        "placetype": [
          "aat:300008347"
        ],
        "id": 1076403,
        "name:xx": "Nayābās"
      }
    },
    {
      "geometry": {
        "type": "Point",
        "coordinates": [
          85.09563,
          20.128564
        ]
      },
      "type": "Feature",
      "properties": {
        "hierarchy": [
          "tgn:1076404",
          "tgn:1000004",
          "tgn:7000198",
          "tgn:7016694",
          "tgn:7029392"
        ],
        "placetype": [
          "aat:300008347"
        ],
        "id": 1076404,
        "name:xx": "Nayagarh"
      }
    },
    {
      "geometry": {
        "type": "Point",
        "coordinates": [
          87.172205,
          22.032951
        ]
      },
      "type": "Feature",
      "properties": {
        "hierarchy": [
          "tgn:1076405",
          "tgn:1000004",
          "tgn:7000198",
          "tgn:1001977",
          "tgn:7029392"
        ],
        "placetype": [
          "aat:300008347"
        ],
        "name:en": "Nayāgrām",
        "id": 1076405
      }
    },
    {
      "geometry": {
        "type": "Point",
        "coordinates": [
          87.0167,
          21.5833
        ]
      },
      "type": "Feature",
      "properties": {
        "hierarchy": [
          "tgn:1076406",
          "tgn:1000004",
          "tgn:7000198",
          "tgn:7016694",
          "tgn:7029392"
        ],
        "placetype": [
          "aat:300008347"
        ],
        "id": 1076406,
        "name:xx": "Nayāpāra"
      }
    },
    {
      "geometry": {
        "type": "Point",
        "coordinates": [
          79.683333,
          11.766667
        ]
      },
      "type": "Feature",
      "properties": {
        "hierarchy": [
          "tgn:1076407",
          "tgn:1000004",
          "tgn:7000198",
          "tgn:7001797",
          "tgn:7029392"
        ],
        "placetype": [
          "aat:300008347"
        ],
        "name:en": "Nellikkuppam",
        "id": 1076407
      }
    },
    {
      "geometry": {
        "type": "Point",
        "coordinates": [
          77.0833,
          8.45
        ]
      },
      "type": "Feature",
      "properties": {
        "hierarchy": [
          "tgn:1076409",
          "tgn:1000004",
          "tgn:7000198",
          "tgn:1001886",
          "tgn:7029392"
        ],
        "placetype": [
          "aat:300008347"
        ],
        "id": 1076409,
        "name:xx": "Nemam"
      }
    }
  ]
}
