{
  "type": "FeatureCollection",
  "features": [
    {
      "geometry": {
        "type": "Point",
        "coordinates": [
          121.45,
          25.033333
        ]
      },
      "type": "Feature",
      "properties": {
        "hierarchy": [
          "tgn:7471220",
          "tgn:1000004",
          "tgn:1000454",
          "tgn:1000141",
          "tgn:7029392"
        ],
        "placetype": [
          "aat:300387173"
        ],
        "id": 7471220,
        "name:xx": "Xinzhuang Shi"
      }
    },
    {
      "geometry": {
        "type": "Point",
        "coordinates": [
          121.539324,
          25.06625
        ]
      },
      "type": "Feature",
      "properties": {
        "hierarchy": [
          "tgn:7471221",
          "tgn:1000004",
          "tgn:1000959",
          "tgn:1000141",
          "tgn:7029392"
        ],
        "placetype": [
          "aat:300000745"
        ],
        "id": 7471221,
        "name:xx": "Xixinzhuangzi"
      }
    },
    {
      "geometry": {
        "type": "Point",
        "coordinates": [
          121.236717,
          25.026032
        ]
      },
      "type": "Feature",
      "properties": {
        "hierarchy": [
          "tgn:7471223",
          "tgn:1000004",
          "tgn:7001013",
          "tgn:1000141",
          "tgn:7029392"
        ],
        "placetype": [
          "aat:300008347"
        ],
        "id": 7471223,
        "name:xx": "Xinzhuangzi"
      }
    },
    {
      "geometry": {
        "type": "Point",
        "coordinates": [
          120.964167,
          24.838889
        ]
      },
      "type": "Feature",
      "properties": {
        "hierarchy": [
          "tgn:7471224",
          "tgn:1000004",
          "tgn:7471332",
          "tgn:1000141",
          "tgn:7029392"
        ],
        "placetype": [
          "aat:300387173"
        ],
        "id": 7471224,
        "name:xx": "Xinzhuang Li"
      }
    },
    {
      "geometry": {
        "type": "Point",
        "coordinates": [
          120.828225,
          24.64233
        ]
      },
      "type": "Feature",
      "properties": {
        "hierarchy": [
          "tgn:7471225",
          "tgn:7487020",
          "tgn:1000004",
          "tgn:1000141",
          "tgn:7029392"
        ],
        "placetype": [
          "aat:300008347"
        ],
        "id": 7471225,
        "name:xx": "Xinzhuang"
      }
    },
    {
      "geometry": {
        "type": "Point",
        "coordinates": [
          120.630833,
          24.277222
        ]
      },
      "type": "Feature",
      "properties": {
        "hierarchy": [
          "tgn:7471228",
          "tgn:1000004",
          "tgn:7001009",
          "tgn:1000141",
          "tgn:7029392"
        ],
        "placetype": [
          "aat:300008347"
        ],
        "id": 7471228,
        "name:xx": "Xinzhuang"
      }
    },
    {
      "geometry": {
        "type": "Point",
        "coordinates": [
          120.6291,
          24.1482
        ]
      },
      "type": "Feature",
      "properties": {
        "hierarchy": [
          "tgn:7471229",
          "tgn:1000004",
          "tgn:7001009",
          "tgn:1000141",
          "tgn:7029392"
        ],
        "placetype": [
          "aat:300008347"
        ],
        "id": 7471229,
        "name:xx": "Xinzhuangzi"
      }
    }
  ]
}
