{
  "type": "FeatureCollection",
  "features": [
    {
      "geometry": {
        "type": "Point",
        "coordinates": [
          -3.383333,
          37.75
        ]
      },
      "type": "Feature",
      "properties": {
        "hierarchy": [
          "tgn:7346481",
          "tgn:7002758",
          "tgn:1001316",
          "tgn:1000003",
          "tgn:1000095",
          "tgn:7029392"
        ],
        "placetype": [
          "aat:300008347"
        ],
        "id": 7346481,
        "name:xx": "Bélmez"
      }
    },
    {
      "geometry": {
        "type": "Point",
        "coordinates": [
          0.817684,
          41.672688
        ]
      },
      "type": "Feature",
      "properties": {
        "hierarchy": [
          "tgn:7346482",
          "tgn:7008912",
          "tgn:7030216",
          "tgn:1000003",
          "tgn:1000095",
          "tgn:7029392"
        ],
        "placetype": [
          "aat:300008347"
        ],
        "id": 7346482,
        "name:xx": "Bellvís"
      }
    },
    {
      "geometry": {
        "type": "Point",
        "coordinates": [
          1.576908,
          41.2404
        ]
      },
      "type": "Feature",
      "properties": {
        "hierarchy": [
          "tgn:7346483",
          "tgn:7002808",
          "tgn:7030216",
          "tgn:1000003",
          "tgn:1000095",
          "tgn:7029392"
        ],
        "placetype": [
          "aat:300008347"
        ],
        "id": 7346483,
        "name:xx": "Bellvey"
      }
    },
    {
      "geometry": {
        "type": "Point",
        "coordinates": [
          2.616667,
          39.566667
        ]
      },
      "type": "Feature",
      "properties": {
        "hierarchy": [
          "tgn:7346484",
          "tgn:7001122",
          "tgn:1000003",
          "tgn:7002765",
          "tgn:1000095",
          "tgn:7029392"
        ],
        "placetype": [
          "aat:300006891"
        ],
        "id": 7346484,
        "name:xx": "Castillo de Bellver"
      }
    },
    {
      "geometry": {
        "type": "Point",
        "coordinates": [
          1.775481,
          42.369808
        ]
      },
      "type": "Feature",
      "properties": {
        "hierarchy": [
          "tgn:7346485",
          "tgn:7008912",
          "tgn:7030216",
          "tgn:1000003",
          "tgn:1000095",
          "tgn:7029392"
        ],
        "placetype": [
          "aat:300008347"
        ],
        "id": 7346485,
        "name:xx": "Bellver"
      }
    },
    {
      "geometry": {
        "type": "Point",
        "coordinates": [
          1.291577,
          41.75514
        ]
      },
      "type": "Feature",
      "properties": {
        "hierarchy": [
          "tgn:7346486",
          "tgn:7008912",
          "tgn:7030216",
          "tgn:1000003",
          "tgn:1000095",
          "tgn:7029392"
        ],
        "placetype": [
          "aat:300008347"
        ],
        "id": 7346486,
        "name:xx": "Bellvehí"
      }
    },
    {
      "geometry": {
        "type": "Point",
        "coordinates": [
          -0.483333,
          38.95
        ]
      },
      "type": "Feature",
      "properties": {
        "hierarchy": [
          "tgn:7346487",
          "tgn:7001165",
          "tgn:1000003",
          "tgn:7002793",
          "tgn:1000095",
          "tgn:7029392"
        ],
        "placetype": [
          "aat:300008347"
        ],
        "id": 7346487,
        "name:xx": "Bellús"
      }
    },
    {
      "geometry": {
        "type": "Point",
        "coordinates": [
          1.186076,
          41.504921
        ]
      },
      "type": "Feature",
      "properties": {
        "hierarchy": [
          "tgn:7346488",
          "tgn:7002844",
          "tgn:7030216",
          "tgn:1000003",
          "tgn:1000095",
          "tgn:7029392"
        ],
        "placetype": [
          "aat:300008347"
        ],
        "id": 7346488,
        "name:xx": "Belltal"
      }
    },
    {
      "geometry": {
        "type": "Point",
        "coordinates": [
          -0.116667,
          38.966667
        ]
      },
      "type": "Feature",
      "properties": {
        "hierarchy": [
          "tgn:7346489",
          "tgn:7001165",
          "tgn:1000003",
          "tgn:7002793",
          "tgn:1000095",
          "tgn:7029392"
        ],
        "placetype": [
          "aat:300008816"
        ],
        "id": 7346489,
        "name:xx": "Bellreguart, Playa de"
      }
    }
  ]
}
