{
  "type": "FeatureCollection",
  "features": [
    {
      "geometry": {
        "type": "Point",
        "coordinates": [
          121.760269,
          25.131457
        ]
      },
      "type": "Feature",
      "properties": {
        "hierarchy": [
          "tgn:7477220",
          "tgn:1000957",
          "tgn:1000004",
          "tgn:1000141",
          "tgn:7029392"
        ],
        "placetype": [
          "aat:300006495"
        ],
        "id": 7477220,
        "name:xx": "Dongxin Guoxiao"
      }
    },
    {
      "geometry": {
        "type": "Point",
        "coordinates": [
          121.797785,
          25.13869
        ]
      },
      "type": "Feature",
      "properties": {
        "hierarchy": [
          "tgn:7477221",
          "tgn:1000004",
          "tgn:1000454",
          "tgn:1000141",
          "tgn:7029392"
        ],
        "placetype": [
          "aat:300006495"
        ],
        "id": 7477221,
        "name:xx": "Badou Guoxiao"
      }
    },
    {
      "geometry": {
        "type": "Point",
        "coordinates": [
          121.928676,
          25.049604
        ]
      },
      "type": "Feature",
      "properties": {
        "hierarchy": [
          "tgn:7477222",
          "tgn:1000004",
          "tgn:1000454",
          "tgn:1000141",
          "tgn:7029392"
        ],
        "placetype": [
          "aat:300008699"
        ],
        "id": 7477222,
        "name:xx": "Shiding Xi"
      }
    },
    {
      "geometry": {
        "type": "Point",
        "coordinates": [
          121.946524,
          25.018533
        ]
      },
      "type": "Feature",
      "properties": {
        "hierarchy": [
          "tgn:7477223",
          "tgn:1000004",
          "tgn:1000454",
          "tgn:1000141",
          "tgn:7029392"
        ],
        "placetype": [
          "aat:300008699"
        ],
        "id": 7477223,
        "name:xx": "Jilong Xi"
      }
    },
    {
      "geometry": {
        "type": "Point",
        "coordinates": [
          121.87513,
          25.022433
        ]
      },
      "type": "Feature",
      "properties": {
        "hierarchy": [
          "tgn:7477224",
          "tgn:1000004",
          "tgn:1000454",
          "tgn:1000141",
          "tgn:7029392"
        ],
        "placetype": [
          "aat:300008699"
        ],
        "id": 7477224,
        "name:xx": "Dingzilan Xi"
      }
    },
    {
      "geometry": {
        "type": "Point",
        "coordinates": [
          121.761903,
          25.032997
        ]
      },
      "type": "Feature",
      "properties": {
        "hierarchy": [
          "tgn:7477225",
          "tgn:1000004",
          "tgn:1000454",
          "tgn:1000141",
          "tgn:7029392"
        ],
        "placetype": [
          "aat:300008699"
        ],
        "id": 7477225,
        "name:xx": "Huiyao Xi"
      }
    },
    {
      "geometry": {
        "type": "Point",
        "coordinates": [
          121.823119,
          25.021582
        ]
      },
      "type": "Feature",
      "properties": {
        "hierarchy": [
          "tgn:7477226",
          "tgn:1000004",
          "tgn:1000454",
          "tgn:1000141",
          "tgn:7029392"
        ],
        "placetype": [
          "aat:300008699"
        ],
        "id": 7477226,
        "name:xx": "Sanchakeng Xi"
      }
    },
    {
      "geometry": {
        "type": "Point",
        "coordinates": [
          119.607306,
          23.58458
        ]
      },
      "type": "Feature",
      "properties": {
        "hierarchy": [
          "tgn:7477227",
          "tgn:1000004",
          "tgn:7004300",
          "tgn:1000141",
          "tgn:7029392"
        ],
        "placetype": [
          "aat:300008347"
        ],
        "id": 7477227,
        "name:xx": "Hutoushan"
      }
    },
    {
      "geometry": {
        "type": "Point",
        "coordinates": [
          119.56281,
          23.657608
        ]
      },
      "type": "Feature",
      "properties": {
        "hierarchy": [
          "tgn:7477228",
          "tgn:1000004",
          "tgn:7004300",
          "tgn:1000141",
          "tgn:7029392"
        ],
        "placetype": [
          "aat:300007595"
        ],
        "id": 7477228,
        "name:xx": "Fude Ci"
      }
    },
    {
      "geometry": {
        "type": "Point",
        "coordinates": [
          119.572071,
          23.664261
        ]
      },
      "type": "Feature",
      "properties": {
        "hierarchy": [
          "tgn:7477229",
          "tgn:1000004",
          "tgn:7004300",
          "tgn:1000141",
          "tgn:7029392"
        ],
        "placetype": [
          "aat:300008347"
        ],
        "id": 7477229,
        "name:xx": "Jianshan"
      }
    }
  ]
}
