{
  "type": "FeatureCollection",
  "features": [
    {
      "geometry": {
        "type": "Point",
        "coordinates": [
          79.9263,
          27.1267
        ]
      },
      "type": "Feature",
      "properties": {
        "hierarchy": [
          "tgn:7562010",
          "tgn:1000004",
          "tgn:7000198",
          "tgn:7016722",
          "tgn:7029392"
        ],
        "placetype": [
          "aat:300008347"
        ],
        "name:en": "Py훮re Purwa",
        "id": 7562010
      }
    },
    {
      "geometry": {
        "type": "Point",
        "coordinates": [
          79.9582,
          27.1394
        ]
      },
      "type": "Feature",
      "properties": {
        "hierarchy": [
          "tgn:7562011",
          "tgn:1000004",
          "tgn:7000198",
          "tgn:7016722",
          "tgn:7029392"
        ],
        "placetype": [
          "aat:300008347"
        ],
        "name:en": "Jaraila",
        "id": 7562011
      }
    },
    {
      "geometry": {
        "type": "Point",
        "coordinates": [
          79.9685,
          27.1317
        ]
      },
      "type": "Feature",
      "properties": {
        "hierarchy": [
          "tgn:7562012",
          "tgn:1000004",
          "tgn:7000198",
          "tgn:7016722",
          "tgn:7029392"
        ],
        "placetype": [
          "aat:300008347"
        ],
        "name:en": "Bilohi",
        "id": 7562012
      }
    },
    {
      "geometry": {
        "type": "Point",
        "coordinates": [
          79.9892,
          27.0893
        ]
      },
      "type": "Feature",
      "properties": {
        "hierarchy": [
          "tgn:7562013",
          "tgn:1000004",
          "tgn:7000198",
          "tgn:7016722",
          "tgn:7029392"
        ],
        "placetype": [
          "aat:300008347"
        ],
        "name:en": "Chiranji Purwa",
        "id": 7562013
      }
    },
    {
      "geometry": {
        "type": "Point",
        "coordinates": [
          79.9907,
          27.0931
        ]
      },
      "type": "Feature",
      "properties": {
        "hierarchy": [
          "tgn:7562014",
          "tgn:1000004",
          "tgn:7000198",
          "tgn:7016722",
          "tgn:7029392"
        ],
        "placetype": [
          "aat:300008347"
        ],
        "name:en": "Sun훮li Purwa",
        "id": 7562014
      }
    },
    {
      "geometry": {
        "type": "Point",
        "coordinates": [
          79.9864,
          27.0935
        ]
      },
      "type": "Feature",
      "properties": {
        "hierarchy": [
          "tgn:7562015",
          "tgn:1000004",
          "tgn:7000198",
          "tgn:7016722",
          "tgn:7029392"
        ],
        "placetype": [
          "aat:300008347"
        ],
        "name:en": "Daneh Purwa",
        "id": 7562015
      }
    },
    {
      "geometry": {
        "type": "Point",
        "coordinates": [
          79.9921,
          27.0953
        ]
      },
      "type": "Feature",
      "properties": {
        "hierarchy": [
          "tgn:7562016",
          "tgn:1000004",
          "tgn:7000198",
          "tgn:7016722",
          "tgn:7029392"
        ],
        "placetype": [
          "aat:300008347"
        ],
        "name:en": "Mohan Purwa",
        "id": 7562016
      }
    },
    {
      "geometry": {
        "type": "Point",
        "coordinates": [
          79.9879,
          27.1011
        ]
      },
      "type": "Feature",
      "properties": {
        "hierarchy": [
          "tgn:7562017",
          "tgn:1000004",
          "tgn:7000198",
          "tgn:7016722",
          "tgn:7029392"
        ],
        "placetype": [
          "aat:300008347"
        ],
        "name:en": "Chaudi Purwa",
        "id": 7562017
      }
    },
    {
      "geometry": {
        "type": "Point",
        "coordinates": [
          79.998,
          27.1055
        ]
      },
      "type": "Feature",
      "properties": {
        "hierarchy": [
          "tgn:7562018",
          "tgn:1000004",
          "tgn:7000198",
          "tgn:7016722",
          "tgn:7029392"
        ],
        "placetype": [
          "aat:300008347"
        ],
        "name:en": "Chhibr훮mau",
        "id": 7562018
      }
    },
    {
      "geometry": {
        "type": "Point",
        "coordinates": [
          79.9881,
          27.1146
        ]
      },
      "type": "Feature",
      "properties": {
        "hierarchy": [
          "tgn:7562019",
          "tgn:1000004",
          "tgn:7000198",
          "tgn:7016722",
          "tgn:7029392"
        ],
        "placetype": [
          "aat:300008347"
        ],
        "name:en": "Bh카kh Purwa",
        "id": 7562019
      }
    }
  ]
}
