{
  "type": "FeatureCollection",
  "features": [
    {
      "geometry": {
        "type": "Point",
        "coordinates": [
          79.9417,
          27.0556
        ]
      },
      "type": "Feature",
      "properties": {
        "hierarchy": [
          "tgn:7563280",
          "tgn:1000004",
          "tgn:7000198",
          "tgn:7016722",
          "tgn:7029392"
        ],
        "placetype": [
          "aat:300008347"
        ],
        "name:en": "Kannauj Kachhoha",
        "id": 7563280
      }
    },
    {
      "geometry": {
        "type": "Point",
        "coordinates": [
          79.9415,
          27.0588
        ]
      },
      "type": "Feature",
      "properties": {
        "hierarchy": [
          "tgn:7563281",
          "tgn:1000004",
          "tgn:7000198",
          "tgn:7016722",
          "tgn:7029392"
        ],
        "placetype": [
          "aat:300008347"
        ],
        "name:en": "Daryāpurpatti",
        "id": 7563281
      }
    },
    {
      "geometry": {
        "type": "Point",
        "coordinates": [
          79.9224,
          27.0626
        ]
      },
      "type": "Feature",
      "properties": {
        "hierarchy": [
          "tgn:7563282",
          "tgn:1000004",
          "tgn:7000198",
          "tgn:7016722",
          "tgn:7029392"
        ],
        "placetype": [
          "aat:300008347"
        ],
        "name:en": "Daryāpur Rāibhān",
        "id": 7563282
      }
    },
    {
      "geometry": {
        "type": "Point",
        "coordinates": [
          79.9411,
          27.0646
        ]
      },
      "type": "Feature",
      "properties": {
        "hierarchy": [
          "tgn:7563283",
          "tgn:1000004",
          "tgn:7000198",
          "tgn:7016722",
          "tgn:7029392"
        ],
        "placetype": [
          "aat:300008347"
        ],
        "name:en": "Daryāpur Chandai",
        "id": 7563283
      }
    },
    {
      "geometry": {
        "type": "Point",
        "coordinates": [
          79.9353,
          27.0685
        ]
      },
      "type": "Feature",
      "properties": {
        "hierarchy": [
          "tgn:7563284",
          "tgn:1000004",
          "tgn:7000198",
          "tgn:7016722",
          "tgn:7029392"
        ],
        "placetype": [
          "aat:300008347"
        ],
        "name:en": "Salempur Ramai",
        "id": 7563284
      }
    },
    {
      "geometry": {
        "type": "Point",
        "coordinates": [
          79.9279,
          27.0704
        ]
      },
      "type": "Feature",
      "properties": {
        "hierarchy": [
          "tgn:7563285",
          "tgn:1000004",
          "tgn:7000198",
          "tgn:7016722",
          "tgn:7029392"
        ],
        "placetype": [
          "aat:300008347"
        ],
        "name:en": "Kandrauli Kachhoha",
        "id": 7563285
      }
    },
    {
      "geometry": {
        "type": "Point",
        "coordinates": [
          79.9435,
          27.0713
        ]
      },
      "type": "Feature",
      "properties": {
        "hierarchy": [
          "tgn:7563286",
          "tgn:1000004",
          "tgn:7000198",
          "tgn:7016722",
          "tgn:7029392"
        ],
        "placetype": [
          "aat:300008347"
        ],
        "name:en": "Likkha Purwa",
        "id": 7563286
      }
    },
    {
      "geometry": {
        "type": "Point",
        "coordinates": [
          79.9383,
          27.072
        ]
      },
      "type": "Feature",
      "properties": {
        "hierarchy": [
          "tgn:7563287",
          "tgn:1000004",
          "tgn:7000198",
          "tgn:7016722",
          "tgn:7029392"
        ],
        "placetype": [
          "aat:300008347"
        ],
        "name:en": "Tula Purwa",
        "id": 7563287
      }
    },
    {
      "geometry": {
        "type": "Point",
        "coordinates": [
          79.9312,
          27.0762
        ]
      },
      "type": "Feature",
      "properties": {
        "hierarchy": [
          "tgn:7563288",
          "tgn:1000004",
          "tgn:7000198",
          "tgn:7016722",
          "tgn:7029392"
        ],
        "placetype": [
          "aat:300008347"
        ],
        "name:en": "Jalālpur Amra",
        "id": 7563288
      }
    },
    {
      "geometry": {
        "type": "Point",
        "coordinates": [
          79.9172,
          27.0767
        ]
      },
      "type": "Feature",
      "properties": {
        "hierarchy": [
          "tgn:7563289",
          "tgn:1000004",
          "tgn:7000198",
          "tgn:7016722",
          "tgn:7029392"
        ],
        "placetype": [
          "aat:300008347"
        ],
        "name:en": "Chintāman Purwa",
        "id": 7563289
      }
    }
  ]
}
