{
  "type": "FeatureCollection",
  "features": [
    {
      "geometry": {
        "type": "Point",
        "coordinates": [
          -98.156111,
          16.476944
        ]
      },
      "type": "Feature",
      "properties": {
        "hierarchy": [
          "tgn:7417350",
          "tgn:1000001",
          "tgn:7005591",
          "tgn:7005560",
          "tgn:7029392"
        ],
        "placetype": [
          "aat:300008347"
        ],
        "id": 7417350,
        "name:es": "La Cañada"
      }
    },
    {
      "geometry": {
        "type": "Point",
        "coordinates": [
          -98.124444,
          16.453333
        ]
      },
      "type": "Feature",
      "properties": {
        "hierarchy": [
          "tgn:7417351",
          "tgn:1000001",
          "tgn:7005591",
          "tgn:7005560",
          "tgn:7029392"
        ],
        "placetype": [
          "aat:300008347"
        ],
        "id": 7417351,
        "name:es": "El Zapote"
      }
    },
    {
      "geometry": {
        "type": "Point",
        "coordinates": [
          -98.069444,
          16.452778
        ]
      },
      "type": "Feature",
      "properties": {
        "hierarchy": [
          "tgn:7417352",
          "tgn:1000001",
          "tgn:7005591",
          "tgn:7005560",
          "tgn:7029392"
        ],
        "placetype": [
          "aat:300008347"
        ],
        "id": 7417352,
        "name:es": "El Terrero"
      }
    },
    {
      "geometry": {
        "type": "Point",
        "coordinates": [
          -98.035556,
          16.454444
        ]
      },
      "type": "Feature",
      "properties": {
        "hierarchy": [
          "tgn:7417353",
          "tgn:1000001",
          "tgn:7005591",
          "tgn:7005560",
          "tgn:7029392"
        ],
        "placetype": [
          "aat:300008347"
        ],
        "id": 7417353,
        "name:es": "Yutandayoo"
      }
    },
    {
      "geometry": {
        "type": "Point",
        "coordinates": [
          -98.549444,
          16.495833
        ]
      },
      "type": "Feature",
      "properties": {
        "hierarchy": [
          "tgn:7417354",
          "tgn:1000001",
          "tgn:7005591",
          "tgn:7005560",
          "tgn:7029392"
        ],
        "placetype": [
          "aat:300008347"
        ],
        "id": 7417354,
        "name:es": "Yerbabuena"
      }
    },
    {
      "geometry": {
        "type": "Point",
        "coordinates": [
          -98.059722,
          16.544444
        ]
      },
      "type": "Feature",
      "properties": {
        "hierarchy": [
          "tgn:7417355",
          "tgn:1000001",
          "tgn:7005591",
          "tgn:7005560",
          "tgn:7029392"
        ],
        "placetype": [
          "aat:300008347"
        ],
        "id": 7417355,
        "name:es": "San Antonio Tepetlapa"
      }
    },
    {
      "geometry": {
        "type": "Point",
        "coordinates": [
          -98.0625,
          16.514167
        ]
      },
      "type": "Feature",
      "properties": {
        "hierarchy": [
          "tgn:7417356",
          "tgn:1000001",
          "tgn:7005591",
          "tgn:7005560",
          "tgn:7029392"
        ],
        "placetype": [
          "aat:300008699"
        ],
        "id": 7417356,
        "name:es": "Hamaca, Río"
      }
    },
    {
      "geometry": {
        "type": "Point",
        "coordinates": [
          -98.030556,
          16.538056
        ]
      },
      "type": "Feature",
      "properties": {
        "hierarchy": [
          "tgn:7417357",
          "tgn:1000001",
          "tgn:7005591",
          "tgn:7005560",
          "tgn:7029392"
        ],
        "placetype": [
          "aat:300008347"
        ],
        "id": 7417357,
        "name:es": "Tulixtlahuaca"
      }
    },
    {
      "geometry": {
        "type": "Point",
        "coordinates": [
          -97.976944,
          16.5325
        ]
      },
      "type": "Feature",
      "properties": {
        "hierarchy": [
          "tgn:7417358",
          "tgn:1000001",
          "tgn:7005591",
          "tgn:7005560",
          "tgn:7029392"
        ],
        "placetype": [
          "aat:300008347"
        ],
        "id": 7417358,
        "name:es": "Cruz Colorada"
      }
    },
    {
      "geometry": {
        "type": "Point",
        "coordinates": [
          -97.945833,
          16.5175
        ]
      },
      "type": "Feature",
      "properties": {
        "hierarchy": [
          "tgn:7417359",
          "tgn:1000001",
          "tgn:7005591",
          "tgn:7005560",
          "tgn:7029392"
        ],
        "placetype": [
          "aat:300008347"
        ],
        "id": 7417359,
        "name:es": "San Antonio"
      }
    }
  ]
}
