{
  "type": "FeatureCollection",
  "features": [
    {
      "geometry": {
        "type": "Point",
        "coordinates": [
          31.195554,
          29.327706
        ]
      },
      "type": "Feature",
      "properties": {
        "hierarchy": [
          "tgn:7542910",
          "tgn:7001242",
          "tgn:7016833",
          "tgn:1001142",
          "tgn:7029392"
        ],
        "placetype": [
          "aat:300006075"
        ],
        "name:en": "Tir'at Maydūm",
        "id": 7542910
      }
    },
    {
      "geometry": {
        "type": "Point",
        "coordinates": [
          31.038611,
          29.355278
        ]
      },
      "type": "Feature",
      "properties": {
        "hierarchy": [
          "tgn:7542911",
          "tgn:7001242",
          "tgn:7001105",
          "tgn:7016833",
          "tgn:7029392"
        ],
        "placetype": [
          "aat:300006075"
        ],
        "name:en": "Baḩr al Khawājāt",
        "id": 7542911
      }
    },
    {
      "geometry": {
        "type": "Point",
        "coordinates": [
          31.238889,
          29.346944
        ]
      },
      "type": "Feature",
      "properties": {
        "hierarchy": [
          "tgn:7542912",
          "tgn:7001242",
          "tgn:7016833",
          "tgn:1001083",
          "tgn:7029392"
        ],
        "placetype": [
          "aat:300008347"
        ],
        "name:en": "Nazlat Tarjam",
        "id": 7542912
      }
    },
    {
      "geometry": {
        "type": "Point",
        "coordinates": [
          31.228889,
          29.312778
        ]
      },
      "type": "Feature",
      "properties": {
        "hierarchy": [
          "tgn:7542913",
          "tgn:7001242",
          "tgn:7016833",
          "tgn:1001083",
          "tgn:7029392"
        ],
        "placetype": [
          "aat:300006075"
        ],
        "name:en": "Tir'at al Masjid Mūsā Qiblīyah",
        "id": 7542913
      }
    },
    {
      "geometry": {
        "type": "Point",
        "coordinates": [
          31.08426,
          29.270082
        ]
      },
      "type": "Feature",
      "properties": {
        "hierarchy": [
          "tgn:7542914",
          "tgn:7001242",
          "tgn:7016833",
          "tgn:1001142",
          "tgn:7029392"
        ],
        "placetype": [
          "aat:300006075"
        ],
        "name:en": "Tir'at al Ma'şarah",
        "id": 7542914
      }
    },
    {
      "geometry": {
        "type": "Point",
        "coordinates": [
          31.21784,
          29.246894
        ]
      },
      "type": "Feature",
      "properties": {
        "hierarchy": [
          "tgn:7542915",
          "tgn:7001242",
          "tgn:7001105",
          "tgn:7016833",
          "tgn:7029392"
        ],
        "placetype": [
          "aat:300008791"
        ],
        "name:en": "Kuraymāt, Jazīrat al",
        "id": 7542915
      }
    },
    {
      "geometry": {
        "type": "Point",
        "coordinates": [
          31.236111,
          29.236111
        ]
      },
      "type": "Feature",
      "properties": {
        "hierarchy": [
          "tgn:7542916",
          "tgn:7001242",
          "tgn:7001105",
          "tgn:7016833",
          "tgn:7029392"
        ],
        "placetype": [
          "aat:300006075"
        ],
        "name:en": "Tir'at Dalāş",
        "id": 7542916
      }
    },
    {
      "geometry": {
        "type": "Point",
        "coordinates": [
          31.075688,
          29.226223
        ]
      },
      "type": "Feature",
      "properties": {
        "hierarchy": [
          "tgn:7542917",
          "tgn:7001242",
          "tgn:7001105",
          "tgn:7016833",
          "tgn:7029392"
        ],
        "placetype": [
          "aat:300008347"
        ],
        "name:en": "'Izbat Ḩamīdah Abū al Ḩasan",
        "id": 7542917
      }
    },
    {
      "geometry": {
        "type": "Point",
        "coordinates": [
          31.178582,
          29.21663
        ]
      },
      "type": "Feature",
      "properties": {
        "hierarchy": [
          "tgn:7542918",
          "tgn:7001242",
          "tgn:7001105",
          "tgn:7016833",
          "tgn:7029392"
        ],
        "placetype": [
          "aat:300006075"
        ],
        "name:en": "Tir'at Ishmant al Gharbīyah",
        "id": 7542918
      }
    },
    {
      "geometry": {
        "type": "Point",
        "coordinates": [
          31.153538,
          29.216812
        ]
      },
      "type": "Feature",
      "properties": {
        "hierarchy": [
          "tgn:7542919",
          "tgn:7001242",
          "tgn:7001105",
          "tgn:7016833",
          "tgn:7029392"
        ],
        "placetype": [
          "aat:300008347"
        ],
        "name:en": "Ar Riyāḑ",
        "id": 7542919
      }
    }
  ]
}
