{
  "type": "FeatureCollection",
  "features": [
    {
      "geometry": {
        "type": "Point",
        "coordinates": [
          81.955556,
          20.558056
        ]
      },
      "type": "Feature",
      "properties": {
        "hierarchy": [
          "tgn:7552070",
          "tgn:1000004",
          "tgn:7031781",
          "tgn:7000198",
          "tgn:7029392"
        ],
        "placetype": [
          "aat:300008347"
        ],
        "name:en": "Deogaon",
        "id": 7552070
      }
    },
    {
      "geometry": {
        "type": "Point",
        "coordinates": [
          86.050691,
          21.162782
        ]
      },
      "type": "Feature",
      "properties": {
        "hierarchy": [
          "tgn:7552071",
          "tgn:1000004",
          "tgn:7000198",
          "tgn:7016694",
          "tgn:7029392"
        ],
        "placetype": [
          "aat:300008347"
        ],
        "name:en": "Deogaon",
        "id": 7552071
      }
    },
    {
      "geometry": {
        "type": "Point",
        "coordinates": [
          85.746992,
          20.697177
        ]
      },
      "type": "Feature",
      "properties": {
        "hierarchy": [
          "tgn:7552072",
          "tgn:1000004",
          "tgn:7000198",
          "tgn:7016694",
          "tgn:7029392"
        ],
        "placetype": [
          "aat:300008347"
        ],
        "name:en": "Deogān",
        "id": 7552072
      }
    },
    {
      "geometry": {
        "type": "Point",
        "coordinates": [
          83.416667,
          20.55
        ]
      },
      "type": "Feature",
      "properties": {
        "hierarchy": [
          "tgn:7552073",
          "tgn:1000004",
          "tgn:7000198",
          "tgn:7016694",
          "tgn:7029392"
        ],
        "placetype": [
          "aat:300008347"
        ],
        "name:en": "Deogān",
        "id": 7552073
      }
    },
    {
      "geometry": {
        "type": "Point",
        "coordinates": [
          73.333333,
          21.383333
        ]
      },
      "type": "Feature",
      "properties": {
        "hierarchy": [
          "tgn:7552074",
          "tgn:1000004",
          "tgn:1001869",
          "tgn:7000198",
          "tgn:7029392"
        ],
        "placetype": [
          "aat:300008347"
        ],
        "name:en": "Deogad",
        "id": 7552074
      }
    },
    {
      "geometry": {
        "type": "Point",
        "coordinates": [
          76.916667,
          16.433333
        ]
      },
      "type": "Feature",
      "properties": {
        "hierarchy": [
          "tgn:7552075",
          "tgn:1000004",
          "tgn:7000198",
          "tgn:1001882",
          "tgn:7029392"
        ],
        "placetype": [
          "aat:300008347"
        ],
        "name:en": "Deodrug",
        "id": 7552075
      }
    },
    {
      "geometry": {
        "type": "Point",
        "coordinates": [
          83.183333,
          24.65
        ]
      },
      "type": "Feature",
      "properties": {
        "hierarchy": [
          "tgn:7552076",
          "tgn:1000004",
          "tgn:7000198",
          "tgn:7016722",
          "tgn:7029392"
        ],
        "placetype": [
          "aat:300008736"
        ],
        "name:en": "Deo Dhari Falls",
        "id": 7552076
      }
    },
    {
      "geometry": {
        "type": "Point",
        "coordinates": [
          86.113109,
          26.623117
        ]
      },
      "type": "Feature",
      "properties": {
        "hierarchy": [
          "tgn:7552077",
          "tgn:1000004",
          "tgn:1001842",
          "tgn:7000198",
          "tgn:7029392"
        ],
        "placetype": [
          "aat:300008347"
        ],
        "name:en": "Deodha Bhadaur",
        "id": 7552077
      }
    },
    {
      "geometry": {
        "type": "Point",
        "coordinates": [
          76.983333,
          22.966667
        ]
      },
      "type": "Feature",
      "properties": {
        "hierarchy": [
          "tgn:7552078",
          "tgn:1000004",
          "tgn:7000198",
          "tgn:1001894",
          "tgn:7029392"
        ],
        "placetype": [
          "aat:300008347"
        ],
        "name:en": "Deodaiya",
        "id": 7552078
      }
    },
    {
      "geometry": {
        "type": "Point",
        "coordinates": [
          76.266667,
          18.966667
        ]
      },
      "type": "Feature",
      "properties": {
        "hierarchy": [
          "tgn:7552079",
          "tgn:1000004",
          "tgn:7000198",
          "tgn:1001895",
          "tgn:7029392"
        ],
        "placetype": [
          "aat:300008347"
        ],
        "name:en": "Deodahiphal",
        "id": 7552079
      }
    }
  ]
}
