{
  "type": "FeatureCollection",
  "features": [
    {
      "geometry": {
        "type": "Point",
        "coordinates": [
          120.541366,
          23.470795
        ]
      },
      "type": "Feature",
      "properties": {
        "hierarchy": [
          "tgn:7468531",
          "tgn:7468018",
          "tgn:1000004",
          "tgn:1000141",
          "tgn:7029392"
        ],
        "placetype": [
          "aat:300008347"
        ],
        "id": 7468531,
        "name:xx": "Xiakeng"
      }
    },
    {
      "geometry": {
        "type": "Point",
        "coordinates": [
          120.289722,
          22.869444
        ]
      },
      "type": "Feature",
      "properties": {
        "hierarchy": [
          "tgn:7468532",
          "tgn:7001004",
          "tgn:1000004",
          "tgn:1000141",
          "tgn:7029392"
        ],
        "placetype": [
          "aat:300008347"
        ],
        "id": 7468532,
        "name:xx": "Xiakeng"
      }
    },
    {
      "geometry": {
        "type": "Point",
        "coordinates": [
          120.75,
          24.516667
        ]
      },
      "type": "Feature",
      "properties": {
        "hierarchy": [
          "tgn:7468533",
          "tgn:7487020",
          "tgn:1000004",
          "tgn:1000141",
          "tgn:7029392"
        ],
        "placetype": [
          "aat:300008347"
        ],
        "id": 7468533,
        "name:xx": "Xiagaobu"
      }
    },
    {
      "geometry": {
        "type": "Point",
        "coordinates": [
          120.607271,
          24.08631
        ]
      },
      "type": "Feature",
      "properties": {
        "hierarchy": [
          "tgn:7468534",
          "tgn:1000004",
          "tgn:7467799",
          "tgn:1000141",
          "tgn:7029392"
        ],
        "placetype": [
          "aat:300008347"
        ],
        "id": 7468534,
        "name:xx": "Zhuzijiao"
      }
    },
    {
      "geometry": {
        "type": "Point",
        "coordinates": [
          120.522774,
          22.566016
        ]
      },
      "type": "Feature",
      "properties": {
        "hierarchy": [
          "tgn:7468535",
          "tgn:1000004",
          "tgn:7492971",
          "tgn:1000141",
          "tgn:7029392"
        ],
        "placetype": [
          "aat:300008347"
        ],
        "id": 7468535,
        "name:xx": "Xiagangwei"
      }
    },
    {
      "geometry": {
        "type": "Point",
        "coordinates": [
          120.521667,
          23.613333
        ]
      },
      "type": "Feature",
      "properties": {
        "hierarchy": [
          "tgn:7468536",
          "tgn:1000004",
          "tgn:7001014",
          "tgn:1000141",
          "tgn:7029392"
        ],
        "placetype": [
          "aat:300008347"
        ],
        "id": 7468536,
        "name:xx": "Xiakanjiao"
      }
    },
    {
      "geometry": {
        "type": "Point",
        "coordinates": [
          121.222699,
          25.016847
        ]
      },
      "type": "Feature",
      "properties": {
        "hierarchy": [
          "tgn:7468537",
          "tgn:1000004",
          "tgn:7001013",
          "tgn:1000141",
          "tgn:7029392"
        ],
        "placetype": [
          "aat:300008347"
        ],
        "id": 7468537,
        "name:xx": "Kanjiao"
      }
    },
    {
      "geometry": {
        "type": "Point",
        "coordinates": [
          121.295816,
          24.908561
        ]
      },
      "type": "Feature",
      "properties": {
        "hierarchy": [
          "tgn:7468538",
          "tgn:1000004",
          "tgn:7001013",
          "tgn:1000141",
          "tgn:7029392"
        ],
        "placetype": [
          "aat:300008347"
        ],
        "id": 7468538,
        "name:xx": "Xiakan"
      }
    },
    {
      "geometry": {
        "type": "Point",
        "coordinates": [
          120.664167,
          23.743333
        ]
      },
      "type": "Feature",
      "properties": {
        "hierarchy": [
          "tgn:7468539",
          "tgn:7488858",
          "tgn:1000004",
          "tgn:1000141",
          "tgn:7029392"
        ],
        "placetype": [
          "aat:300008347"
        ],
        "id": 7468539,
        "name:xx": "Xiakan"
      }
    }
  ]
}
