{
  "type": "FeatureCollection",
  "features": [
    {
      "geometry": {
        "type": "Point",
        "coordinates": [
          120.526873,
          23.4325
        ]
      },
      "type": "Feature",
      "properties": {
        "hierarchy": [
          "tgn:7493430",
          "tgn:7468018",
          "tgn:1000004",
          "tgn:1000141",
          "tgn:7029392"
        ],
        "placetype": [
          "aat:300007836"
        ],
        "id": 7493430,
        "name:xx": "Zhongxing Qiao"
      }
    },
    {
      "geometry": {
        "type": "Point",
        "coordinates": [
          120.554506,
          23.428403
        ]
      },
      "type": "Feature",
      "properties": {
        "hierarchy": [
          "tgn:7493431",
          "tgn:7468018",
          "tgn:1000004",
          "tgn:1000141",
          "tgn:7029392"
        ],
        "placetype": [
          "aat:300007836"
        ],
        "id": 7493431,
        "name:xx": "Wansong Qiao"
      }
    },
    {
      "geometry": {
        "type": "Point",
        "coordinates": [
          120.538938,
          23.428356
        ]
      },
      "type": "Feature",
      "properties": {
        "hierarchy": [
          "tgn:7493432",
          "tgn:7468018",
          "tgn:1000004",
          "tgn:1000141",
          "tgn:7029392"
        ],
        "placetype": [
          "aat:300007836"
        ],
        "id": 7493432,
        "name:xx": "Zhongzhen Qiao"
      }
    },
    {
      "geometry": {
        "type": "Point",
        "coordinates": [
          120.538584,
          23.439838
        ]
      },
      "type": "Feature",
      "properties": {
        "hierarchy": [
          "tgn:7493433",
          "tgn:7468018",
          "tgn:1000004",
          "tgn:1000141",
          "tgn:7029392"
        ],
        "placetype": [
          "aat:300006495"
        ],
        "id": 7493433,
        "name:xx": "Shekou Guoxiao"
      }
    },
    {
      "geometry": {
        "type": "Point",
        "coordinates": [
          120.540783,
          23.437598
        ]
      },
      "type": "Feature",
      "properties": {
        "hierarchy": [
          "tgn:7493434",
          "tgn:7468018",
          "tgn:1000004",
          "tgn:1000141",
          "tgn:7029392"
        ],
        "placetype": [
          "aat:300007836"
        ],
        "id": 7493434,
        "name:xx": "Fusheng Qiao"
      }
    },
    {
      "geometry": {
        "type": "Point",
        "coordinates": [
          120.543608,
          23.440031
        ]
      },
      "type": "Feature",
      "properties": {
        "hierarchy": [
          "tgn:7493435",
          "tgn:7468018",
          "tgn:1000004",
          "tgn:1000141",
          "tgn:7029392"
        ],
        "placetype": [
          "aat:300007836"
        ],
        "id": 7493435,
        "name:xx": "Xiecheng Qiao"
      }
    },
    {
      "geometry": {
        "type": "Point",
        "coordinates": [
          120.548392,
          23.441557
        ]
      },
      "type": "Feature",
      "properties": {
        "hierarchy": [
          "tgn:7493436",
          "tgn:7468018",
          "tgn:1000004",
          "tgn:1000141",
          "tgn:7029392"
        ],
        "placetype": [
          "aat:300007836"
        ],
        "id": 7493436,
        "name:xx": "Laixiang Qiao"
      }
    },
    {
      "geometry": {
        "type": "Point",
        "coordinates": [
          120.519224,
          23.442575
        ]
      },
      "type": "Feature",
      "properties": {
        "hierarchy": [
          "tgn:7493438",
          "tgn:7468018",
          "tgn:1000004",
          "tgn:1000141",
          "tgn:7029392"
        ],
        "placetype": [
          "aat:300266755"
        ],
        "id": 7493438,
        "name:xx": "Diba Gongmu"
      }
    },
    {
      "geometry": {
        "type": "Point",
        "coordinates": [
          120.511813,
          23.434421
        ]
      },
      "type": "Feature",
      "properties": {
        "hierarchy": [
          "tgn:7493439",
          "tgn:7468018",
          "tgn:1000004",
          "tgn:1000141",
          "tgn:7029392"
        ],
        "placetype": [
          "aat:300007836"
        ],
        "id": 7493439,
        "name:xx": "Yumin Qiao"
      }
    }
  ]
}
