{
  "type": "FeatureCollection",
  "features": [
    {
      "geometry": {
        "type": "Point",
        "coordinates": [
          -73.735,
          -42.951944
        ]
      },
      "type": "Feature",
      "properties": {
        "hierarchy": [
          "tgn:7276770",
          "tgn:1001699",
          "tgn:1000049",
          "tgn:1000002",
          "tgn:7029392"
        ],
        "placetype": [
          "aat:300008680"
        ],
        "id": 7276770,
        "name:xx": "Lago San Antonio"
      }
    },
    {
      "geometry": {
        "type": "Point",
        "coordinates": [
          -73.603611,
          -42.960556
        ]
      },
      "type": "Feature",
      "properties": {
        "hierarchy": [
          "tgn:7276771",
          "tgn:1001699",
          "tgn:1000049",
          "tgn:1000002",
          "tgn:7029392"
        ],
        "placetype": [
          "aat:300008699"
        ],
        "id": 7276771,
        "name:xx": "Río San Antonio"
      }
    },
    {
      "geometry": {
        "type": "Point",
        "coordinates": [
          -73.727222,
          -42.966111
        ]
      },
      "type": "Feature",
      "properties": {
        "hierarchy": [
          "tgn:7276772",
          "tgn:1001699",
          "tgn:1000049",
          "tgn:1000002",
          "tgn:7029392"
        ],
        "placetype": [
          "aat:300008347"
        ],
        "id": 7276772,
        "name:xx": "Colonia Yungay"
      }
    },
    {
      "geometry": {
        "type": "Point",
        "coordinates": [
          -73.610556,
          -43.021944
        ]
      },
      "type": "Feature",
      "properties": {
        "hierarchy": [
          "tgn:7276773",
          "tgn:1001699",
          "tgn:1000049",
          "tgn:1000002",
          "tgn:7029392"
        ],
        "placetype": [
          "aat:300008347"
        ],
        "id": 7276773,
        "name:xx": "Agua Fría"
      }
    },
    {
      "geometry": {
        "type": "Point",
        "coordinates": [
          -73.588056,
          -43.053611
        ]
      },
      "type": "Feature",
      "properties": {
        "hierarchy": [
          "tgn:7276774",
          "tgn:1001699",
          "tgn:1000049",
          "tgn:1000002",
          "tgn:7029392"
        ],
        "placetype": [
          "aat:300008347"
        ],
        "id": 7276774,
        "name:xx": "Santa Rosa"
      }
    },
    {
      "geometry": {
        "type": "Point",
        "coordinates": [
          -73.561667,
          -43.067778
        ]
      },
      "type": "Feature",
      "properties": {
        "hierarchy": [
          "tgn:7276775",
          "tgn:1001699",
          "tgn:1000049",
          "tgn:1000002",
          "tgn:7029392"
        ],
        "placetype": [
          "aat:300008347"
        ],
        "id": 7276775,
        "name:xx": "Candelaria"
      }
    },
    {
      "geometry": {
        "type": "Point",
        "coordinates": [
          -73.515833,
          -43.093333
        ]
      },
      "type": "Feature",
      "properties": {
        "hierarchy": [
          "tgn:7276776",
          "tgn:1001699",
          "tgn:1000049",
          "tgn:1000002",
          "tgn:7029392"
        ],
        "placetype": [
          "aat:300008347"
        ],
        "id": 7276776,
        "name:xx": "Oqueldán"
      }
    },
    {
      "geometry": {
        "type": "Point",
        "coordinates": [
          -73.546667,
          -43.102222
        ]
      },
      "type": "Feature",
      "properties": {
        "hierarchy": [
          "tgn:7276777",
          "tgn:1001699",
          "tgn:1000049",
          "tgn:1000002",
          "tgn:7029392"
        ],
        "placetype": [
          "aat:300008347"
        ],
        "id": 7276777,
        "name:xx": "San Antonio"
      }
    },
    {
      "geometry": {
        "type": "Point",
        "coordinates": [
          -73.531667,
          -43.126389
        ]
      },
      "type": "Feature",
      "properties": {
        "hierarchy": [
          "tgn:7276779",
          "tgn:1001699",
          "tgn:1000049",
          "tgn:1000002",
          "tgn:7029392"
        ],
        "placetype": [
          "aat:300387026"
        ],
        "id": 7276779,
        "name:xx": "Canal Chignao"
      }
    }
  ]
}
