{
  "type": "FeatureCollection",
  "features": [
    {
      "geometry": {
        "type": "Point",
        "coordinates": [
          -99.361667,
          19.344167
        ]
      },
      "type": "Feature",
      "properties": {
        "hierarchy": [
          "tgn:7397780",
          "tgn:1000001",
          "tgn:1001893",
          "tgn:7005560",
          "tgn:7029392"
        ],
        "placetype": [
          "aat:300008347"
        ],
        "id": 7397780,
        "name:xx": "Allende"
      }
    },
    {
      "geometry": {
        "type": "Point",
        "coordinates": [
          -99.15,
          19.451389
        ]
      },
      "type": "Feature",
      "properties": {
        "hierarchy": [
          "tgn:7397781",
          "tgn:7005575",
          "tgn:1000001",
          "tgn:7005560",
          "tgn:7029392"
        ],
        "placetype": [
          "aat:300007783"
        ],
        "id": 7397781,
        "name:xx": "Estación Buenavista"
      }
    },
    {
      "geometry": {
        "type": "Point",
        "coordinates": [
          -99.156944,
          19.417222
        ]
      },
      "type": "Feature",
      "properties": {
        "hierarchy": [
          "tgn:7397782",
          "tgn:7005575",
          "tgn:1000001",
          "tgn:7005560",
          "tgn:7029392"
        ],
        "placetype": [
          "aat:300008347"
        ],
        "id": 7397782,
        "name:xx": "Cuauhtémoc"
      }
    },
    {
      "geometry": {
        "type": "Point",
        "coordinates": [
          -99.28,
          19.340833
        ]
      },
      "type": "Feature",
      "properties": {
        "hierarchy": [
          "tgn:7397786",
          "tgn:7005575",
          "tgn:1000001",
          "tgn:7005560",
          "tgn:7029392"
        ],
        "placetype": [
          "aat:300008347"
        ],
        "id": 7397786,
        "name:xx": "San Mateo Tlaltenango"
      }
    },
    {
      "geometry": {
        "type": "Point",
        "coordinates": [
          -99.254444,
          19.354167
        ]
      },
      "type": "Feature",
      "properties": {
        "hierarchy": [
          "tgn:7397787",
          "tgn:7005575",
          "tgn:1000001",
          "tgn:7005560",
          "tgn:7029392"
        ],
        "placetype": [
          "aat:300008347"
        ],
        "id": 7397787,
        "name:xx": "Santa Lucía"
      }
    },
    {
      "geometry": {
        "type": "Point",
        "coordinates": [
          -99.327778,
          19.331667
        ]
      },
      "type": "Feature",
      "properties": {
        "hierarchy": [
          "tgn:7397788",
          "tgn:7005575",
          "tgn:1000001",
          "tgn:7005560",
          "tgn:7029392"
        ],
        "placetype": [
          "aat:300008347"
        ],
        "id": 7397788,
        "name:xx": "San Lorenzo Acopilco"
      }
    },
    {
      "geometry": {
        "type": "Point",
        "coordinates": [
          -99.265833,
          19.307778
        ]
      },
      "type": "Feature",
      "properties": {
        "hierarchy": [
          "tgn:7397789",
          "tgn:7005575",
          "tgn:1000001",
          "tgn:7005560",
          "tgn:7029392"
        ],
        "placetype": [
          "aat:300008347"
        ],
        "id": 7397789,
        "name:xx": "San Bernabe Ocotepec"
      }
    }
  ]
}
