{
  "type": "FeatureCollection",
  "features": [
    {
      "geometry": {
        "type": "Point",
        "coordinates": [
          88.177673,
          22.475135
        ]
      },
      "type": "Feature",
      "properties": {
        "hierarchy": [
          "tgn:1074882",
          "tgn:1000004",
          "tgn:7000198",
          "tgn:1001977",
          "tgn:7029392"
        ],
        "placetype": [
          "aat:300008347"
        ],
        "name:en": "Baj Baj",
        "id": 1074882
      }
    },
    {
      "geometry": {
        "type": "Point",
        "coordinates": [
          75.562052,
          29.927992
        ]
      },
      "type": "Feature",
      "properties": {
        "hierarchy": [
          "tgn:1074883",
          "tgn:1000004",
          "tgn:7000198",
          "tgn:7016883",
          "tgn:7029392"
        ],
        "placetype": [
          "aat:300008347"
        ],
        "name:en": "Budhl훮da",
        "id": 1074883
      }
    },
    {
      "geometry": {
        "type": "Point",
        "coordinates": [
          76.184,
          20.529
        ]
      },
      "type": "Feature",
      "properties": {
        "hierarchy": [
          "tgn:1074885",
          "tgn:1000004",
          "tgn:7000198",
          "tgn:1001895",
          "tgn:7029392"
        ],
        "placetype": [
          "aat:300008347"
        ],
        "name:en": "Buld훮na",
        "id": 1074885
      }
    },
    {
      "geometry": {
        "type": "Point",
        "coordinates": [
          72.933333,
          20.633333
        ]
      },
      "type": "Feature",
      "properties": {
        "hierarchy": [
          "tgn:1074886",
          "tgn:1000004",
          "tgn:1001869",
          "tgn:7000198",
          "tgn:7029392"
        ],
        "placetype": [
          "aat:300008347"
        ],
        "name:en": "Vals훮d",
        "id": 1074886
      }
    },
    {
      "geometry": {
        "type": "Point",
        "coordinates": [
          92.759026,
          22.33988
        ]
      },
      "type": "Feature",
      "properties": {
        "hierarchy": [
          "tgn:1074887",
          "tgn:1000004",
          "tgn:7000198",
          "tgn:1001998",
          "tgn:7029392"
        ],
        "placetype": [
          "aat:300008347"
        ],
        "name:en": "Bungtl훮ng",
        "id": 1074887
      }
    },
    {
      "geometry": {
        "type": "Point",
        "coordinates": [
          77.586557,
          25.832423
        ]
      },
      "type": "Feature",
      "properties": {
        "hierarchy": [
          "tgn:1074888",
          "tgn:1000004",
          "tgn:7000198",
          "tgn:1001894",
          "tgn:7029392"
        ],
        "placetype": [
          "aat:300008347"
        ],
        "name:en": "Burda",
        "id": 1074888
      }
    },
    {
      "geometry": {
        "type": "Point",
        "coordinates": [
          73.1167,
          19.1167
        ]
      },
      "type": "Feature",
      "properties": {
        "hierarchy": [
          "tgn:1074889",
          "tgn:1000004",
          "tgn:7000198",
          "tgn:1001895",
          "tgn:7029392"
        ],
        "placetype": [
          "aat:300008347"
        ],
        "id": 1074889,
        "name:xx": "Burdul"
      }
    }
  ]
}
