{
  "type": "FeatureCollection",
  "features": [
    {
      "geometry": {
        "type": "Point",
        "coordinates": [
          89.817375,
          26.289329
        ]
      },
      "type": "Feature",
      "properties": {
        "hierarchy": [
          "tgn:7566580",
          "tgn:1000004",
          "tgn:1001832",
          "tgn:7000198",
          "tgn:7029392"
        ],
        "placetype": [
          "aat:300008899"
        ],
        "name:en": "Bāmni Bīl",
        "id": 7566580
      }
    },
    {
      "geometry": {
        "type": "Point",
        "coordinates": [
          89.81149,
          26.262052
        ]
      },
      "type": "Feature",
      "properties": {
        "hierarchy": [
          "tgn:7566581",
          "tgn:1000004",
          "tgn:1001832",
          "tgn:7000198",
          "tgn:7029392"
        ],
        "placetype": [
          "aat:300008899"
        ],
        "name:en": "Beda Bīl",
        "id": 7566581
      }
    },
    {
      "geometry": {
        "type": "Point",
        "coordinates": [
          89.825175,
          26.265228
        ]
      },
      "type": "Feature",
      "properties": {
        "hierarchy": [
          "tgn:7566582",
          "tgn:1000004",
          "tgn:1001832",
          "tgn:7000198",
          "tgn:7029392"
        ],
        "placetype": [
          "aat:300008899"
        ],
        "name:en": "Solmāri Bīl",
        "id": 7566582
      }
    },
    {
      "geometry": {
        "type": "Point",
        "coordinates": [
          89.824615,
          26.258922
        ]
      },
      "type": "Feature",
      "properties": {
        "hierarchy": [
          "tgn:7566583",
          "tgn:1000004",
          "tgn:1001832",
          "tgn:7000198",
          "tgn:7029392"
        ],
        "placetype": [
          "aat:300008347"
        ],
        "name:en": "Lohajāni",
        "id": 7566583
      }
    },
    {
      "geometry": {
        "type": "Point",
        "coordinates": [
          89.827073,
          26.252401
        ]
      },
      "type": "Feature",
      "properties": {
        "hierarchy": [
          "tgn:7566584",
          "tgn:1000004",
          "tgn:1001832",
          "tgn:7000198",
          "tgn:7029392"
        ],
        "placetype": [
          "aat:300008699"
        ],
        "name:en": "Jhinjhini Nadi",
        "id": 7566584
      }
    },
    {
      "geometry": {
        "type": "Point",
        "coordinates": [
          89.8728,
          26.292687
        ]
      },
      "type": "Feature",
      "properties": {
        "hierarchy": [
          "tgn:7566585",
          "tgn:1000004",
          "tgn:1001832",
          "tgn:7000198",
          "tgn:7029392"
        ],
        "placetype": [
          "aat:300008347"
        ],
        "name:en": "Petla Ujān",
        "id": 7566585
      }
    },
    {
      "geometry": {
        "type": "Point",
        "coordinates": [
          89.850941,
          26.25149
        ]
      },
      "type": "Feature",
      "properties": {
        "hierarchy": [
          "tgn:7566586",
          "tgn:1000004",
          "tgn:1001832",
          "tgn:7000198",
          "tgn:7029392"
        ],
        "placetype": [
          "aat:300008347"
        ],
        "name:en": "Petla",
        "id": 7566586
      }
    },
    {
      "geometry": {
        "type": "Point",
        "coordinates": [
          89.856826,
          26.273256
        ]
      },
      "type": "Feature",
      "properties": {
        "hierarchy": [
          "tgn:7566587",
          "tgn:1000004",
          "tgn:1001832",
          "tgn:7000198",
          "tgn:7029392"
        ],
        "placetype": [
          "aat:300008347"
        ],
        "name:en": "Petla Maidhya",
        "id": 7566587
      }
    },
    {
      "geometry": {
        "type": "Point",
        "coordinates": [
          89.856546,
          26.256908
        ]
      },
      "type": "Feature",
      "properties": {
        "hierarchy": [
          "tgn:7566589",
          "tgn:1000004",
          "tgn:1001832",
          "tgn:7000198",
          "tgn:7029392"
        ],
        "placetype": [
          "aat:300008347"
        ],
        "name:en": "Petla Bhāti",
        "id": 7566589
      }
    }
  ]
}
