{
  "type": "FeatureCollection",
  "features": [
    {
      "geometry": {
        "type": "Point",
        "coordinates": [
          31.319412,
          30.109722
        ]
      },
      "type": "Feature",
      "properties": {
        "hierarchy": [
          "tgn:7529530",
          "tgn:7001242",
          "tgn:7016833",
          "tgn:1001091",
          "tgn:7029392"
        ],
        "placetype": [
          "aat:300004792"
        ],
        "id": 7529530,
        "name:xx": "Shirkat al Mashrū'āt al Handasīyah Stīlkū"
      }
    },
    {
      "geometry": {
        "type": "Point",
        "coordinates": [
          31.319058,
          30.111297
        ]
      },
      "type": "Feature",
      "properties": {
        "hierarchy": [
          "tgn:7529531",
          "tgn:7001242",
          "tgn:7016833",
          "tgn:1001091",
          "tgn:7029392"
        ],
        "placetype": [
          "aat:300004792"
        ],
        "id": 7529531,
        "name:xx": "Nādī as Sādis min Uktūbar lil Quwwāt al Musallaḩah"
      }
    },
    {
      "geometry": {
        "type": "Point",
        "coordinates": [
          31.317726,
          30.107524
        ]
      },
      "type": "Feature",
      "properties": {
        "hierarchy": [
          "tgn:7529532",
          "tgn:7001242",
          "tgn:7016833",
          "tgn:1001091",
          "tgn:7029392"
        ],
        "placetype": [
          "aat:300000745"
        ],
        "id": 7529532,
        "name:xx": "Ḩadā'iq az Zaytūn"
      }
    },
    {
      "geometry": {
        "type": "Point",
        "coordinates": [
          31.315451,
          30.11291
        ]
      },
      "type": "Feature",
      "properties": {
        "hierarchy": [
          "tgn:7529533",
          "tgn:7001242",
          "tgn:7016833",
          "tgn:1001091",
          "tgn:7029392"
        ],
        "placetype": [
          "aat:300006495"
        ],
        "id": 7529533,
        "name:xx": "Madrasat al Ḩilmīyah"
      }
    },
    {
      "geometry": {
        "type": "Point",
        "coordinates": [
          31.313981,
          30.113059
        ]
      },
      "type": "Feature",
      "properties": {
        "hierarchy": [
          "tgn:7529534",
          "tgn:7001242",
          "tgn:7016833",
          "tgn:1001091",
          "tgn:7029392"
        ],
        "placetype": [
          "aat:300007836"
        ],
        "id": 7529534,
        "name:xx": "Kūbrī al Ḩilmīyah"
      }
    },
    {
      "geometry": {
        "type": "Point",
        "coordinates": [
          31.323564,
          30.12134
        ]
      },
      "type": "Feature",
      "properties": {
        "hierarchy": [
          "tgn:7529535",
          "tgn:7001242",
          "tgn:7016833",
          "tgn:1001091",
          "tgn:7029392"
        ],
        "placetype": [
          "aat:300006610"
        ],
        "id": 7529535,
        "name:xx": "Al Ma'had al 'Ālī aş Şinā'ī at Tijārī"
      }
    },
    {
      "geometry": {
        "type": "Point",
        "coordinates": [
          31.314351,
          30.122338
        ]
      },
      "type": "Feature",
      "properties": {
        "hierarchy": [
          "tgn:7529536",
          "tgn:7001242",
          "tgn:7016833",
          "tgn:1001091",
          "tgn:7029392"
        ],
        "placetype": [
          "aat:300007836"
        ],
        "id": 7529536,
        "name:xx": "Kūbrī Mutḩaf al Maţarīyah"
      }
    },
    {
      "geometry": {
        "type": "Point",
        "coordinates": [
          31.319811,
          30.113871
        ]
      },
      "type": "Feature",
      "properties": {
        "hierarchy": [
          "tgn:7529537",
          "tgn:7001242",
          "tgn:7016833",
          "tgn:1001091",
          "tgn:7029392"
        ],
        "placetype": [
          "aat:300006676"
        ],
        "id": 7529537,
        "name:xx": "Al Mustashfá al 'Askarī"
      }
    },
    {
      "geometry": {
        "type": "Point",
        "coordinates": [
          31.313882,
          30.121336
        ]
      },
      "type": "Feature",
      "properties": {
        "hierarchy": [
          "tgn:7529538",
          "tgn:7001242",
          "tgn:7016833",
          "tgn:1001091",
          "tgn:7029392"
        ],
        "placetype": [
          "aat:300007780"
        ],
        "id": 7529538,
        "name:xx": "Al Maţarīyah"
      }
    },
    {
      "geometry": {
        "type": "Point",
        "coordinates": [
          31.311861,
          30.129345
        ]
      },
      "type": "Feature",
      "properties": {
        "hierarchy": [
          "tgn:7529539",
          "tgn:7001242",
          "tgn:7016833",
          "tgn:1001091",
          "tgn:7029392"
        ],
        "placetype": [
          "aat:300004792"
        ],
        "name:en": "Al Maţarīyah Central Telephone",
        "id": 7529539
      }
    }
  ]
}
