{
  "type": "FeatureCollection",
  "features": [
    {
      "geometry": {
        "type": "Point",
        "coordinates": [
          30.55,
          25.366667
        ]
      },
      "type": "Feature",
      "properties": {
        "hierarchy": [
          "tgn:7528150",
          "tgn:7001242",
          "tgn:7016833",
          "tgn:7001334",
          "tgn:7029392"
        ],
        "placetype": [
          "aat:300006909"
        ],
        "name:en": "Qasr Umm el-Nasim",
        "id": 7528150
      }
    },
    {
      "geometry": {
        "type": "Point",
        "coordinates": [
          31.784715,
          29.392934
        ]
      },
      "type": "Feature",
      "properties": {
        "hierarchy": [
          "tgn:7528151",
          "tgn:7001242",
          "tgn:7016833",
          "tgn:7029392"
        ],
        "placetype": [
          "aat:300379998"
        ],
        "name:en": "Umm 'Elîgâna, Wâdi",
        "id": 7528151
      }
    },
    {
      "geometry": {
        "type": "Point",
        "coordinates": [
          34.343709,
          25.012965
        ]
      },
      "type": "Feature",
      "properties": {
        "hierarchy": [
          "tgn:7528152",
          "tgn:7001242",
          "tgn:7001311",
          "tgn:7016833",
          "tgn:7029392"
        ],
        "placetype": [
          "aat:300008795"
        ],
        "name:en": "Umm el-Ḥuweiṭâṭ, Gebel",
        "id": 7528152
      }
    },
    {
      "geometry": {
        "type": "Point",
        "coordinates": [
          25.966667,
          31.533333
        ]
      },
      "type": "Feature",
      "properties": {
        "hierarchy": [
          "tgn:7528153",
          "tgn:7001242",
          "tgn:7016833",
          "tgn:1001418",
          "tgn:7029392"
        ],
        "placetype": [
          "aat:300006207"
        ],
        "name:en": "Sanyet Umm el Hamâm",
        "id": 7528153
      }
    },
    {
      "geometry": {
        "type": "Point",
        "coordinates": [
          33.983333,
          26.833333
        ]
      },
      "type": "Feature",
      "properties": {
        "hierarchy": [
          "tgn:7528154",
          "tgn:7001242",
          "tgn:7001311",
          "tgn:7016833",
          "tgn:7029392"
        ],
        "placetype": [
          "aat:300008791"
        ],
        "name:en": "Umm el-Gursân, Geziret",
        "id": 7528154
      }
    },
    {
      "geometry": {
        "type": "Point",
        "coordinates": [
          33.9325,
          29.381389
        ]
      },
      "type": "Feature",
      "properties": {
        "hierarchy": [
          "tgn:7528155",
          "tgn:7001242",
          "tgn:7016833",
          "tgn:7001336",
          "tgn:7029392"
        ],
        "placetype": [
          "aat:300379998"
        ],
        "name:en": "Umm al Jirdān, Wādī",
        "id": 7528155
      }
    },
    {
      "geometry": {
        "type": "Point",
        "coordinates": [
          34.227737,
          24.92646
        ]
      },
      "type": "Feature",
      "properties": {
        "hierarchy": [
          "tgn:7528156",
          "tgn:7001242",
          "tgn:7001311",
          "tgn:7016833",
          "tgn:7029392"
        ],
        "placetype": [
          "aat:300379998"
        ],
        "name:en": "Umm el-Farag, Rôd",
        "id": 7528156
      }
    },
    {
      "geometry": {
        "type": "Point",
        "coordinates": [
          33.504796,
          28.915031
        ]
      },
      "type": "Feature",
      "properties": {
        "hierarchy": [
          "tgn:7528157",
          "tgn:7001242",
          "tgn:7016833",
          "tgn:7001336",
          "tgn:7029392"
        ],
        "placetype": [
          "aat:300008795"
        ],
        "name:en": "Umm al Ghīlah, Jabal",
        "id": 7528157
      }
    },
    {
      "geometry": {
        "type": "Point",
        "coordinates": [
          33.026944,
          30.984722
        ]
      },
      "type": "Feature",
      "properties": {
        "hierarchy": [
          "tgn:7528158",
          "tgn:7001242",
          "tgn:7016833",
          "tgn:7001335",
          "tgn:7029392"
        ],
        "placetype": [
          "aat:300006207"
        ],
        "name:en": "Hôd Umm el- Dhawanin",
        "id": 7528158
      }
    },
    {
      "geometry": {
        "type": "Point",
        "coordinates": [
          34.943795,
          24.436364
        ]
      },
      "type": "Feature",
      "properties": {
        "hierarchy": [
          "tgn:7528159",
          "tgn:7001242",
          "tgn:7001311",
          "tgn:7016833",
          "tgn:7029392"
        ],
        "placetype": [
          "aat:300008795"
        ],
        "name:en": "Umm el-Abas, Gebel",
        "id": 7528159
      }
    }
  ]
}
