{
  "type": "FeatureCollection",
  "features": [
    {
      "geometry": {
        "type": "Point",
        "coordinates": [
          76.366667,
          19.066667
        ]
      },
      "type": "Feature",
      "properties": {
        "hierarchy": [
          "tgn:7557230",
          "tgn:1000004",
          "tgn:7000198",
          "tgn:1001895",
          "tgn:7029392"
        ],
        "placetype": [
          "aat:300008347"
        ],
        "name:en": "Sālegaon",
        "id": 7557230
      }
    },
    {
      "geometry": {
        "type": "Point",
        "coordinates": [
          83.533333,
          20.966667
        ]
      },
      "type": "Feature",
      "properties": {
        "hierarchy": [
          "tgn:7557231",
          "tgn:1000004",
          "tgn:7000198",
          "tgn:7016694",
          "tgn:7029392"
        ],
        "placetype": [
          "aat:300008347"
        ],
        "name:en": "Salebhata",
        "id": 7557231
      }
    },
    {
      "geometry": {
        "type": "Point",
        "coordinates": [
          86.269488,
          23.065139
        ]
      },
      "type": "Feature",
      "properties": {
        "hierarchy": [
          "tgn:7557232",
          "tgn:1000004",
          "tgn:7000198",
          "tgn:1001977",
          "tgn:7029392"
        ],
        "placetype": [
          "aat:300008347"
        ],
        "name:en": "Sālbani",
        "id": 7557232
      }
    },
    {
      "geometry": {
        "type": "Point",
        "coordinates": [
          80.366667,
          18.416667
        ]
      },
      "type": "Feature",
      "properties": {
        "hierarchy": [
          "tgn:7557234",
          "tgn:1001828",
          "tgn:1000004",
          "tgn:7000198",
          "tgn:7029392"
        ],
        "placetype": [
          "aat:300008347"
        ],
        "name:en": "Salbāka",
        "id": 7557234
      }
    },
    {
      "geometry": {
        "type": "Point",
        "coordinates": [
          69.566667,
          22.316667
        ]
      },
      "type": "Feature",
      "properties": {
        "hierarchy": [
          "tgn:7557235",
          "tgn:1000004",
          "tgn:1001869",
          "tgn:7000198",
          "tgn:7029392"
        ],
        "placetype": [
          "aat:300008678"
        ],
        "name:en": "Salāya Harbour",
        "id": 7557235
      }
    },
    {
      "geometry": {
        "type": "Point",
        "coordinates": [
          73.015088,
          26.138641
        ]
      },
      "type": "Feature",
      "properties": {
        "hierarchy": [
          "tgn:7557237",
          "tgn:1000004",
          "tgn:7000198",
          "tgn:7016788",
          "tgn:7029392"
        ],
        "placetype": [
          "aat:300007783"
        ],
        "name:en": "Sālāwās",
        "id": 7557237
      }
    },
    {
      "geometry": {
        "type": "Point",
        "coordinates": [
          72.982686,
          26.123595
        ]
      },
      "type": "Feature",
      "properties": {
        "hierarchy": [
          "tgn:7557238",
          "tgn:1000004",
          "tgn:7000198",
          "tgn:7016788",
          "tgn:7029392"
        ],
        "placetype": [
          "aat:300008347"
        ],
        "name:en": "Sālāwās",
        "id": 7557238
      }
    },
    {
      "geometry": {
        "type": "Point",
        "coordinates": [
          77.66075,
          29.229489
        ]
      },
      "type": "Feature",
      "properties": {
        "hierarchy": [
          "tgn:7557239",
          "tgn:1000004",
          "tgn:7000198",
          "tgn:7016722",
          "tgn:7029392"
        ],
        "placetype": [
          "aat:300008347"
        ],
        "name:en": "Salāwa",
        "id": 7557239
      }
    }
  ]
}
