{
  "type": "FeatureCollection",
  "features": [
    {
      "geometry": {
        "type": "Point",
        "coordinates": [
          13.001944,
          46.477222
        ]
      },
      "type": "Feature",
      "properties": {
        "hierarchy": [
          "tgn:7036260",
          "tgn:1003506",
          "tgn:1000003",
          "tgn:7002993",
          "tgn:1000080",
          "tgn:7029392"
        ],
        "placetype": [
          "aat:300008347"
        ],
        "id": 7036260,
        "name:xx": "Fielis"
      }
    },
    {
      "geometry": {
        "type": "Point",
        "coordinates": [
          13.039167,
          46.467222
        ]
      },
      "type": "Feature",
      "properties": {
        "hierarchy": [
          "tgn:7036261",
          "tgn:1003506",
          "tgn:1000003",
          "tgn:7002993",
          "tgn:1000080",
          "tgn:7029392"
        ],
        "placetype": [
          "aat:300008347"
        ],
        "id": 7036261,
        "name:xx": "Càbia"
      }
    },
    {
      "geometry": {
        "type": "Point",
        "coordinates": [
          13.014444,
          46.456389
        ]
      },
      "type": "Feature",
      "properties": {
        "hierarchy": [
          "tgn:7036262",
          "tgn:1003506",
          "tgn:1000003",
          "tgn:7002993",
          "tgn:1000080",
          "tgn:7029392"
        ],
        "placetype": [
          "aat:300008347"
        ],
        "id": 7036262,
        "name:xx": "Sezza"
      }
    },
    {
      "geometry": {
        "type": "Point",
        "coordinates": [
          13.022222,
          46.454722
        ]
      },
      "type": "Feature",
      "properties": {
        "hierarchy": [
          "tgn:7036263",
          "tgn:1003506",
          "tgn:1000003",
          "tgn:7002993",
          "tgn:1000080",
          "tgn:7029392"
        ],
        "placetype": [
          "aat:300008347"
        ],
        "id": 7036263,
        "name:xx": "Formeaso"
      }
    },
    {
      "geometry": {
        "type": "Point",
        "coordinates": [
          12.988611,
          46.456389
        ]
      },
      "type": "Feature",
      "properties": {
        "hierarchy": [
          "tgn:7036264",
          "tgn:1003506",
          "tgn:1000003",
          "tgn:7002993",
          "tgn:1000080",
          "tgn:7029392"
        ],
        "placetype": [
          "aat:300008795"
        ],
        "id": 7036264,
        "name:xx": "Cuar, Monte"
      }
    },
    {
      "geometry": {
        "type": "Point",
        "coordinates": [
          12.961111,
          46.45
        ]
      },
      "type": "Feature",
      "properties": {
        "hierarchy": [
          "tgn:7036265",
          "tgn:1003506",
          "tgn:1000003",
          "tgn:7002993",
          "tgn:1000080",
          "tgn:7029392"
        ],
        "placetype": [
          "aat:300008795"
        ],
        "id": 7036265,
        "name:xx": "Vas, Monte"
      }
    },
    {
      "geometry": {
        "type": "Point",
        "coordinates": [
          13.038333,
          46.421111
        ]
      },
      "type": "Feature",
      "properties": {
        "hierarchy": [
          "tgn:7036266",
          "tgn:1003506",
          "tgn:1000003",
          "tgn:7002993",
          "tgn:1000080",
          "tgn:7029392"
        ],
        "placetype": [
          "aat:300008795"
        ],
        "id": 7036266,
        "name:xx": "Strabût, Monte"
      }
    },
    {
      "geometry": {
        "type": "Point",
        "coordinates": [
          13.083333,
          46.450556
        ]
      },
      "type": "Feature",
      "properties": {
        "hierarchy": [
          "tgn:7036267",
          "tgn:1003506",
          "tgn:1000003",
          "tgn:7002993",
          "tgn:1000080",
          "tgn:7029392"
        ],
        "placetype": [
          "aat:300008795"
        ],
        "id": 7036267,
        "name:xx": "Oltreviso, Monte"
      }
    },
    {
      "geometry": {
        "type": "Point",
        "coordinates": [
          12.052222,
          45.515
        ]
      },
      "type": "Feature",
      "properties": {
        "hierarchy": [
          "tgn:7036268",
          "tgn:7003006",
          "tgn:1000003",
          "tgn:7002997",
          "tgn:1000080",
          "tgn:7029392"
        ],
        "placetype": [
          "aat:300008347"
        ],
        "id": 7036268,
        "name:xx": "Veternigo"
      }
    },
    {
      "geometry": {
        "type": "Point",
        "coordinates": [
          13.045833,
          46.446667
        ]
      },
      "type": "Feature",
      "properties": {
        "hierarchy": [
          "tgn:7036269",
          "tgn:1003506",
          "tgn:1000003",
          "tgn:7002993",
          "tgn:1000080",
          "tgn:7029392"
        ],
        "placetype": [
          "aat:300008347"
        ],
        "id": 7036269,
        "name:xx": "Imponzo"
      }
    }
  ]
}
