{
  "type": "FeatureCollection",
  "features": [
    {
      "geometry": {
        "type": "Point",
        "coordinates": [
          -72.491667,
          -42.578333
        ]
      },
      "type": "Feature",
      "properties": {
        "hierarchy": [
          "tgn:7277260",
          "tgn:1001699",
          "tgn:1000049",
          "tgn:1000002",
          "tgn:7029392"
        ],
        "placetype": [
          "aat:300008347"
        ],
        "id": 7277260,
        "name:xx": "Reñihué"
      }
    },
    {
      "geometry": {
        "type": "Point",
        "coordinates": [
          -72.478889,
          -42.550833
        ]
      },
      "type": "Feature",
      "properties": {
        "hierarchy": [
          "tgn:7277261",
          "tgn:1001699",
          "tgn:1000049",
          "tgn:1000002",
          "tgn:7029392"
        ],
        "placetype": [
          "aat:300008347"
        ],
        "id": 7277261,
        "name:xx": "Estero Lago"
      }
    },
    {
      "geometry": {
        "type": "Point",
        "coordinates": [
          -72.412778,
          -42.515833
        ]
      },
      "type": "Feature",
      "properties": {
        "hierarchy": [
          "tgn:7277262",
          "tgn:1001699",
          "tgn:1000049",
          "tgn:1000002",
          "tgn:7029392"
        ],
        "placetype": [
          "aat:300008795"
        ],
        "id": 7277262,
        "name:xx": "Cerro Centinela"
      }
    },
    {
      "geometry": {
        "type": "Point",
        "coordinates": [
          -72.356111,
          -42.475278
        ]
      },
      "type": "Feature",
      "properties": {
        "hierarchy": [
          "tgn:7277263",
          "tgn:1001699",
          "tgn:1000049",
          "tgn:1000002",
          "tgn:7029392"
        ],
        "placetype": [
          "aat:300008699"
        ],
        "id": 7277263,
        "name:xx": "Río Troliguán"
      }
    },
    {
      "geometry": {
        "type": "Point",
        "coordinates": [
          -72.358056,
          -42.411667
        ]
      },
      "type": "Feature",
      "properties": {
        "hierarchy": [
          "tgn:7277264",
          "tgn:1001699",
          "tgn:1000049",
          "tgn:1000002",
          "tgn:7029392"
        ],
        "placetype": [
          "aat:300008795"
        ],
        "id": 7277264,
        "name:xx": "Cerro Ugalde"
      }
    },
    {
      "geometry": {
        "type": "Point",
        "coordinates": [
          -72.439167,
          -42.406111
        ]
      },
      "type": "Feature",
      "properties": {
        "hierarchy": [
          "tgn:7277265",
          "tgn:1001699",
          "tgn:1000049",
          "tgn:1000002",
          "tgn:7029392"
        ],
        "placetype": [
          "aat:300008699"
        ],
        "id": 7277265,
        "name:xx": "Río Porcelana"
      }
    },
    {
      "geometry": {
        "type": "Point",
        "coordinates": [
          -72.353889,
          -42.361111
        ]
      },
      "type": "Feature",
      "properties": {
        "hierarchy": [
          "tgn:7277266",
          "tgn:1001699",
          "tgn:1000049",
          "tgn:1000002",
          "tgn:7029392"
        ],
        "placetype": [
          "aat:300008795"
        ],
        "id": 7277266,
        "name:xx": "Cerro Tambar"
      }
    },
    {
      "geometry": {
        "type": "Point",
        "coordinates": [
          -72.498611,
          -42.323611
        ]
      },
      "type": "Feature",
      "properties": {
        "hierarchy": [
          "tgn:7277267",
          "tgn:1001699",
          "tgn:1000049",
          "tgn:1000002",
          "tgn:7029392"
        ],
        "placetype": [
          "aat:300008676"
        ],
        "id": 7277267,
        "name:xx": "Estero Soledad"
      }
    },
    {
      "geometry": {
        "type": "Point",
        "coordinates": [
          -72.406667,
          -42.364167
        ]
      },
      "type": "Feature",
      "properties": {
        "hierarchy": [
          "tgn:7277268",
          "tgn:1001699",
          "tgn:1000049",
          "tgn:1000002",
          "tgn:7029392"
        ],
        "placetype": [
          "aat:300008699"
        ],
        "id": 7277268,
        "name:xx": "Río Huinal"
      }
    },
    {
      "geometry": {
        "type": "Point",
        "coordinates": [
          -72.411389,
          -42.2775
        ]
      },
      "type": "Feature",
      "properties": {
        "hierarchy": [
          "tgn:7277269",
          "tgn:1001699",
          "tgn:1000049",
          "tgn:1000002",
          "tgn:7029392"
        ],
        "placetype": [
          "aat:300008795"
        ],
        "id": 7277269,
        "name:xx": "Cerro Calamaso"
      }
    }
  ]
}
