{
  "type": "FeatureCollection",
  "features": [
    {
      "geometry": {
        "type": "Point",
        "coordinates": [
          -98.0833,
          39.0167
        ]
      },
      "type": "Feature",
      "properties": {
        "hierarchy": [
          "tgn:2037010",
          "tgn:1000001",
          "tgn:7012149",
          "tgn:2000712",
          "tgn:7007254",
          "tgn:7029392"
        ],
        "placetype": [
          "aat:300387016"
        ],
        "id": 2037010,
        "name:xx": "Quartzite"
      }
    },
    {
      "geometry": {
        "type": "Point",
        "coordinates": [
          -95.5167,
          38.5667
        ]
      },
      "type": "Feature",
      "properties": {
        "hierarchy": [
          "tgn:2037011",
          "tgn:1000001",
          "tgn:7012149",
          "tgn:2000729",
          "tgn:7007254",
          "tgn:7029392"
        ],
        "placetype": [
          "aat:300008347"
        ],
        "id": 2037011,
        "name:xx": "Quenemo"
      }
    },
    {
      "geometry": {
        "type": "Point",
        "coordinates": [
          -100.9167,
          37.9833
        ]
      },
      "type": "Feature",
      "properties": {
        "hierarchy": [
          "tgn:2037012",
          "tgn:1000001",
          "tgn:2000687",
          "tgn:7012149",
          "tgn:7007254",
          "tgn:7029392"
        ],
        "placetype": [
          "aat:300387016"
        ],
        "id": 2037012,
        "name:xx": "Quinby"
      }
    },
    {
      "geometry": {
        "type": "Point",
        "coordinates": [
          -95.9833,
          37.8667
        ]
      },
      "type": "Feature",
      "properties": {
        "hierarchy": [
          "tgn:2037013",
          "tgn:1000001",
          "tgn:2000696",
          "tgn:7012149",
          "tgn:7007254",
          "tgn:7029392"
        ],
        "placetype": [
          "aat:300008347"
        ],
        "id": 2037013,
        "name:xx": "Quincy"
      }
    },
    {
      "geometry": {
        "type": "Point",
        "coordinates": [
          -100.2167,
          39.0667
        ]
      },
      "type": "Feature",
      "properties": {
        "hierarchy": [
          "tgn:2037014",
          "tgn:1000001",
          "tgn:2000691",
          "tgn:7012149",
          "tgn:7007254",
          "tgn:7029392"
        ],
        "placetype": [
          "aat:300008347"
        ],
        "id": 2037014,
        "name:xx": "Quinter"
      }
    },
    {
      "geometry": {
        "type": "Point",
        "coordinates": [
          -98.8833,
          38.1667
        ]
      },
      "type": "Feature",
      "properties": {
        "hierarchy": [
          "tgn:2037015",
          "tgn:1000001",
          "tgn:7012149",
          "tgn:2000752",
          "tgn:7007254",
          "tgn:7029392"
        ],
        "placetype": [
          "aat:300008347"
        ],
        "id": 2037015,
        "name:xx": "Radium"
      }
    },
    {
      "geometry": {
        "type": "Point",
        "coordinates": [
          -94.75,
          37.4833
        ]
      },
      "type": "Feature",
      "properties": {
        "hierarchy": [
          "tgn:2037016",
          "tgn:1000001",
          "tgn:2000678",
          "tgn:7012149",
          "tgn:7007254",
          "tgn:7029392"
        ],
        "placetype": [
          "aat:300008347"
        ],
        "id": 2037016,
        "name:xx": "Radley"
      }
    },
    {
      "geometry": {
        "type": "Point",
        "coordinates": [
          -98.0667,
          37.45
        ]
      },
      "type": "Feature",
      "properties": {
        "hierarchy": [
          "tgn:2037017",
          "tgn:1000001",
          "tgn:7012149",
          "tgn:2000707",
          "tgn:7007254",
          "tgn:7029392"
        ],
        "placetype": [
          "aat:300008347"
        ],
        "id": 2037017,
        "name:xx": "Rago"
      }
    },
    {
      "geometry": {
        "type": "Point",
        "coordinates": [
          -97.05,
          38.5833
        ]
      },
      "type": "Feature",
      "properties": {
        "hierarchy": [
          "tgn:2037018",
          "tgn:1000001",
          "tgn:7012149",
          "tgn:2000717",
          "tgn:7007254",
          "tgn:7029392"
        ],
        "placetype": [
          "aat:300008347"
        ],
        "id": 2037018,
        "name:xx": "Ramona"
      }
    },
    {
      "geometry": {
        "type": "Point",
        "coordinates": [
          -98.0333,
          39.6333
        ]
      },
      "type": "Feature",
      "properties": {
        "hierarchy": [
          "tgn:2037019",
          "tgn:1000001",
          "tgn:2000704",
          "tgn:7012149",
          "tgn:7007254",
          "tgn:7029392"
        ],
        "placetype": [
          "aat:300008347"
        ],
        "id": 2037019,
        "name:xx": "Randall"
      }
    }
  ]
}
