{
  "type": "FeatureCollection",
  "features": [
    {
      "geometry": {
        "type": "Point",
        "coordinates": [
          77.479118,
          27.629456
        ]
      },
      "type": "Feature",
      "properties": {
        "hierarchy": [
          "tgn:7556530",
          "tgn:1000004",
          "tgn:7000198",
          "tgn:7016722",
          "tgn:7029392"
        ],
        "placetype": [
          "aat:300008347"
        ],
        "name:en": "Sahār",
        "id": 7556530
      }
    },
    {
      "geometry": {
        "type": "Point",
        "coordinates": [
          76.728115,
          26.607519
        ]
      },
      "type": "Feature",
      "properties": {
        "hierarchy": [
          "tgn:7556531",
          "tgn:1000004",
          "tgn:7000198",
          "tgn:7016788",
          "tgn:7029392"
        ],
        "placetype": [
          "aat:300008347"
        ],
        "name:en": "Shahar",
        "id": 7556531
      }
    },
    {
      "geometry": {
        "type": "Point",
        "coordinates": [
          85.861682,
          26.537643
        ]
      },
      "type": "Feature",
      "properties": {
        "hierarchy": [
          "tgn:7556532",
          "tgn:1000004",
          "tgn:1001842",
          "tgn:7000198",
          "tgn:7029392"
        ],
        "placetype": [
          "aat:300008347"
        ],
        "name:en": "Sāhar",
        "id": 7556532
      }
    },
    {
      "geometry": {
        "type": "Point",
        "coordinates": [
          84.625432,
          25.248952
        ]
      },
      "type": "Feature",
      "properties": {
        "hierarchy": [
          "tgn:7556533",
          "tgn:1000004",
          "tgn:1001842",
          "tgn:7000198",
          "tgn:7029392"
        ],
        "placetype": [
          "aat:300008347"
        ],
        "name:en": "Sahār",
        "id": 7556533
      }
    },
    {
      "geometry": {
        "type": "Point",
        "coordinates": [
          72.883333,
          19.05
        ]
      },
      "type": "Feature",
      "properties": {
        "hierarchy": [
          "tgn:7556534",
          "tgn:1000004",
          "tgn:7000198",
          "tgn:1001895",
          "tgn:7029392"
        ],
        "placetype": [
          "aat:300055621"
        ],
        "name:en": "Sahakārnagar",
        "id": 7556534
      }
    },
    {
      "geometry": {
        "type": "Point",
        "coordinates": [
          78.835371,
          23.30289
        ]
      },
      "type": "Feature",
      "properties": {
        "hierarchy": [
          "tgn:7556535",
          "tgn:1000004",
          "tgn:7000198",
          "tgn:1001894",
          "tgn:7029392"
        ],
        "placetype": [
          "aat:300008347"
        ],
        "name:en": "Sahajpur",
        "id": 7556535
      }
    },
    {
      "geometry": {
        "type": "Point",
        "coordinates": [
          88.394444,
          22.9275
        ]
      },
      "type": "Feature",
      "properties": {
        "hierarchy": [
          "tgn:7556536",
          "tgn:1000004",
          "tgn:7000198",
          "tgn:1001977",
          "tgn:7029392"
        ],
        "placetype": [
          "aat:300008347"
        ],
        "name:en": "Sahāganj",
        "id": 7556536
      }
    },
    {
      "geometry": {
        "type": "Point",
        "coordinates": [
          76.97582,
          30.312161
        ]
      },
      "type": "Feature",
      "properties": {
        "hierarchy": [
          "tgn:7556537",
          "tgn:1000004",
          "tgn:1001871",
          "tgn:7000198",
          "tgn:7029392"
        ],
        "placetype": [
          "aat:300008347"
        ],
        "name:en": "Sāha",
        "id": 7556537
      }
    },
    {
      "geometry": {
        "type": "Point",
        "coordinates": [
          80.717535,
          25.883021
        ]
      },
      "type": "Feature",
      "properties": {
        "hierarchy": [
          "tgn:7556538",
          "tgn:1000004",
          "tgn:7000198",
          "tgn:7016722",
          "tgn:7029392"
        ],
        "placetype": [
          "aat:300008347"
        ],
        "name:en": "Sāh",
        "id": 7556538
      }
    }
  ]
}
