{
  "type": "FeatureCollection",
  "features": [
    {
      "geometry": {
        "type": "Point",
        "coordinates": [
          120.796501,
          23.984559
        ]
      },
      "type": "Feature",
      "properties": {
        "hierarchy": [
          "tgn:7477290",
          "tgn:7488858",
          "tgn:1000004",
          "tgn:1000141",
          "tgn:7029392"
        ],
        "placetype": [
          "aat:300006495"
        ],
        "id": 7477290,
        "name:xx": "Shuangdong Guoxiao"
      }
    },
    {
      "geometry": {
        "type": "Point",
        "coordinates": [
          121.8672,
          25.032914
        ]
      },
      "type": "Feature",
      "properties": {
        "hierarchy": [
          "tgn:7477291",
          "tgn:1000004",
          "tgn:1000454",
          "tgn:1000141",
          "tgn:7029392"
        ],
        "placetype": [
          "aat:300006495"
        ],
        "id": 7477291,
        "name:xx": "Shuangxi Guoxiao"
      }
    },
    {
      "geometry": {
        "type": "Point",
        "coordinates": [
          121.862852,
          25.035293
        ]
      },
      "type": "Feature",
      "properties": {
        "hierarchy": [
          "tgn:7477292",
          "tgn:1000004",
          "tgn:1000454",
          "tgn:1000141",
          "tgn:7029392"
        ],
        "placetype": [
          "aat:300006495"
        ],
        "id": 7477292,
        "name:xx": "Shuangxi Guozhong"
      }
    },
    {
      "geometry": {
        "type": "Point",
        "coordinates": [
          121.778451,
          25.044016
        ]
      },
      "type": "Feature",
      "properties": {
        "hierarchy": [
          "tgn:7477293",
          "tgn:1000004",
          "tgn:1000454",
          "tgn:1000141",
          "tgn:7029392"
        ],
        "placetype": [
          "aat:300006495"
        ],
        "id": 7477293,
        "name:xx": "Shifen Guoxiao"
      }
    },
    {
      "geometry": {
        "type": "Point",
        "coordinates": [
          121.925191,
          25.054312
        ]
      },
      "type": "Feature",
      "properties": {
        "hierarchy": [
          "tgn:7477294",
          "tgn:1000004",
          "tgn:1000454",
          "tgn:1000141",
          "tgn:7029392"
        ],
        "placetype": [
          "aat:300006495"
        ],
        "id": 7477294,
        "name:xx": "Aodi Guoxiao"
      }
    },
    {
      "geometry": {
        "type": "Point",
        "coordinates": [
          121.072514,
          25.006806
        ]
      },
      "type": "Feature",
      "properties": {
        "hierarchy": [
          "tgn:7477295",
          "tgn:1000004",
          "tgn:7001013",
          "tgn:1000141",
          "tgn:7029392"
        ],
        "placetype": [
          "aat:300006495"
        ],
        "id": 7477295,
        "name:xx": "Baosheng Guoxiao"
      }
    },
    {
      "geometry": {
        "type": "Point",
        "coordinates": [
          121.075782,
          25.045561
        ]
      },
      "type": "Feature",
      "properties": {
        "hierarchy": [
          "tgn:7477296",
          "tgn:1000004",
          "tgn:7001013",
          "tgn:1000141",
          "tgn:7029392"
        ],
        "placetype": [
          "aat:300008347"
        ],
        "id": 7477296,
        "name:xx": "Pengcuo"
      }
    },
    {
      "geometry": {
        "type": "Point",
        "coordinates": [
          121.056978,
          24.998933
        ]
      },
      "type": "Feature",
      "properties": {
        "hierarchy": [
          "tgn:7477297",
          "tgn:1000004",
          "tgn:7001013",
          "tgn:1000141",
          "tgn:7029392"
        ],
        "placetype": [
          "aat:300008347"
        ],
        "id": 7477297,
        "name:xx": "Xiashipailing"
      }
    },
    {
      "geometry": {
        "type": "Point",
        "coordinates": [
          121.059669,
          25.01144
        ]
      },
      "type": "Feature",
      "properties": {
        "hierarchy": [
          "tgn:7477298",
          "tgn:1000004",
          "tgn:7001013",
          "tgn:1000141",
          "tgn:7029392"
        ],
        "placetype": [
          "aat:300007836"
        ],
        "id": 7477298,
        "name:xx": "Guanxin Qiao"
      }
    },
    {
      "geometry": {
        "type": "Point",
        "coordinates": [
          121.060511,
          25.028364
        ]
      },
      "type": "Feature",
      "properties": {
        "hierarchy": [
          "tgn:7477299",
          "tgn:1000004",
          "tgn:7001013",
          "tgn:1000141",
          "tgn:7029392"
        ],
        "placetype": [
          "aat:300008347"
        ],
        "id": 7477299,
        "name:xx": "Lincuo"
      }
    }
  ]
}
