{
  "type": "FeatureCollection",
  "features": [
    {
      "geometry": {
        "type": "Point",
        "coordinates": [
          31.05764,
          29.106678
        ]
      },
      "type": "Feature",
      "properties": {
        "hierarchy": [
          "tgn:7522100",
          "tgn:7001242",
          "tgn:7016833",
          "tgn:1001142",
          "tgn:7029392"
        ],
        "placetype": [
          "aat:300008347"
        ],
        "name:en": "Al Ḩakāminah",
        "id": 7522100
      }
    },
    {
      "geometry": {
        "type": "Point",
        "coordinates": [
          32.783333,
          25.133333
        ]
      },
      "type": "Feature",
      "properties": {
        "hierarchy": [
          "tgn:7522101",
          "tgn:7001242",
          "tgn:7016833",
          "tgn:7000122",
          "tgn:7029392"
        ],
        "placetype": [
          "aat:300008347"
        ],
        "name:en": "Al Ḩajz Qiblī",
        "id": 7522101
      }
    },
    {
      "geometry": {
        "type": "Point",
        "coordinates": [
          32.733333,
          25.15
        ]
      },
      "type": "Feature",
      "properties": {
        "hierarchy": [
          "tgn:7522102",
          "tgn:7001242",
          "tgn:7016833",
          "tgn:7000122",
          "tgn:7029392"
        ],
        "placetype": [
          "aat:300008347"
        ],
        "name:en": "Al Ḩajz Baḩrī",
        "id": 7522102
      }
    },
    {
      "geometry": {
        "type": "Point",
        "coordinates": [
          30.879787,
          27.6301
        ]
      },
      "type": "Feature",
      "properties": {
        "hierarchy": [
          "tgn:7522103",
          "tgn:7001242",
          "tgn:7016833",
          "tgn:1001088",
          "tgn:7029392"
        ],
        "placetype": [
          "aat:300008347"
        ],
        "name:en": "Al Ḩājj Qandīl",
        "id": 7522103
      }
    },
    {
      "geometry": {
        "type": "Point",
        "coordinates": [
          31.791693,
          30.692696
        ]
      },
      "type": "Feature",
      "properties": {
        "hierarchy": [
          "tgn:7522104",
          "tgn:7001242",
          "tgn:7016833",
          "tgn:1001113",
          "tgn:7029392"
        ],
        "placetype": [
          "aat:300008347"
        ],
        "name:en": "Al Ḩajjājīyah",
        "id": 7522104
      }
    },
    {
      "geometry": {
        "type": "Point",
        "coordinates": [
          30.911392,
          30.284233
        ]
      },
      "type": "Feature",
      "properties": {
        "hierarchy": [
          "tgn:7522106",
          "tgn:7001242",
          "tgn:7016833",
          "tgn:1001083",
          "tgn:7029392"
        ],
        "placetype": [
          "aat:300008347"
        ],
        "name:en": "Al Ḩājir",
        "id": 7522106
      }
    },
    {
      "geometry": {
        "type": "Point",
        "coordinates": [
          31.565347,
          30.795705
        ]
      },
      "type": "Feature",
      "properties": {
        "hierarchy": [
          "tgn:7522107",
          "tgn:7001242",
          "tgn:7016833",
          "tgn:1001113",
          "tgn:7029392"
        ],
        "placetype": [
          "aat:300008347"
        ],
        "id": 7522107,
        "name:xx": "Al Hajārisah"
      }
    },
    {
      "geometry": {
        "type": "Point",
        "coordinates": [
          31.683333,
          26.466667
        ]
      },
      "type": "Feature",
      "properties": {
        "hierarchy": [
          "tgn:7522108",
          "tgn:7001242",
          "tgn:7016833",
          "tgn:7000124",
          "tgn:7029392"
        ],
        "placetype": [
          "aat:300008347"
        ],
        "name:en": "Al Hajārisah",
        "id": 7522108
      }
    },
    {
      "geometry": {
        "type": "Point",
        "coordinates": [
          30.493956,
          30.888228
        ]
      },
      "type": "Feature",
      "properties": {
        "hierarchy": [
          "tgn:7522109",
          "tgn:7001242",
          "tgn:1001075",
          "tgn:7016833",
          "tgn:7029392"
        ],
        "placetype": [
          "aat:300008347"
        ],
        "name:en": "Al Ḩajar al Maḩrūq",
        "id": 7522109
      }
    }
  ]
}
