{
  "type": "FeatureCollection",
  "features": [
    {
      "geometry": {
        "type": "Point",
        "coordinates": [
          78.83785,
          25.082798
        ]
      },
      "type": "Feature",
      "properties": {
        "hierarchy": [
          "tgn:7584050",
          "tgn:1000004",
          "tgn:7000198",
          "tgn:1001894",
          "tgn:7029392"
        ],
        "placetype": [
          "aat:300008347"
        ],
        "name:en": "Chhipri",
        "id": 7584050
      }
    },
    {
      "geometry": {
        "type": "Point",
        "coordinates": [
          78.92295,
          25.080255
        ]
      },
      "type": "Feature",
      "properties": {
        "hierarchy": [
          "tgn:7584051",
          "tgn:1000004",
          "tgn:7000198",
          "tgn:1001894",
          "tgn:7029392"
        ],
        "placetype": [
          "aat:300008347"
        ],
        "name:en": "Gotet",
        "id": 7584051
      }
    },
    {
      "geometry": {
        "type": "Point",
        "coordinates": [
          78.946884,
          25.072349
        ]
      },
      "type": "Feature",
      "properties": {
        "hierarchy": [
          "tgn:7584052",
          "tgn:1000004",
          "tgn:7000198",
          "tgn:1001894",
          "tgn:7029392"
        ],
        "placetype": [
          "aat:300008347"
        ],
        "name:en": "Fateh Khirk",
        "id": 7584052
      }
    },
    {
      "geometry": {
        "type": "Point",
        "coordinates": [
          78.976408,
          25.074736
        ]
      },
      "type": "Feature",
      "properties": {
        "hierarchy": [
          "tgn:7584053",
          "tgn:1000004",
          "tgn:7000198",
          "tgn:1001894",
          "tgn:7029392"
        ],
        "placetype": [
          "aat:300008795"
        ],
        "name:en": "Ladhera",
        "id": 7584053
      }
    },
    {
      "geometry": {
        "type": "Point",
        "coordinates": [
          78.862078,
          25.090279
        ]
      },
      "type": "Feature",
      "properties": {
        "hierarchy": [
          "tgn:7584054",
          "tgn:1000004",
          "tgn:7000198",
          "tgn:1001894",
          "tgn:7029392"
        ],
        "placetype": [
          "aat:300008347"
        ],
        "name:en": "Antpura",
        "id": 7584054
      }
    },
    {
      "geometry": {
        "type": "Point",
        "coordinates": [
          78.805671,
          25.093613
        ]
      },
      "type": "Feature",
      "properties": {
        "hierarchy": [
          "tgn:7584055",
          "tgn:1000004",
          "tgn:7000198",
          "tgn:1001894",
          "tgn:7029392"
        ],
        "placetype": [
          "aat:300008347"
        ],
        "name:en": "Chirpura",
        "id": 7584055
      }
    },
    {
      "geometry": {
        "type": "Point",
        "coordinates": [
          76.531548,
          30.210005
        ]
      },
      "type": "Feature",
      "properties": {
        "hierarchy": [
          "tgn:7584056",
          "tgn:1000004",
          "tgn:7000198",
          "tgn:7016883",
          "tgn:7029392"
        ],
        "placetype": [
          "aat:300008347"
        ],
        "name:en": "Hasanpur",
        "id": 7584056
      }
    },
    {
      "geometry": {
        "type": "Point",
        "coordinates": [
          76.541257,
          30.218736
        ]
      },
      "type": "Feature",
      "properties": {
        "hierarchy": [
          "tgn:7584057",
          "tgn:1000004",
          "tgn:7000198",
          "tgn:7016883",
          "tgn:7029392"
        ],
        "placetype": [
          "aat:300008347"
        ],
        "name:en": "Chugiān",
        "id": 7584057
      }
    },
    {
      "geometry": {
        "type": "Point",
        "coordinates": [
          76.541737,
          30.22497
        ]
      },
      "type": "Feature",
      "properties": {
        "hierarchy": [
          "tgn:7584058",
          "tgn:1000004",
          "tgn:7000198",
          "tgn:7016883",
          "tgn:7029392"
        ],
        "placetype": [
          "aat:300008347"
        ],
        "name:en": "Malakpur",
        "id": 7584058
      }
    },
    {
      "geometry": {
        "type": "Point",
        "coordinates": [
          76.54417,
          30.224214
        ]
      },
      "type": "Feature",
      "properties": {
        "hierarchy": [
          "tgn:7584059",
          "tgn:1000004",
          "tgn:7000198",
          "tgn:7016883",
          "tgn:7029392"
        ],
        "placetype": [
          "aat:300008347"
        ],
        "name:en": "Rasūlpur",
        "id": 7584059
      }
    }
  ]
}
