{
  "type": "FeatureCollection",
  "features": [
    {
      "geometry": {
        "type": "Point",
        "coordinates": [
          31.994167,
          30.811389
        ]
      },
      "type": "Feature",
      "properties": {
        "hierarchy": [
          "tgn:7533980",
          "tgn:7001242",
          "tgn:7016833",
          "tgn:1001113",
          "tgn:7029392"
        ],
        "placetype": [
          "aat:300008347"
        ],
        "name:en": "Kafr Qashshāsh",
        "id": 7533980
      }
    },
    {
      "geometry": {
        "type": "Point",
        "coordinates": [
          31.490152,
          30.832646
        ]
      },
      "type": "Feature",
      "properties": {
        "hierarchy": [
          "tgn:7533981",
          "tgn:7001242",
          "tgn:1001059",
          "tgn:7016833",
          "tgn:7029392"
        ],
        "placetype": [
          "aat:300008347"
        ],
        "name:en": "Kafr Qansūḩ",
        "id": 7533981
      }
    },
    {
      "geometry": {
        "type": "Point",
        "coordinates": [
          30.86473,
          30.913654
        ]
      },
      "type": "Feature",
      "properties": {
        "hierarchy": [
          "tgn:7533982",
          "tgn:7001242",
          "tgn:7016833",
          "tgn:7001312",
          "tgn:7029392"
        ],
        "placetype": [
          "aat:300008347"
        ],
        "name:en": "Kafr Nuşayr",
        "id": 7533982
      }
    },
    {
      "geometry": {
        "type": "Point",
        "coordinates": [
          31.240639,
          30.781725
        ]
      },
      "type": "Feature",
      "properties": {
        "hierarchy": [
          "tgn:7533983",
          "tgn:7001242",
          "tgn:1001059",
          "tgn:7016833",
          "tgn:7029392"
        ],
        "placetype": [
          "aat:300008347"
        ],
        "name:en": "Kafr Nu'mān",
        "id": 7533983
      }
    },
    {
      "geometry": {
        "type": "Point",
        "coordinates": [
          30.524682,
          31.165868
        ]
      },
      "type": "Feature",
      "properties": {
        "hierarchy": [
          "tgn:7533984",
          "tgn:7001242",
          "tgn:1001075",
          "tgn:7016833",
          "tgn:7029392"
        ],
        "placetype": [
          "aat:300008347"
        ],
        "name:en": "Kafr Niklā",
        "id": 7533984
      }
    },
    {
      "geometry": {
        "type": "Point",
        "coordinates": [
          31.40175,
          30.59009
        ]
      },
      "type": "Feature",
      "properties": {
        "hierarchy": [
          "tgn:7533985",
          "tgn:7001242",
          "tgn:7016833",
          "tgn:1001113",
          "tgn:7029392"
        ],
        "placetype": [
          "aat:300008347"
        ],
        "id": 7533985,
        "name:xx": "Kafr Nawwār"
      }
    },
    {
      "geometry": {
        "type": "Point",
        "coordinates": [
          31.17353,
          30.75268
        ]
      },
      "type": "Feature",
      "properties": {
        "hierarchy": [
          "tgn:7533986",
          "tgn:7001242",
          "tgn:7016833",
          "tgn:7001312",
          "tgn:7029392"
        ],
        "placetype": [
          "aat:300008347"
        ],
        "name:en": "Kafr Nawāy",
        "id": 7533986
      }
    },
    {
      "geometry": {
        "type": "Point",
        "coordinates": [
          31.472565,
          30.483363
        ]
      },
      "type": "Feature",
      "properties": {
        "hierarchy": [
          "tgn:7533987",
          "tgn:7001242",
          "tgn:7016833",
          "tgn:1001113",
          "tgn:7029392"
        ],
        "placetype": [
          "aat:300008347"
        ],
        "name:en": "Kafr Nashwah",
        "id": 7533987
      }
    },
    {
      "geometry": {
        "type": "Point",
        "coordinates": [
          31.373853,
          30.645275
        ]
      },
      "type": "Feature",
      "properties": {
        "hierarchy": [
          "tgn:7533988",
          "tgn:7001242",
          "tgn:7016833",
          "tgn:1001113",
          "tgn:7029392"
        ],
        "placetype": [
          "aat:300008347"
        ],
        "id": 7533988,
        "name:xx": "Kafr Nakhlah"
      }
    },
    {
      "geometry": {
        "type": "Point",
        "coordinates": [
          31.15387,
          30.648545
        ]
      },
      "type": "Feature",
      "properties": {
        "hierarchy": [
          "tgn:7533989",
          "tgn:7001242",
          "tgn:7016833",
          "tgn:7001312",
          "tgn:7029392"
        ],
        "placetype": [
          "aat:300008347"
        ],
        "name:en": "Kafr Nafrah al Baḩrī",
        "id": 7533989
      }
    }
  ]
}
