{
  "type": "FeatureCollection",
  "features": [
    {
      "geometry": {
        "type": "Point",
        "coordinates": [
          71.769754,
          23.88745
        ]
      },
      "type": "Feature",
      "properties": {
        "hierarchy": [
          "tgn:7579490",
          "tgn:1000004",
          "tgn:1001869",
          "tgn:7000198",
          "tgn:7029392"
        ],
        "placetype": [
          "aat:300008347"
        ],
        "name:en": "Un",
        "id": 7579490
      }
    },
    {
      "geometry": {
        "type": "Point",
        "coordinates": [
          75.456381,
          21.822796
        ]
      },
      "type": "Feature",
      "properties": {
        "hierarchy": [
          "tgn:7579491",
          "tgn:1000004",
          "tgn:7000198",
          "tgn:1001894",
          "tgn:7029392"
        ],
        "placetype": [
          "aat:300008347"
        ],
        "name:en": "Un",
        "id": 7579491
      }
    },
    {
      "geometry": {
        "type": "Point",
        "coordinates": [
          80.083333,
          19.05
        ]
      },
      "type": "Feature",
      "properties": {
        "hierarchy": [
          "tgn:7579492",
          "tgn:1000004",
          "tgn:7000198",
          "tgn:1001895",
          "tgn:7029392"
        ],
        "placetype": [
          "aat:300008347"
        ],
        "name:en": "Umunur",
        "id": 7579492
      }
    },
    {
      "geometry": {
        "type": "Point",
        "coordinates": [
          72.555251,
          23.780819
        ]
      },
      "type": "Feature",
      "properties": {
        "hierarchy": [
          "tgn:7579493",
          "tgn:1000004",
          "tgn:1001869",
          "tgn:7000198",
          "tgn:7029392"
        ],
        "placetype": [
          "aat:300008347"
        ],
        "name:en": "Umta",
        "id": 7579493
      }
    },
    {
      "geometry": {
        "type": "Point",
        "coordinates": [
          92.238645,
          25.940022
        ]
      },
      "type": "Feature",
      "properties": {
        "hierarchy": [
          "tgn:7579494",
          "tgn:1000004",
          "tgn:1001832",
          "tgn:7000198",
          "tgn:7029392"
        ],
        "placetype": [
          "aat:300008347"
        ],
        "name:en": "Umswai",
        "id": 7579494
      }
    },
    {
      "geometry": {
        "type": "Point",
        "coordinates": [
          91.888035,
          25.736468
        ]
      },
      "type": "Feature",
      "properties": {
        "hierarchy": [
          "tgn:7579495",
          "tgn:1000004",
          "tgn:7000198",
          "tgn:1003539",
          "tgn:7029392"
        ],
        "placetype": [
          "aat:300008347"
        ],
        "name:en": "Umsning",
        "id": 7579495
      }
    },
    {
      "geometry": {
        "type": "Point",
        "coordinates": [
          92.283333,
          25.066667
        ]
      },
      "type": "Feature",
      "properties": {
        "hierarchy": [
          "tgn:7579496",
          "tgn:1000004",
          "tgn:1001832",
          "tgn:7000198",
          "tgn:7029392"
        ],
        "placetype": [
          "aat:300008699"
        ],
        "name:en": "Um Siang",
        "id": 7579496
      }
    },
    {
      "geometry": {
        "type": "Point",
        "coordinates": [
          91.291651,
          25.724654
        ]
      },
      "type": "Feature",
      "properties": {
        "hierarchy": [
          "tgn:7579497",
          "tgn:1000004",
          "tgn:7000198",
          "tgn:1003539",
          "tgn:7029392"
        ],
        "placetype": [
          "aat:300008347"
        ],
        "name:en": "Umshem",
        "id": 7579497
      }
    },
    {
      "geometry": {
        "type": "Point",
        "coordinates": [
          76.403456,
          24.23485
        ]
      },
      "type": "Feature",
      "properties": {
        "hierarchy": [
          "tgn:7579498",
          "tgn:1000004",
          "tgn:7000198",
          "tgn:7016788",
          "tgn:7029392"
        ],
        "placetype": [
          "aat:300008347"
        ],
        "name:en": "Umria",
        "id": 7579498
      }
    },
    {
      "geometry": {
        "type": "Point",
        "coordinates": [
          76.680124,
          26.430062
        ]
      },
      "type": "Feature",
      "properties": {
        "hierarchy": [
          "tgn:7579499",
          "tgn:1000004",
          "tgn:7000198",
          "tgn:7016788",
          "tgn:7029392"
        ],
        "placetype": [
          "aat:300007783"
        ],
        "name:en": "UmrÄ«",
        "id": 7579499
      }
    }
  ]
}
