{
  "type": "FeatureCollection",
  "features": [
    {
      "geometry": {
        "type": "Point",
        "coordinates": [
          120.586229,
          23.9823
        ]
      },
      "type": "Feature",
      "properties": {
        "hierarchy": [
          "tgn:7478100",
          "tgn:1000004",
          "tgn:7467799",
          "tgn:1000141",
          "tgn:7029392"
        ],
        "placetype": [
          "aat:300008347"
        ],
        "id": 7478100,
        "name:xx": "Wufang"
      }
    },
    {
      "geometry": {
        "type": "Point",
        "coordinates": [
          120.578512,
          23.964318
        ]
      },
      "type": "Feature",
      "properties": {
        "hierarchy": [
          "tgn:7478101",
          "tgn:1000004",
          "tgn:7467799",
          "tgn:1000141",
          "tgn:7029392"
        ],
        "placetype": [
          "aat:300006495"
        ],
        "id": 7478101,
        "name:xx": "Datong Guozhong"
      }
    },
    {
      "geometry": {
        "type": "Point",
        "coordinates": [
          120.442529,
          22.46276
        ]
      },
      "type": "Feature",
      "properties": {
        "hierarchy": [
          "tgn:7478102",
          "tgn:1000004",
          "tgn:7492971",
          "tgn:1000141",
          "tgn:7029392"
        ],
        "placetype": [
          "aat:300007595"
        ],
        "id": 7478102,
        "name:xx": "Zhonglie Gong"
      }
    },
    {
      "geometry": {
        "type": "Point",
        "coordinates": [
          120.449364,
          22.462628
        ]
      },
      "type": "Feature",
      "properties": {
        "hierarchy": [
          "tgn:7478103",
          "tgn:1000004",
          "tgn:7492971",
          "tgn:1000141",
          "tgn:7029392"
        ],
        "placetype": [
          "aat:300007595"
        ],
        "id": 7478103,
        "name:xx": "Donglong Gong"
      }
    },
    {
      "geometry": {
        "type": "Point",
        "coordinates": [
          120.445821,
          22.464524
        ]
      },
      "type": "Feature",
      "properties": {
        "hierarchy": [
          "tgn:7478104",
          "tgn:1000004",
          "tgn:7492971",
          "tgn:1000141",
          "tgn:7029392"
        ],
        "placetype": [
          "aat:300007836"
        ],
        "id": 7478104,
        "name:xx": "Fengyu Qiao"
      }
    },
    {
      "geometry": {
        "type": "Point",
        "coordinates": [
          120.450915,
          22.458846
        ]
      },
      "type": "Feature",
      "properties": {
        "hierarchy": [
          "tgn:7478105",
          "tgn:1000004",
          "tgn:7492971",
          "tgn:1000141",
          "tgn:7029392"
        ],
        "placetype": [
          "aat:300007836"
        ],
        "id": 7478105,
        "name:xx": "Fangdu Qiao"
      }
    },
    {
      "geometry": {
        "type": "Point",
        "coordinates": [
          120.461554,
          22.462015
        ]
      },
      "type": "Feature",
      "properties": {
        "hierarchy": [
          "tgn:7478106",
          "tgn:1000004",
          "tgn:7492971",
          "tgn:1000141",
          "tgn:7029392"
        ],
        "placetype": [
          "aat:300006495"
        ],
        "id": 7478106,
        "name:xx": "Yili Guoxiao"
      }
    },
    {
      "geometry": {
        "type": "Point",
        "coordinates": [
          120.472106,
          22.463649
        ]
      },
      "type": "Feature",
      "properties": {
        "hierarchy": [
          "tgn:7478107",
          "tgn:1000004",
          "tgn:7492971",
          "tgn:1000141",
          "tgn:7029392"
        ],
        "placetype": [
          "aat:300007836"
        ],
        "id": 7478107,
        "name:xx": "Chuantou Qiao"
      }
    },
    {
      "geometry": {
        "type": "Point",
        "coordinates": [
          120.494336,
          22.460634
        ]
      },
      "type": "Feature",
      "properties": {
        "hierarchy": [
          "tgn:7478108",
          "tgn:1000004",
          "tgn:7492971",
          "tgn:1000141",
          "tgn:7029392"
        ],
        "placetype": [
          "aat:300007836"
        ],
        "id": 7478108,
        "name:xx": "Zaofu Qiao"
      }
    },
    {
      "geometry": {
        "type": "Point",
        "coordinates": [
          120.491962,
          22.464494
        ]
      },
      "type": "Feature",
      "properties": {
        "hierarchy": [
          "tgn:7478109",
          "tgn:1000004",
          "tgn:7492971",
          "tgn:1000141",
          "tgn:7029392"
        ],
        "placetype": [
          "aat:300007595"
        ],
        "id": 7478109,
        "name:xx": "Jian'an Gong"
      }
    }
  ]
}
