{
  "type": "FeatureCollection",
  "features": [
    {
      "geometry": {
        "type": "Point",
        "coordinates": [
          71.682243,
          27.395421
        ]
      },
      "type": "Feature",
      "properties": {
        "hierarchy": [
          "tgn:7565600",
          "tgn:1000004",
          "tgn:7000198",
          "tgn:7016788",
          "tgn:7029392"
        ],
        "placetype": [
          "aat:300008347"
        ],
        "name:en": "Nāthu ki Nadi",
        "id": 7565600
      }
    },
    {
      "geometry": {
        "type": "Point",
        "coordinates": [
          71.699249,
          27.419163
        ]
      },
      "type": "Feature",
      "properties": {
        "hierarchy": [
          "tgn:7565601",
          "tgn:1000004",
          "tgn:7000198",
          "tgn:7016788",
          "tgn:7029392"
        ],
        "placetype": [
          "aat:300008347"
        ],
        "name:en": "Kāna Thal",
        "id": 7565601
      }
    },
    {
      "geometry": {
        "type": "Point",
        "coordinates": [
          71.645899,
          27.368899
        ]
      },
      "type": "Feature",
      "properties": {
        "hierarchy": [
          "tgn:7565602",
          "tgn:1000004",
          "tgn:7000198",
          "tgn:7016788",
          "tgn:7029392"
        ],
        "placetype": [
          "aat:300008347"
        ],
        "name:en": "Sewra",
        "id": 7565602
      }
    },
    {
      "geometry": {
        "type": "Point",
        "coordinates": [
          71.623517,
          27.395949
        ]
      },
      "type": "Feature",
      "properties": {
        "hierarchy": [
          "tgn:7565603",
          "tgn:1000004",
          "tgn:7000198",
          "tgn:7016788",
          "tgn:7029392"
        ],
        "placetype": [
          "aat:300008347"
        ],
        "name:en": "Piunawāli Dahar",
        "id": 7565603
      }
    },
    {
      "geometry": {
        "type": "Point",
        "coordinates": [
          71.653248,
          27.420662
        ]
      },
      "type": "Feature",
      "properties": {
        "hierarchy": [
          "tgn:7565604",
          "tgn:1000004",
          "tgn:7000198",
          "tgn:7016788",
          "tgn:7029392"
        ],
        "placetype": [
          "aat:300008347"
        ],
        "name:en": "Satiāya",
        "id": 7565604
      }
    },
    {
      "geometry": {
        "type": "Point",
        "coordinates": [
          71.830238,
          27.514877
        ]
      },
      "type": "Feature",
      "properties": {
        "hierarchy": [
          "tgn:7565605",
          "tgn:1000004",
          "tgn:7000198",
          "tgn:7016788",
          "tgn:7029392"
        ],
        "placetype": [
          "aat:300008347"
        ],
        "name:en": "Awāl",
        "id": 7565605
      }
    },
    {
      "geometry": {
        "type": "Point",
        "coordinates": [
          71.781992,
          27.482692
        ]
      },
      "type": "Feature",
      "properties": {
        "hierarchy": [
          "tgn:7565606",
          "tgn:1000004",
          "tgn:7000198",
          "tgn:7016788",
          "tgn:7029392"
        ],
        "placetype": [
          "aat:300008347"
        ],
        "name:en": "Badria",
        "id": 7565606
      }
    },
    {
      "geometry": {
        "type": "Point",
        "coordinates": [
          71.858525,
          27.641634
        ]
      },
      "type": "Feature",
      "properties": {
        "hierarchy": [
          "tgn:7565607",
          "tgn:1000004",
          "tgn:7000198",
          "tgn:7016788",
          "tgn:7029392"
        ],
        "placetype": [
          "aat:300008347"
        ],
        "name:en": "Kumār Thal",
        "id": 7565607
      }
    },
    {
      "geometry": {
        "type": "Point",
        "coordinates": [
          71.811212,
          27.56984
        ]
      },
      "type": "Feature",
      "properties": {
        "hierarchy": [
          "tgn:7565608",
          "tgn:1000004",
          "tgn:7000198",
          "tgn:7016788",
          "tgn:7029392"
        ],
        "placetype": [
          "aat:300008347"
        ],
        "name:en": "Bhirat Thalli",
        "id": 7565608
      }
    },
    {
      "geometry": {
        "type": "Point",
        "coordinates": [
          71.819848,
          27.584531
        ]
      },
      "type": "Feature",
      "properties": {
        "hierarchy": [
          "tgn:7565609",
          "tgn:1000004",
          "tgn:7000198",
          "tgn:7016788",
          "tgn:7029392"
        ],
        "placetype": [
          "aat:300008347"
        ],
        "name:en": "Sirad Talāi",
        "id": 7565609
      }
    }
  ]
}
