{
  "type": "FeatureCollection",
  "features": [
    {
      "geometry": {
        "type": "Point",
        "coordinates": [
          120.693056,
          22.036944
        ]
      },
      "type": "Feature",
      "properties": {
        "hierarchy": [
          "tgn:7485890",
          "tgn:1000004",
          "tgn:7492971",
          "tgn:1000141",
          "tgn:7029392"
        ],
        "placetype": [
          "aat:300007595"
        ],
        "id": 7485890,
        "name:xx": "Tianbao Dian"
      }
    },
    {
      "geometry": {
        "type": "Point",
        "coordinates": [
          120.683056,
          22.223056
        ]
      },
      "type": "Feature",
      "properties": {
        "hierarchy": [
          "tgn:7485891",
          "tgn:1000004",
          "tgn:7492971",
          "tgn:1000141",
          "tgn:7029392"
        ],
        "placetype": [
          "aat:300000202"
        ],
        "id": 7485891,
        "name:xx": "Taidian Shizitou Weibo Zhongjizhan"
      }
    },
    {
      "geometry": {
        "type": "Point",
        "coordinates": [
          120.221111,
          22.963056
        ]
      },
      "type": "Feature",
      "properties": {
        "hierarchy": [
          "tgn:7485892",
          "tgn:1000004",
          "tgn:7490934",
          "tgn:1000141",
          "tgn:7029392"
        ],
        "placetype": [
          "aat:300000498"
        ],
        "id": 7485892,
        "name:xx": "Ren'ai Cun"
      }
    },
    {
      "geometry": {
        "type": "Point",
        "coordinates": [
          120.224167,
          22.958056
        ]
      },
      "type": "Feature",
      "properties": {
        "hierarchy": [
          "tgn:7485893",
          "tgn:1000004",
          "tgn:7490934",
          "tgn:1000141",
          "tgn:7029392"
        ],
        "placetype": [
          "aat:300000498"
        ],
        "id": 7485893,
        "name:xx": "Renhe Cun"
      }
    },
    {
      "geometry": {
        "type": "Point",
        "coordinates": [
          120.185556,
          22.992222
        ]
      },
      "type": "Feature",
      "properties": {
        "hierarchy": [
          "tgn:7485894",
          "tgn:1000004",
          "tgn:7490934",
          "tgn:1000141",
          "tgn:7029392"
        ],
        "placetype": [
          "aat:300386996"
        ],
        "id": 7485894,
        "name:xx": "Tainan Shi Zhengfu"
      }
    },
    {
      "geometry": {
        "type": "Point",
        "coordinates": [
          120.189722,
          22.995
        ]
      },
      "type": "Feature",
      "properties": {
        "hierarchy": [
          "tgn:7485895",
          "tgn:1000004",
          "tgn:7490934",
          "tgn:1000141",
          "tgn:7029392"
        ],
        "placetype": [
          "aat:300006495"
        ],
        "id": 7485895,
        "name:xx": "Jincheng Guozhong"
      }
    },
    {
      "geometry": {
        "type": "Point",
        "coordinates": [
          120.207222,
          22.874444
        ]
      },
      "type": "Feature",
      "properties": {
        "hierarchy": [
          "tgn:7485896",
          "tgn:7001004",
          "tgn:1000004",
          "tgn:1000141",
          "tgn:7029392"
        ],
        "placetype": [
          "aat:300008678"
        ],
        "id": 7485896,
        "name:xx": "Xingda Yuanyang Yugang"
      }
    },
    {
      "geometry": {
        "type": "Point",
        "coordinates": [
          120.199167,
          22.875833
        ]
      },
      "type": "Feature",
      "properties": {
        "hierarchy": [
          "tgn:7485897",
          "tgn:7001004",
          "tgn:1000004",
          "tgn:1000141",
          "tgn:7029392"
        ],
        "placetype": [
          "aat:300007836"
        ],
        "id": 7485897,
        "name:xx": "Qieding Qiao"
      }
    },
    {
      "geometry": {
        "type": "Point",
        "coordinates": [
          120.177222,
          22.9125
        ]
      },
      "type": "Feature",
      "properties": {
        "hierarchy": [
          "tgn:7485898",
          "tgn:1000004",
          "tgn:7490934",
          "tgn:1000141",
          "tgn:7029392"
        ],
        "placetype": [
          "aat:300007836"
        ],
        "id": 7485898,
        "name:xx": "Erren Xi Qiao"
      }
    },
    {
      "geometry": {
        "type": "Point",
        "coordinates": [
          120.169444,
          22.973333
        ]
      },
      "type": "Feature",
      "properties": {
        "hierarchy": [
          "tgn:7485899",
          "tgn:1000004",
          "tgn:7490934",
          "tgn:1000141",
          "tgn:7029392"
        ],
        "placetype": [
          "aat:300008680"
        ],
        "id": 7485899,
        "name:xx": "Kunshen Hu"
      }
    }
  ]
}
