{
  "type": "FeatureCollection",
  "features": [
    {
      "geometry": {
        "type": "Point",
        "coordinates": [
          4.216667,
          50.35
        ]
      },
      "type": "Feature",
      "properties": {
        "hierarchy": [
          "tgn:7243690",
          "tgn:7007877",
          "tgn:1000003",
          "tgn:1000063",
          "tgn:4012014",
          "tgn:7029392"
        ],
        "placetype": [
          "aat:300008863"
        ],
        "id": 7243690,
        "name:xx": "Howis, Bois d'"
      }
    },
    {
      "geometry": {
        "type": "Point",
        "coordinates": [
          3.355988,
          50.506524
        ]
      },
      "type": "Feature",
      "properties": {
        "hierarchy": [
          "tgn:7243691",
          "tgn:7007877",
          "tgn:1000003",
          "tgn:1000063",
          "tgn:4012014",
          "tgn:7029392"
        ],
        "placetype": [
          "aat:300008347"
        ],
        "id": 7243691,
        "name:xx": "Howardries"
      }
    },
    {
      "geometry": {
        "type": "Point",
        "coordinates": [
          4.667167,
          51.195788
        ]
      },
      "type": "Feature",
      "properties": {
        "hierarchy": [
          "tgn:7243693",
          "tgn:7003456",
          "tgn:1000003",
          "tgn:1000063",
          "tgn:7018236",
          "tgn:7029392"
        ],
        "placetype": [
          "aat:300005567"
        ],
        "id": 7243693,
        "name:xx": "Hovorst"
      }
    },
    {
      "geometry": {
        "type": "Point",
        "coordinates": [
          4.036507,
          50.671173
        ]
      },
      "type": "Feature",
      "properties": {
        "hierarchy": [
          "tgn:7243694",
          "tgn:7007877",
          "tgn:1000003",
          "tgn:1000063",
          "tgn:4012014",
          "tgn:7029392"
        ],
        "placetype": [
          "aat:300008347"
        ],
        "id": 7243694,
        "name:xx": "Hoves"
      }
    },
    {
      "geometry": {
        "type": "Point",
        "coordinates": [
          3.811879,
          50.572504
        ]
      },
      "type": "Feature",
      "properties": {
        "hierarchy": [
          "tgn:7243695",
          "tgn:7007877",
          "tgn:1000003",
          "tgn:1000063",
          "tgn:4012014",
          "tgn:7029392"
        ],
        "placetype": [
          "aat:300008347"
        ],
        "id": 7243695,
        "name:xx": "Hoves"
      }
    },
    {
      "geometry": {
        "type": "Point",
        "coordinates": [
          5.433333,
          51.216667
        ]
      },
      "type": "Feature",
      "properties": {
        "hierarchy": [
          "tgn:7243697",
          "tgn:7003461",
          "tgn:1000003",
          "tgn:1000063",
          "tgn:7018236",
          "tgn:7029392"
        ],
        "placetype": [
          "aat:300008347"
        ],
        "id": 7243697,
        "name:xx": "Hoverseinde"
      }
    },
    {
      "geometry": {
        "type": "Point",
        "coordinates": [
          3.986098,
          50.787634
        ]
      },
      "type": "Feature",
      "properties": {
        "hierarchy": [
          "tgn:7243698",
          "tgn:7003457",
          "tgn:1000003",
          "tgn:1000063",
          "tgn:7018236",
          "tgn:7029392"
        ],
        "placetype": [
          "aat:300008347"
        ],
        "id": 7243698,
        "name:xx": "Hoverraad"
      }
    },
    {
      "geometry": {
        "type": "Point",
        "coordinates": [
          4.470695,
          51.15446
        ]
      },
      "type": "Feature",
      "properties": {
        "hierarchy": [
          "tgn:7243699",
          "tgn:7003456",
          "tgn:1000003",
          "tgn:1000063",
          "tgn:7018236",
          "tgn:7029392"
        ],
        "placetype": [
          "aat:300008347"
        ],
        "id": 7243699,
        "name:xx": "Hove"
      }
    }
  ]
}
