{
  "type": "FeatureCollection",
  "features": [
    {
      "geometry": {
        "type": "Point",
        "coordinates": [
          120.864399,
          24.51446
        ]
      },
      "type": "Feature",
      "properties": {
        "hierarchy": [
          "tgn:7468440",
          "tgn:7487020",
          "tgn:1000004",
          "tgn:1000141",
          "tgn:7029392"
        ],
        "placetype": [
          "aat:300008347"
        ],
        "id": 7468440,
        "name:xx": "Xingongguan"
      }
    },
    {
      "geometry": {
        "type": "Point",
        "coordinates": [
          120.351376,
          23.796506
        ]
      },
      "type": "Feature",
      "properties": {
        "hierarchy": [
          "tgn:7468441",
          "tgn:1000004",
          "tgn:7001014",
          "tgn:1000141",
          "tgn:7029392"
        ],
        "placetype": [
          "aat:300008347"
        ],
        "id": 7468441,
        "name:xx": "Tiandi"
      }
    },
    {
      "geometry": {
        "type": "Point",
        "coordinates": [
          120.252778,
          23.715833
        ]
      },
      "type": "Feature",
      "properties": {
        "hierarchy": [
          "tgn:7468442",
          "tgn:1000004",
          "tgn:7001014",
          "tgn:1000141",
          "tgn:7029392"
        ],
        "placetype": [
          "aat:300008347"
        ],
        "id": 7468442,
        "name:xx": "Xinjizhuang"
      }
    },
    {
      "geometry": {
        "type": "Point",
        "coordinates": [
          121.335,
          24.578889
        ]
      },
      "type": "Feature",
      "properties": {
        "hierarchy": [
          "tgn:7468443",
          "tgn:1000004",
          "tgn:7471332",
          "tgn:1000141",
          "tgn:7029392"
        ],
        "placetype": [
          "aat:300008347"
        ],
        "id": 7468443,
        "name:xx": "Xinguang"
      }
    },
    {
      "geometry": {
        "type": "Point",
        "coordinates": [
          120.712003,
          24.155962
        ]
      },
      "type": "Feature",
      "properties": {
        "hierarchy": [
          "tgn:7468444",
          "tgn:1000004",
          "tgn:7001009",
          "tgn:1000141",
          "tgn:7029392"
        ],
        "placetype": [
          "aat:300008347"
        ],
        "id": 7468444,
        "name:xx": "Fanzilu"
      }
    },
    {
      "geometry": {
        "type": "Point",
        "coordinates": [
          120.434964,
          23.839477
        ]
      },
      "type": "Feature",
      "properties": {
        "hierarchy": [
          "tgn:7468445",
          "tgn:1000004",
          "tgn:7467799",
          "tgn:1000141",
          "tgn:7029392"
        ],
        "placetype": [
          "aat:300008347"
        ],
        "id": 7468445,
        "name:xx": "Guangfuzhuang"
      }
    },
    {
      "geometry": {
        "type": "Point",
        "coordinates": [
          120.494375,
          23.690154
        ]
      },
      "type": "Feature",
      "properties": {
        "hierarchy": [
          "tgn:7468447",
          "tgn:1000004",
          "tgn:7001014",
          "tgn:1000141",
          "tgn:7029392"
        ],
        "placetype": [
          "aat:300008347"
        ],
        "id": 7468447,
        "name:xx": "Xinzhuang"
      }
    },
    {
      "geometry": {
        "type": "Point",
        "coordinates": [
          120.4625,
          22.8325
        ]
      },
      "type": "Feature",
      "properties": {
        "hierarchy": [
          "tgn:7468448",
          "tgn:7001004",
          "tgn:1000004",
          "tgn:1000141",
          "tgn:7029392"
        ],
        "placetype": [
          "aat:300008347"
        ],
        "id": 7468448,
        "name:xx": "Laodukeng"
      }
    },
    {
      "geometry": {
        "type": "Point",
        "coordinates": [
          121.469199,
          25.057486
        ]
      },
      "type": "Feature",
      "properties": {
        "hierarchy": [
          "tgn:7468449",
          "tgn:1000004",
          "tgn:1000454",
          "tgn:1000141",
          "tgn:7029392"
        ],
        "placetype": [
          "aat:300008347"
        ],
        "id": 7468449,
        "name:xx": "Touqian"
      }
    }
  ]
}
