{
  "type": "FeatureCollection",
  "features": [
    {
      "geometry": {
        "type": "Point",
        "coordinates": [
          79.596452,
          26.932262
        ]
      },
      "type": "Feature",
      "properties": {
        "hierarchy": [
          "tgn:7564430",
          "tgn:1000004",
          "tgn:7000198",
          "tgn:7016722",
          "tgn:7029392"
        ],
        "placetype": [
          "aat:300008347"
        ],
        "name:en": "Dhamma Purwa",
        "id": 7564430
      }
    },
    {
      "geometry": {
        "type": "Point",
        "coordinates": [
          79.610821,
          26.941715
        ]
      },
      "type": "Feature",
      "properties": {
        "hierarchy": [
          "tgn:7564431",
          "tgn:1000004",
          "tgn:7000198",
          "tgn:7016722",
          "tgn:7029392"
        ],
        "placetype": [
          "aat:300008347"
        ],
        "name:en": "Kanhi Purwa",
        "id": 7564431
      }
    },
    {
      "geometry": {
        "type": "Point",
        "coordinates": [
          79.608531,
          26.937731
        ]
      },
      "type": "Feature",
      "properties": {
        "hierarchy": [
          "tgn:7564432",
          "tgn:1000004",
          "tgn:7000198",
          "tgn:7016722",
          "tgn:7029392"
        ],
        "placetype": [
          "aat:300008347"
        ],
        "name:en": "Ghana Purwa",
        "id": 7564432
      }
    },
    {
      "geometry": {
        "type": "Point",
        "coordinates": [
          79.585004,
          26.941798
        ]
      },
      "type": "Feature",
      "properties": {
        "hierarchy": [
          "tgn:7564433",
          "tgn:1000004",
          "tgn:7000198",
          "tgn:7016722",
          "tgn:7029392"
        ],
        "placetype": [
          "aat:300008347"
        ],
        "name:en": "Gopālpur",
        "id": 7564433
      }
    },
    {
      "geometry": {
        "type": "Point",
        "coordinates": [
          79.586946,
          26.944704
        ]
      },
      "type": "Feature",
      "properties": {
        "hierarchy": [
          "tgn:7564434",
          "tgn:1000004",
          "tgn:7000198",
          "tgn:7016722",
          "tgn:7029392"
        ],
        "placetype": [
          "aat:300008347"
        ],
        "name:en": "Ban Purwa",
        "id": 7564434
      }
    },
    {
      "geometry": {
        "type": "Point",
        "coordinates": [
          79.592735,
          26.946667
        ]
      },
      "type": "Feature",
      "properties": {
        "hierarchy": [
          "tgn:7564435",
          "tgn:1000004",
          "tgn:7000198",
          "tgn:7016722",
          "tgn:7029392"
        ],
        "placetype": [
          "aat:300008347"
        ],
        "name:en": "Udaipur",
        "id": 7564435
      }
    },
    {
      "geometry": {
        "type": "Point",
        "coordinates": [
          74.984948,
          28.154724
        ]
      },
      "type": "Feature",
      "properties": {
        "hierarchy": [
          "tgn:7564436",
          "tgn:1000004",
          "tgn:7000198",
          "tgn:7016788",
          "tgn:7029392"
        ],
        "placetype": [
          "aat:300008347"
        ],
        "name:en": "Goplāno",
        "id": 7564436
      }
    },
    {
      "geometry": {
        "type": "Point",
        "coordinates": [
          74.992438,
          28.16982
        ]
      },
      "type": "Feature",
      "properties": {
        "hierarchy": [
          "tgn:7564437",
          "tgn:1000004",
          "tgn:7000198",
          "tgn:7016788",
          "tgn:7029392"
        ],
        "placetype": [
          "aat:300007783"
        ],
        "name:en": "Rāmgarh Shekhāwati Railroad Station",
        "id": 7564437
      }
    },
    {
      "geometry": {
        "type": "Point",
        "coordinates": [
          74.799648,
          28.422472
        ]
      },
      "type": "Feature",
      "properties": {
        "hierarchy": [
          "tgn:7564438",
          "tgn:1000004",
          "tgn:7000198",
          "tgn:7016788",
          "tgn:7029392"
        ],
        "placetype": [
          "aat:300008750"
        ],
        "name:en": "Chūli Tibba",
        "id": 7564438
      }
    },
    {
      "geometry": {
        "type": "Point",
        "coordinates": [
          74.821595,
          28.044205
        ]
      },
      "type": "Feature",
      "properties": {
        "hierarchy": [
          "tgn:7564439",
          "tgn:1000004",
          "tgn:7000198",
          "tgn:7016788",
          "tgn:7029392"
        ],
        "placetype": [
          "aat:300008347"
        ],
        "name:en": "Kalyānpura",
        "id": 7564439
      }
    }
  ]
}
