{
  "type": "FeatureCollection",
  "features": [
    {
      "geometry": {
        "type": "Point",
        "coordinates": [
          120.688043,
          22.492094
        ]
      },
      "type": "Feature",
      "properties": {
        "hierarchy": [
          "tgn:7471131",
          "tgn:1000004",
          "tgn:7492971",
          "tgn:1000141",
          "tgn:7029392"
        ],
        "placetype": [
          "aat:300008798"
        ],
        "id": 7471131,
        "name:xx": "Jiubao Shan"
      }
    },
    {
      "geometry": {
        "type": "Point",
        "coordinates": [
          121.081835,
          22.834793
        ]
      },
      "type": "Feature",
      "properties": {
        "hierarchy": [
          "tgn:7471132",
          "tgn:1000004",
          "tgn:7491221",
          "tgn:1000141",
          "tgn:7029392"
        ],
        "placetype": [
          "aat:300008347"
        ],
        "id": 7471132,
        "name:xx": "Dongcheng"
      }
    },
    {
      "geometry": {
        "type": "Point",
        "coordinates": [
          121.435,
          24.193611
        ]
      },
      "type": "Feature",
      "properties": {
        "hierarchy": [
          "tgn:7471133",
          "tgn:7001010",
          "tgn:1000004",
          "tgn:1000141",
          "tgn:7029392"
        ],
        "placetype": [
          "aat:300008347"
        ],
        "id": 7471133,
        "name:xx": "Gubaiyang"
      }
    },
    {
      "geometry": {
        "type": "Point",
        "coordinates": [
          120.326667,
          22.798889
        ]
      },
      "type": "Feature",
      "properties": {
        "hierarchy": [
          "tgn:7471134",
          "tgn:7001004",
          "tgn:1000004",
          "tgn:1000141",
          "tgn:7029392"
        ],
        "placetype": [
          "aat:300008347"
        ],
        "id": 7471134,
        "name:xx": "Qiongzilin"
      }
    },
    {
      "geometry": {
        "type": "Point",
        "coordinates": [
          118.375,
          24.452778
        ]
      },
      "type": "Feature",
      "properties": {
        "hierarchy": [
          "tgn:7471135",
          "tgn:7469009",
          "tgn:1000004",
          "tgn:1000141",
          "tgn:7029392"
        ],
        "placetype": [
          "aat:300008347"
        ],
        "id": 7471135,
        "name:xx": "Qionglin"
      }
    },
    {
      "geometry": {
        "type": "Point",
        "coordinates": [
          120.325103,
          23.560765
        ]
      },
      "type": "Feature",
      "properties": {
        "hierarchy": [
          "tgn:7471136",
          "tgn:7468018",
          "tgn:1000004",
          "tgn:1000141",
          "tgn:7029392"
        ],
        "placetype": [
          "aat:300008347"
        ],
        "id": 7471136,
        "name:xx": "Jiunangang"
      }
    },
    {
      "geometry": {
        "type": "Point",
        "coordinates": [
          120.475556,
          22.973889
        ]
      },
      "type": "Feature",
      "properties": {
        "hierarchy": [
          "tgn:7471137",
          "tgn:7001004",
          "tgn:1000004",
          "tgn:1000141",
          "tgn:7029392"
        ],
        "placetype": [
          "aat:300167671"
        ],
        "id": 7471137,
        "name:xx": "Jiumuzha"
      }
    },
    {
      "geometry": {
        "type": "Point",
        "coordinates": [
          120.51151,
          23.85718
        ]
      },
      "type": "Feature",
      "properties": {
        "hierarchy": [
          "tgn:7471138",
          "tgn:1000004",
          "tgn:7467799",
          "tgn:1000141",
          "tgn:7029392"
        ],
        "placetype": [
          "aat:300387173"
        ],
        "id": 7471138,
        "name:xx": "Jiumei Cun"
      }
    },
    {
      "geometry": {
        "type": "Point",
        "coordinates": [
          120.884722,
          23.617222
        ]
      },
      "type": "Feature",
      "properties": {
        "hierarchy": [
          "tgn:7471139",
          "tgn:7488858",
          "tgn:1000004",
          "tgn:1000141",
          "tgn:7029392"
        ],
        "placetype": [
          "aat:300008347"
        ],
        "id": 7471139,
        "name:xx": "Jiumei"
      }
    }
  ]
}
