{
  "type": "FeatureCollection",
  "features": [
    {
      "geometry": {
        "type": "Point",
        "coordinates": [
          -92.833333,
          17.604167
        ]
      },
      "type": "Feature",
      "properties": {
        "hierarchy": [
          "tgn:7413660",
          "tgn:1000001",
          "tgn:7005596",
          "tgn:7005560",
          "tgn:7029392"
        ],
        "placetype": [
          "aat:300008347"
        ],
        "id": 7413660,
        "name:es": "La Ceibita"
      }
    },
    {
      "geometry": {
        "type": "Point",
        "coordinates": [
          -92.866667,
          17.608333
        ]
      },
      "type": "Feature",
      "properties": {
        "hierarchy": [
          "tgn:7413661",
          "tgn:1000001",
          "tgn:7005596",
          "tgn:7005560",
          "tgn:7029392"
        ],
        "placetype": [
          "aat:300008347"
        ],
        "id": 7413661,
        "name:es": "Chichilte"
      }
    },
    {
      "geometry": {
        "type": "Point",
        "coordinates": [
          -92.925,
          17.604167
        ]
      },
      "type": "Feature",
      "properties": {
        "hierarchy": [
          "tgn:7413662",
          "tgn:1000001",
          "tgn:7005596",
          "tgn:7005560",
          "tgn:7029392"
        ],
        "placetype": [
          "aat:300008347"
        ],
        "id": 7413662,
        "name:es": "Miguel Hidalgo"
      }
    },
    {
      "geometry": {
        "type": "Point",
        "coordinates": [
          -92.95,
          17.604167
        ]
      },
      "type": "Feature",
      "properties": {
        "hierarchy": [
          "tgn:7413663",
          "tgn:1000001",
          "tgn:7005596",
          "tgn:7005560",
          "tgn:7029392"
        ],
        "placetype": [
          "aat:300008347"
        ],
        "id": 7413663,
        "name:es": "La Gardenia"
      }
    },
    {
      "geometry": {
        "type": "Point",
        "coordinates": [
          -92.770833,
          17.620833
        ]
      },
      "type": "Feature",
      "properties": {
        "hierarchy": [
          "tgn:7413664",
          "tgn:1000001",
          "tgn:7005596",
          "tgn:7005560",
          "tgn:7029392"
        ],
        "placetype": [
          "aat:300008347"
        ],
        "id": 7413664,
        "name:es": "Pochitocal Primera Sección"
      }
    },
    {
      "geometry": {
        "type": "Point",
        "coordinates": [
          -92.783333,
          17.6375
        ]
      },
      "type": "Feature",
      "properties": {
        "hierarchy": [
          "tgn:7413665",
          "tgn:1000001",
          "tgn:7005596",
          "tgn:7005560",
          "tgn:7029392"
        ],
        "placetype": [
          "aat:300008347"
        ],
        "id": 7413665,
        "name:es": "Santa Cruz"
      }
    },
    {
      "geometry": {
        "type": "Point",
        "coordinates": [
          -92.816667,
          17.633333
        ]
      },
      "type": "Feature",
      "properties": {
        "hierarchy": [
          "tgn:7413666",
          "tgn:1000001",
          "tgn:7005596",
          "tgn:7005560",
          "tgn:7029392"
        ],
        "placetype": [
          "aat:300008347"
        ],
        "id": 7413666,
        "name:es": "Rancho Nuevo"
      }
    },
    {
      "geometry": {
        "type": "Point",
        "coordinates": [
          -92.929167,
          17.6375
        ]
      },
      "type": "Feature",
      "properties": {
        "hierarchy": [
          "tgn:7413668",
          "tgn:1000001",
          "tgn:7005596",
          "tgn:7005560",
          "tgn:7029392"
        ],
        "placetype": [
          "aat:300008347"
        ],
        "id": 7413668,
        "name:es": "Las Delicias"
      }
    },
    {
      "geometry": {
        "type": "Point",
        "coordinates": [
          -92.929167,
          17.695833
        ]
      },
      "type": "Feature",
      "properties": {
        "hierarchy": [
          "tgn:7413669",
          "tgn:1000001",
          "tgn:7005596",
          "tgn:7005560",
          "tgn:7029392"
        ],
        "placetype": [
          "aat:300008347"
        ],
        "id": 7413669,
        "name:es": "José María Morelos"
      }
    }
  ]
}
