{
  "type": "FeatureCollection",
  "features": [
    {
      "geometry": {
        "type": "Point",
        "coordinates": [
          120.6125,
          23.728333
        ]
      },
      "type": "Feature",
      "properties": {
        "hierarchy": [
          "tgn:7486050",
          "tgn:1000004",
          "tgn:7001014",
          "tgn:1000141",
          "tgn:7029392"
        ],
        "placetype": [
          "aat:300007836"
        ],
        "id": 7486050,
        "name:xx": "Huben Qiao"
      }
    },
    {
      "geometry": {
        "type": "Point",
        "coordinates": [
          120.609444,
          23.733333
        ]
      },
      "type": "Feature",
      "properties": {
        "hierarchy": [
          "tgn:7486051",
          "tgn:1000004",
          "tgn:7001014",
          "tgn:1000141",
          "tgn:7029392"
        ],
        "placetype": [
          "aat:300007836"
        ],
        "id": 7486051,
        "name:xx": "Douliu Dazhen Qiao"
      }
    },
    {
      "geometry": {
        "type": "Point",
        "coordinates": [
          120.614167,
          23.743611
        ]
      },
      "type": "Feature",
      "properties": {
        "hierarchy": [
          "tgn:7486052",
          "tgn:1000004",
          "tgn:7001014",
          "tgn:1000141",
          "tgn:7029392"
        ],
        "placetype": [
          "aat:300007836"
        ],
        "id": 7486052,
        "name:xx": "Linmao Qiao"
      }
    },
    {
      "geometry": {
        "type": "Point",
        "coordinates": [
          120.608611,
          23.747778
        ]
      },
      "type": "Feature",
      "properties": {
        "hierarchy": [
          "tgn:7486053",
          "tgn:1000004",
          "tgn:7001014",
          "tgn:1000141",
          "tgn:7029392"
        ],
        "placetype": [
          "aat:300007836"
        ],
        "id": 7486053,
        "name:xx": "Ganxi Qiao"
      }
    },
    {
      "geometry": {
        "type": "Point",
        "coordinates": [
          120.624167,
          23.726111
        ]
      },
      "type": "Feature",
      "properties": {
        "hierarchy": [
          "tgn:7486054",
          "tgn:1000004",
          "tgn:7001014",
          "tgn:1000141",
          "tgn:7029392"
        ],
        "placetype": [
          "aat:300007836"
        ],
        "id": 7486054,
        "name:xx": "Hongde Qiao"
      }
    },
    {
      "geometry": {
        "type": "Point",
        "coordinates": [
          120.62,
          23.695
        ]
      },
      "type": "Feature",
      "properties": {
        "hierarchy": [
          "tgn:7486055",
          "tgn:1000004",
          "tgn:7001014",
          "tgn:1000141",
          "tgn:7029392"
        ],
        "placetype": [
          "aat:300007595"
        ],
        "id": 7486055,
        "name:xx": "Huichun Si"
      }
    },
    {
      "geometry": {
        "type": "Point",
        "coordinates": [
          120.617778,
          23.689444
        ]
      },
      "type": "Feature",
      "properties": {
        "hierarchy": [
          "tgn:7486056",
          "tgn:1000004",
          "tgn:7001014",
          "tgn:1000141",
          "tgn:7029392"
        ],
        "placetype": [
          "aat:300008777"
        ],
        "id": 7486056,
        "name:xx": "Xincuo Shan"
      }
    },
    {
      "geometry": {
        "type": "Point",
        "coordinates": [
          120.622222,
          23.633611
        ]
      },
      "type": "Feature",
      "properties": {
        "hierarchy": [
          "tgn:7486057",
          "tgn:7488858",
          "tgn:1000004",
          "tgn:1000141",
          "tgn:7029392"
        ],
        "placetype": [
          "aat:300007836"
        ],
        "id": 7486057,
        "name:xx": "Tudigong Qiao"
      }
    },
    {
      "geometry": {
        "type": "Point",
        "coordinates": [
          120.620556,
          23.507222
        ]
      },
      "type": "Feature",
      "properties": {
        "hierarchy": [
          "tgn:7486058",
          "tgn:7468018",
          "tgn:1000004",
          "tgn:1000141",
          "tgn:7029392"
        ],
        "placetype": [
          "aat:300007595"
        ],
        "id": 7486058,
        "name:xx": "Guanyin Miao"
      }
    },
    {
      "geometry": {
        "type": "Point",
        "coordinates": [
          121.8676,
          25.0104
        ]
      },
      "type": "Feature",
      "properties": {
        "hierarchy": [
          "tgn:7486059",
          "tgn:1000004",
          "tgn:1000454",
          "tgn:1000141",
          "tgn:7029392"
        ],
        "placetype": [
          "aat:300008347"
        ],
        "id": 7486059,
        "name:xx": "Dingzilankeng"
      }
    }
  ]
}
