{
  "type": "FeatureCollection",
  "features": [
    {
      "geometry": {
        "type": "Point",
        "coordinates": [
          78.490556,
          17.647778
        ]
      },
      "type": "Feature",
      "properties": {
        "hierarchy": [
          "tgn:7570240",
          "tgn:1001828",
          "tgn:1000004",
          "tgn:7000198",
          "tgn:7029392"
        ],
        "placetype": [
          "aat:300008347"
        ],
        "name:en": "Attalli",
        "id": 7570240
      }
    },
    {
      "geometry": {
        "type": "Point",
        "coordinates": [
          78.52,
          17.589722
        ]
      },
      "type": "Feature",
      "properties": {
        "hierarchy": [
          "tgn:7570241",
          "tgn:1001828",
          "tgn:1000004",
          "tgn:7000198",
          "tgn:7029392"
        ],
        "placetype": [
          "aat:300008347"
        ],
        "name:en": "Arkalguda",
        "id": 7570241
      }
    },
    {
      "geometry": {
        "type": "Point",
        "coordinates": [
          78.189167,
          17.6275
        ]
      },
      "type": "Feature",
      "properties": {
        "hierarchy": [
          "tgn:7570242",
          "tgn:1001828",
          "tgn:1000004",
          "tgn:7000198",
          "tgn:7029392"
        ],
        "placetype": [
          "aat:300008347"
        ],
        "name:en": "Aratla",
        "id": 7570242
      }
    },
    {
      "geometry": {
        "type": "Point",
        "coordinates": [
          78.381389,
          17.631111
        ]
      },
      "type": "Feature",
      "properties": {
        "hierarchy": [
          "tgn:7570243",
          "tgn:1001828",
          "tgn:1000004",
          "tgn:7000198",
          "tgn:7029392"
        ],
        "placetype": [
          "aat:300008347"
        ],
        "name:en": "Anwaram",
        "id": 7570243
      }
    },
    {
      "geometry": {
        "type": "Point",
        "coordinates": [
          78.837778,
          17.86
        ]
      },
      "type": "Feature",
      "properties": {
        "hierarchy": [
          "tgn:7570244",
          "tgn:1001828",
          "tgn:1000004",
          "tgn:7000198",
          "tgn:7029392"
        ],
        "placetype": [
          "aat:300008347"
        ],
        "name:en": "Antaigūdam",
        "id": 7570244
      }
    },
    {
      "geometry": {
        "type": "Point",
        "coordinates": [
          78.791389,
          17.844722
        ]
      },
      "type": "Feature",
      "properties": {
        "hierarchy": [
          "tgn:7570245",
          "tgn:1001828",
          "tgn:1000004",
          "tgn:7000198",
          "tgn:7029392"
        ],
        "placetype": [
          "aat:300008347"
        ],
        "name:en": "Annasāgar",
        "id": 7570245
      }
    },
    {
      "geometry": {
        "type": "Point",
        "coordinates": [
          78.919722,
          17.998889
        ]
      },
      "type": "Feature",
      "properties": {
        "hierarchy": [
          "tgn:7570246",
          "tgn:1001828",
          "tgn:1000004",
          "tgn:7000198",
          "tgn:7029392"
        ],
        "placetype": [
          "aat:300008347"
        ],
        "name:en": "Ankreddipalli",
        "id": 7570246
      }
    },
    {
      "geometry": {
        "type": "Point",
        "coordinates": [
          78.685556,
          17.562222
        ]
      },
      "type": "Feature",
      "properties": {
        "hierarchy": [
          "tgn:7570247",
          "tgn:1001828",
          "tgn:1000004",
          "tgn:7000198",
          "tgn:7029392"
        ],
        "placetype": [
          "aat:300008347"
        ],
        "name:en": "Ankraddipalli",
        "id": 7570247
      }
    },
    {
      "geometry": {
        "type": "Point",
        "coordinates": [
          78.3725,
          17.903056
        ]
      },
      "type": "Feature",
      "properties": {
        "hierarchy": [
          "tgn:7570248",
          "tgn:1001828",
          "tgn:1000004",
          "tgn:7000198",
          "tgn:7029392"
        ],
        "placetype": [
          "aat:300008347"
        ],
        "name:en": "Angripet",
        "id": 7570248
      }
    },
    {
      "geometry": {
        "type": "Point",
        "coordinates": [
          78.58667,
          29.891027
        ]
      },
      "type": "Feature",
      "properties": {
        "hierarchy": [
          "tgn:7570249",
          "tgn:1000004",
          "tgn:7000198",
          "tgn:7031786",
          "tgn:7029392"
        ],
        "placetype": [
          "aat:300008347"
        ],
        "name:en": "Jawār",
        "id": 7570249
      }
    }
  ]
}
