{
  "type": "FeatureCollection",
  "features": [
    {
      "geometry": {
        "type": "Point",
        "coordinates": [
          -73.283333,
          -40.516667
        ]
      },
      "type": "Feature",
      "properties": {
        "hierarchy": [
          "tgn:7291800",
          "tgn:1001699",
          "tgn:1000049",
          "tgn:1000002",
          "tgn:7029392"
        ],
        "placetype": [
          "aat:300008699"
        ],
        "id": 7291800,
        "name:xx": "Forrahue, Estero"
      }
    },
    {
      "geometry": {
        "type": "Point",
        "coordinates": [
          -72.983333,
          -40.366667
        ]
      },
      "type": "Feature",
      "properties": {
        "hierarchy": [
          "tgn:7291801",
          "tgn:1001699",
          "tgn:1000049",
          "tgn:1000002",
          "tgn:7029392"
        ],
        "placetype": [
          "aat:300008699"
        ],
        "id": 7291801,
        "name:xx": "Forrahue, Estero"
      }
    },
    {
      "geometry": {
        "type": "Point",
        "coordinates": [
          -74.533333,
          -46.866667
        ]
      },
      "type": "Feature",
      "properties": {
        "hierarchy": [
          "tgn:7291802",
          "tgn:1001623",
          "tgn:1000049",
          "tgn:1000002",
          "tgn:7029392"
        ],
        "placetype": [
          "aat:300008804"
        ],
        "id": 7291802,
        "name:xx": "Forelius, Península"
      }
    },
    {
      "geometry": {
        "type": "Point",
        "coordinates": [
          -74.55,
          -46.85
        ]
      },
      "type": "Feature",
      "properties": {
        "hierarchy": [
          "tgn:7291803",
          "tgn:1001623",
          "tgn:1000049",
          "tgn:1000002",
          "tgn:7029392"
        ],
        "placetype": [
          "aat:300008795"
        ],
        "id": 7291803,
        "name:xx": "Forelius, Cerro"
      }
    },
    {
      "geometry": {
        "type": "Point",
        "coordinates": [
          -72.183333,
          -35.416667
        ]
      },
      "type": "Feature",
      "properties": {
        "hierarchy": [
          "tgn:7291804",
          "tgn:1001705",
          "tgn:1000049",
          "tgn:1000002",
          "tgn:7029392"
        ],
        "placetype": [
          "aat:300007783"
        ],
        "id": 7291804,
        "name:xx": "Estación Forel"
      }
    },
    {
      "geometry": {
        "type": "Point",
        "coordinates": [
          -74.416667,
          -49.383333
        ]
      },
      "type": "Feature",
      "properties": {
        "hierarchy": [
          "tgn:7291805",
          "tgn:1001702",
          "tgn:1000049",
          "tgn:1000002",
          "tgn:7029392"
        ],
        "placetype": [
          "aat:300008791"
        ],
        "id": 7291805,
        "name:xx": "Foot, Islote"
      }
    },
    {
      "geometry": {
        "type": "Point",
        "coordinates": [
          -68.983333,
          -54.483333
        ]
      },
      "type": "Feature",
      "properties": {
        "hierarchy": [
          "tgn:7291806",
          "tgn:1001702",
          "tgn:1000049",
          "tgn:1000002",
          "tgn:7029392"
        ],
        "placetype": [
          "aat:300008699"
        ],
        "id": 7291806,
        "name:xx": "Fontaine, Río"
      }
    },
    {
      "geometry": {
        "type": "Point",
        "coordinates": [
          -73.466667,
          -52.083333
        ]
      },
      "type": "Feature",
      "properties": {
        "hierarchy": [
          "tgn:7291807",
          "tgn:1001702",
          "tgn:1000049",
          "tgn:1000002",
          "tgn:7029392"
        ],
        "placetype": [
          "aat:300132317"
        ],
        "id": 7291807,
        "name:xx": "Fontaine, Puerto"
      }
    },
    {
      "geometry": {
        "type": "Point",
        "coordinates": [
          -72.816667,
          -45.45
        ]
      },
      "type": "Feature",
      "properties": {
        "hierarchy": [
          "tgn:7291808",
          "tgn:1001623",
          "tgn:1000049",
          "tgn:1000002",
          "tgn:7029392"
        ],
        "placetype": [
          "aat:300008804"
        ],
        "id": 7291808,
        "name:xx": "Fontaine, Península"
      }
    },
    {
      "geometry": {
        "type": "Point",
        "coordinates": [
          -72.916667,
          -53.083333
        ]
      },
      "type": "Feature",
      "properties": {
        "hierarchy": [
          "tgn:7291809",
          "tgn:1001702",
          "tgn:1000049",
          "tgn:1000002",
          "tgn:7029392"
        ],
        "placetype": [
          "aat:300008795"
        ],
        "id": 7291809,
        "name:xx": "Fontaine, Monte"
      }
    }
  ]
}
