{
  "type": "FeatureCollection",
  "features": [
    {
      "geometry": {
        "type": "Point",
        "coordinates": [
          79.622845,
          26.979575
        ]
      },
      "type": "Feature",
      "properties": {
        "hierarchy": [
          "tgn:7564140",
          "tgn:1000004",
          "tgn:7000198",
          "tgn:7016722",
          "tgn:7029392"
        ],
        "placetype": [
          "aat:300008347"
        ],
        "name:en": "Otakpura",
        "id": 7564140
      }
    },
    {
      "geometry": {
        "type": "Point",
        "coordinates": [
          79.65521,
          26.963836
        ]
      },
      "type": "Feature",
      "properties": {
        "hierarchy": [
          "tgn:7564141",
          "tgn:1000004",
          "tgn:7000198",
          "tgn:7016722",
          "tgn:7029392"
        ],
        "placetype": [
          "aat:300008347"
        ],
        "name:en": "Sahlāpur",
        "id": 7564141
      }
    },
    {
      "geometry": {
        "type": "Point",
        "coordinates": [
          79.650317,
          26.966341
        ]
      },
      "type": "Feature",
      "properties": {
        "hierarchy": [
          "tgn:7564142",
          "tgn:1000004",
          "tgn:7000198",
          "tgn:7016722",
          "tgn:7029392"
        ],
        "placetype": [
          "aat:300008347"
        ],
        "name:en": "Bhagwantpur",
        "id": 7564142
      }
    },
    {
      "geometry": {
        "type": "Point",
        "coordinates": [
          79.643676,
          26.974793
        ]
      },
      "type": "Feature",
      "properties": {
        "hierarchy": [
          "tgn:7564143",
          "tgn:1000004",
          "tgn:7000198",
          "tgn:7016722",
          "tgn:7029392"
        ],
        "placetype": [
          "aat:300008347"
        ],
        "name:en": "Mahdeora",
        "id": 7564143
      }
    },
    {
      "geometry": {
        "type": "Point",
        "coordinates": [
          79.664595,
          26.970931
        ]
      },
      "type": "Feature",
      "properties": {
        "hierarchy": [
          "tgn:7564144",
          "tgn:1000004",
          "tgn:7000198",
          "tgn:7016722",
          "tgn:7029392"
        ],
        "placetype": [
          "aat:300008347"
        ],
        "name:en": "Purwa Kanik",
        "id": 7564144
      }
    },
    {
      "geometry": {
        "type": "Point",
        "coordinates": [
          79.657648,
          26.973842
        ]
      },
      "type": "Feature",
      "properties": {
        "hierarchy": [
          "tgn:7564145",
          "tgn:1000004",
          "tgn:7000198",
          "tgn:7016722",
          "tgn:7029392"
        ],
        "placetype": [
          "aat:300008347"
        ],
        "name:en": "Dera Banjārān",
        "id": 7564145
      }
    },
    {
      "geometry": {
        "type": "Point",
        "coordinates": [
          79.664089,
          26.987774
        ]
      },
      "type": "Feature",
      "properties": {
        "hierarchy": [
          "tgn:7564146",
          "tgn:1000004",
          "tgn:7000198",
          "tgn:7016722",
          "tgn:7029392"
        ],
        "placetype": [
          "aat:300008347"
        ],
        "name:en": "Sakarwāra Bagulihāl",
        "id": 7564146
      }
    },
    {
      "geometry": {
        "type": "Point",
        "coordinates": [
          79.651226,
          26.987573
        ]
      },
      "type": "Feature",
      "properties": {
        "hierarchy": [
          "tgn:7564147",
          "tgn:1000004",
          "tgn:7000198",
          "tgn:7016722",
          "tgn:7029392"
        ],
        "placetype": [
          "aat:300008347"
        ],
        "name:en": "Purwa Lālsahāl",
        "id": 7564147
      }
    },
    {
      "geometry": {
        "type": "Point",
        "coordinates": [
          79.661087,
          26.99327
        ]
      },
      "type": "Feature",
      "properties": {
        "hierarchy": [
          "tgn:7564148",
          "tgn:1000004",
          "tgn:7000198",
          "tgn:7016722",
          "tgn:7029392"
        ],
        "placetype": [
          "aat:300008347"
        ],
        "name:en": "Kīstiāpur",
        "id": 7564148
      }
    },
    {
      "geometry": {
        "type": "Point",
        "coordinates": [
          79.648821,
          26.991295
        ]
      },
      "type": "Feature",
      "properties": {
        "hierarchy": [
          "tgn:7564149",
          "tgn:1000004",
          "tgn:7000198",
          "tgn:7016722",
          "tgn:7029392"
        ],
        "placetype": [
          "aat:300008347"
        ],
        "name:en": "Mahchandāpur",
        "id": 7564149
      }
    }
  ]
}
