{
  "type": "FeatureCollection",
  "features": [
    {
      "geometry": {
        "type": "Point",
        "coordinates": [
          121.014835,
          24.188507
        ]
      },
      "type": "Feature",
      "properties": {
        "hierarchy": [
          "tgn:7468231",
          "tgn:1000004",
          "tgn:7001009",
          "tgn:1000141",
          "tgn:7029392"
        ],
        "placetype": [
          "aat:300008699"
        ],
        "id": 7468231,
        "name:xx": "Jiabao Xi"
      }
    },
    {
      "geometry": {
        "type": "Point",
        "coordinates": [
          120.513988,
          24.130022
        ]
      },
      "type": "Feature",
      "properties": {
        "hierarchy": [
          "tgn:7468232",
          "tgn:1000004",
          "tgn:7467799",
          "tgn:1000141",
          "tgn:7029392"
        ],
        "placetype": [
          "aat:300008347"
        ],
        "id": 7468232,
        "name:xx": "Jiabaotan"
      }
    },
    {
      "geometry": {
        "type": "Point",
        "coordinates": [
          120.257407,
          23.349314
        ]
      },
      "type": "Feature",
      "properties": {
        "hierarchy": [
          "tgn:7468233",
          "tgn:1000004",
          "tgn:7490934",
          "tgn:1000141",
          "tgn:7029392"
        ],
        "placetype": [
          "aat:300008347"
        ],
        "id": 7468233,
        "name:xx": "Jiaodaiwei"
      }
    },
    {
      "geometry": {
        "type": "Point",
        "coordinates": [
          119.994167,
          26.2325
        ]
      },
      "type": "Feature",
      "properties": {
        "hierarchy": [
          "tgn:7468234",
          "tgn:7498210",
          "tgn:1000004",
          "tgn:1000141",
          "tgn:7029392"
        ],
        "placetype": [
          "aat:300008347"
        ],
        "id": 7468234,
        "name:xx": "Qiaozicun"
      }
    },
    {
      "geometry": {
        "type": "Point",
        "coordinates": [
          120.5539,
          24.024492
        ]
      },
      "type": "Feature",
      "properties": {
        "hierarchy": [
          "tgn:7468235",
          "tgn:1000004",
          "tgn:7467799",
          "tgn:1000141",
          "tgn:7029392"
        ],
        "placetype": [
          "aat:300008347"
        ],
        "id": 7468235,
        "name:xx": "Qiaozitou"
      }
    },
    {
      "geometry": {
        "type": "Point",
        "coordinates": [
          121.767222,
          24.85
        ]
      },
      "type": "Feature",
      "properties": {
        "hierarchy": [
          "tgn:7468236",
          "tgn:1000004",
          "tgn:7489179",
          "tgn:1000141",
          "tgn:7029392"
        ],
        "placetype": [
          "aat:300008795"
        ],
        "id": 7468236,
        "name:xx": "Quezi Shan"
      }
    },
    {
      "geometry": {
        "type": "Point",
        "coordinates": [
          120.557089,
          22.542434
        ]
      },
      "type": "Feature",
      "properties": {
        "hierarchy": [
          "tgn:7468237",
          "tgn:1000004",
          "tgn:7492971",
          "tgn:1000141",
          "tgn:7029392"
        ],
        "placetype": [
          "aat:300008347"
        ],
        "id": 7468237,
        "name:xx": "Qiaoziqian"
      }
    },
    {
      "geometry": {
        "type": "Point",
        "coordinates": [
          121.664227,
          25.074491
        ]
      },
      "type": "Feature",
      "properties": {
        "hierarchy": [
          "tgn:7468238",
          "tgn:1000004",
          "tgn:1000454",
          "tgn:1000141",
          "tgn:7029392"
        ],
        "placetype": [
          "aat:300387173"
        ],
        "id": 7468238,
        "name:xx": "Qiaodong Li"
      }
    },
    {
      "geometry": {
        "type": "Point",
        "coordinates": [
          120.283333,
          23.233333
        ]
      },
      "type": "Feature",
      "properties": {
        "hierarchy": [
          "tgn:7468239",
          "tgn:1000004",
          "tgn:7490934",
          "tgn:1000141",
          "tgn:7029392"
        ],
        "placetype": [
          "aat:300006191"
        ],
        "id": 7468239,
        "name:xx": "Qiaotouzi Gangpi"
      }
    }
  ]
}
