{
  "type": "FeatureCollection",
  "features": [
    {
      "geometry": {
        "type": "Point",
        "coordinates": [
          12.633333,
          48.566667
        ]
      },
      "type": "Feature",
      "properties": {
        "hierarchy": [
          "tgn:4009182",
          "tgn:7003669",
          "tgn:1000003",
          "tgn:7000084",
          "tgn:7029392"
        ],
        "placetype": [
          "aat:300008347"
        ],
        "id": 4009182,
        "name:xx": "Reisbach"
      }
    },
    {
      "geometry": {
        "type": "Point",
        "coordinates": [
          10.416667,
          48.666667
        ]
      },
      "type": "Feature",
      "properties": {
        "hierarchy": [
          "tgn:4009183",
          "tgn:7003669",
          "tgn:1000003",
          "tgn:7000084",
          "tgn:7029392"
        ],
        "placetype": [
          "aat:300008347"
        ],
        "id": 4009183,
        "name:xx": "Reistingen"
      }
    },
    {
      "geometry": {
        "type": "Point",
        "coordinates": [
          -3.25,
          41.616667
        ]
      },
      "type": "Feature",
      "properties": {
        "hierarchy": [
          "tgn:4009185",
          "tgn:7001165",
          "tgn:1000003",
          "tgn:7002793",
          "tgn:1000095",
          "tgn:7029392"
        ],
        "placetype": [
          "aat:300008347"
        ],
        "id": 4009185,
        "name:xx": "Rejas de San Esteban"
      }
    },
    {
      "geometry": {
        "type": "Point",
        "coordinates": [
          15.3667,
          50.7167
        ]
      },
      "type": "Feature",
      "properties": {
        "hierarchy": [
          "tgn:4009186",
          "tgn:7593915",
          "tgn:1000003",
          "tgn:1001780",
          "tgn:7029392"
        ],
        "placetype": [
          "aat:300008347"
        ],
        "id": 4009186,
        "name:xx": "Rejdice"
      }
    },
    {
      "geometry": {
        "type": "Point",
        "coordinates": [
          16.016667,
          48.166667
        ]
      },
      "type": "Feature",
      "properties": {
        "hierarchy": [
          "tgn:4009188",
          "tgn:7003025",
          "tgn:1000003",
          "tgn:1000062",
          "tgn:7029392"
        ],
        "placetype": [
          "aat:300008347"
        ],
        "id": 4009188,
        "name:xx": "Rekawinkel"
      }
    }
  ]
}
