{
  "type": "FeatureCollection",
  "features": [
    {
      "geometry": {
        "type": "Point",
        "coordinates": [
          73.833333,
          16.533333
        ]
      },
      "type": "Feature",
      "properties": {
        "hierarchy": [
          "tgn:7546360",
          "tgn:1000004",
          "tgn:7000198",
          "tgn:1001895",
          "tgn:7029392"
        ],
        "placetype": [
          "aat:300008347"
        ],
        "name:en": "Bāvda",
        "id": 7546360
      }
    },
    {
      "geometry": {
        "type": "Point",
        "coordinates": [
          70.083333,
          22.55
        ]
      },
      "type": "Feature",
      "properties": {
        "hierarchy": [
          "tgn:7546361",
          "tgn:1000004",
          "tgn:1001869",
          "tgn:7000198",
          "tgn:7029392"
        ],
        "placetype": [
          "aat:300266571"
        ],
        "name:en": "Bavarwala Nār",
        "id": 7546361
      }
    },
    {
      "geometry": {
        "type": "Point",
        "coordinates": [
          78.333333,
          16.016667
        ]
      },
      "type": "Feature",
      "properties": {
        "hierarchy": [
          "tgn:7546362",
          "tgn:1001828",
          "tgn:1000004",
          "tgn:7000198",
          "tgn:7029392"
        ],
        "placetype": [
          "aat:300008699"
        ],
        "name:en": "Bavanāsi River",
        "id": 7546362
      }
    },
    {
      "geometry": {
        "type": "Point",
        "coordinates": [
          84.35,
          18.566667
        ]
      },
      "type": "Feature",
      "properties": {
        "hierarchy": [
          "tgn:7546363",
          "tgn:1001828",
          "tgn:1000004",
          "tgn:7000198",
          "tgn:7029392"
        ],
        "placetype": [
          "aat:300008347"
        ],
        "name:en": "Bāvanapādu",
        "id": 7546363
      }
    },
    {
      "geometry": {
        "type": "Point",
        "coordinates": [
          73.083333,
          19.033333
        ]
      },
      "type": "Feature",
      "properties": {
        "hierarchy": [
          "tgn:7546364",
          "tgn:1000004",
          "tgn:7000198",
          "tgn:1001895",
          "tgn:7029392"
        ],
        "placetype": [
          "aat:300008699"
        ],
        "name:en": "Bāvamalang Nadī",
        "id": 7546364
      }
    },
    {
      "geometry": {
        "type": "Point",
        "coordinates": [
          72.23892,
          25.34931
        ]
      },
      "type": "Feature",
      "properties": {
        "hierarchy": [
          "tgn:7546365",
          "tgn:1000004",
          "tgn:7000198",
          "tgn:7016788",
          "tgn:7029392"
        ],
        "placetype": [
          "aat:300008347"
        ],
        "name:en": "Bābatra",
        "id": 7546365
      }
    },
    {
      "geometry": {
        "type": "Point",
        "coordinates": [
          92.689559,
          25.736568
        ]
      },
      "type": "Feature",
      "properties": {
        "hierarchy": [
          "tgn:7546366",
          "tgn:1000004",
          "tgn:1001832",
          "tgn:7000198",
          "tgn:7029392"
        ],
        "placetype": [
          "aat:300008347"
        ],
        "name:en": "Baut Bāzār",
        "id": 7546366
      }
    },
    {
      "geometry": {
        "type": "Point",
        "coordinates": [
          87.021971,
          24.80178
        ]
      },
      "type": "Feature",
      "properties": {
        "hierarchy": [
          "tgn:7546367",
          "tgn:1000004",
          "tgn:1001842",
          "tgn:7000198",
          "tgn:7029392"
        ],
        "placetype": [
          "aat:300008347"
        ],
        "name:en": "Bausi",
        "id": 7546367
      }
    },
    {
      "geometry": {
        "type": "Point",
        "coordinates": [
          86.266667,
          26.566667
        ]
      },
      "type": "Feature",
      "properties": {
        "hierarchy": [
          "tgn:7546369",
          "tgn:1000004",
          "tgn:1001842",
          "tgn:7000198",
          "tgn:7029392"
        ],
        "placetype": [
          "aat:300008347"
        ],
        "name:en": "Baurāha",
        "id": 7546369
      }
    }
  ]
}
