{
  "type": "FeatureCollection",
  "features": [
    {
      "geometry": {
        "type": "Point",
        "coordinates": [
          79.353736,
          27.182317
        ]
      },
      "type": "Feature",
      "properties": {
        "hierarchy": [
          "tgn:7560640",
          "tgn:1000004",
          "tgn:7000198",
          "tgn:7016722",
          "tgn:7029392"
        ],
        "placetype": [
          "aat:300008347"
        ],
        "name:en": "Kānsepur",
        "id": 7560640
      }
    },
    {
      "geometry": {
        "type": "Point",
        "coordinates": [
          79.351182,
          27.185773
        ]
      },
      "type": "Feature",
      "properties": {
        "hierarchy": [
          "tgn:7560641",
          "tgn:1000004",
          "tgn:7000198",
          "tgn:7016722",
          "tgn:7029392"
        ],
        "placetype": [
          "aat:300008347"
        ],
        "name:en": "Mahmudiya",
        "id": 7560641
      }
    },
    {
      "geometry": {
        "type": "Point",
        "coordinates": [
          79.346702,
          27.18261
        ]
      },
      "type": "Feature",
      "properties": {
        "hierarchy": [
          "tgn:7560642",
          "tgn:1000004",
          "tgn:7000198",
          "tgn:7016722",
          "tgn:7029392"
        ],
        "placetype": [
          "aat:300008347"
        ],
        "name:en": "Jariyān",
        "id": 7560642
      }
    },
    {
      "geometry": {
        "type": "Point",
        "coordinates": [
          79.34241,
          27.188934
        ]
      },
      "type": "Feature",
      "properties": {
        "hierarchy": [
          "tgn:7560643",
          "tgn:1000004",
          "tgn:7000198",
          "tgn:7016722",
          "tgn:7029392"
        ],
        "placetype": [
          "aat:300008347"
        ],
        "name:en": "Bahdīnpur",
        "id": 7560643
      }
    },
    {
      "geometry": {
        "type": "Point",
        "coordinates": [
          79.333564,
          27.181965
        ]
      },
      "type": "Feature",
      "properties": {
        "hierarchy": [
          "tgn:7560644",
          "tgn:1000004",
          "tgn:7000198",
          "tgn:7016722",
          "tgn:7029392"
        ],
        "placetype": [
          "aat:300008347"
        ],
        "name:en": "Dhubiha",
        "id": 7560644
      }
    },
    {
      "geometry": {
        "type": "Point",
        "coordinates": [
          79.33138,
          27.166722
        ]
      },
      "type": "Feature",
      "properties": {
        "hierarchy": [
          "tgn:7560645",
          "tgn:1000004",
          "tgn:7000198",
          "tgn:7016722",
          "tgn:7029392"
        ],
        "placetype": [
          "aat:300008347"
        ],
        "name:en": "Ghūmaspur",
        "id": 7560645
      }
    },
    {
      "geometry": {
        "type": "Point",
        "coordinates": [
          79.347982,
          27.164183
        ]
      },
      "type": "Feature",
      "properties": {
        "hierarchy": [
          "tgn:7560646",
          "tgn:1000004",
          "tgn:7000198",
          "tgn:7016722",
          "tgn:7029392"
        ],
        "placetype": [
          "aat:300008347"
        ],
        "name:en": "Harjāpur Khurd",
        "id": 7560646
      }
    },
    {
      "geometry": {
        "type": "Point",
        "coordinates": [
          79.349656,
          27.166999
        ]
      },
      "type": "Feature",
      "properties": {
        "hierarchy": [
          "tgn:7560647",
          "tgn:1000004",
          "tgn:7000198",
          "tgn:7016722",
          "tgn:7029392"
        ],
        "placetype": [
          "aat:300008347"
        ],
        "name:en": "Harjāpur Kalān",
        "id": 7560647
      }
    },
    {
      "geometry": {
        "type": "Point",
        "coordinates": [
          79.330803,
          26.490906
        ]
      },
      "type": "Feature",
      "properties": {
        "hierarchy": [
          "tgn:7560648",
          "tgn:1000004",
          "tgn:7000198",
          "tgn:7016722",
          "tgn:7029392"
        ],
        "placetype": [
          "aat:300008347"
        ],
        "name:en": "Bandha ka Purwa",
        "id": 7560648
      }
    },
    {
      "geometry": {
        "type": "Point",
        "coordinates": [
          79.303903,
          26.468803
        ]
      },
      "type": "Feature",
      "properties": {
        "hierarchy": [
          "tgn:7560649",
          "tgn:1000004",
          "tgn:7000198",
          "tgn:7016722",
          "tgn:7029392"
        ],
        "placetype": [
          "aat:300008347"
        ],
        "name:en": "Nawāda Mahipat Shāh",
        "id": 7560649
      }
    }
  ]
}
