{
  "type": "FeatureCollection",
  "features": [
    {
      "geometry": {
        "type": "Point",
        "coordinates": [
          120.239167,
          22.99
        ]
      },
      "type": "Feature",
      "properties": {
        "hierarchy": [
          "tgn:7482670",
          "tgn:1000004",
          "tgn:7490934",
          "tgn:1000141",
          "tgn:7029392"
        ],
        "placetype": [
          "aat:300006495"
        ],
        "id": 7482670,
        "name:xx": "Ciyou Gaogong"
      }
    },
    {
      "geometry": {
        "type": "Point",
        "coordinates": [
          120.250833,
          22.991667
        ]
      },
      "type": "Feature",
      "properties": {
        "hierarchy": [
          "tgn:7482671",
          "tgn:1000004",
          "tgn:7490934",
          "tgn:1000141",
          "tgn:7029392"
        ],
        "placetype": [
          "aat:300007836"
        ],
        "id": 7482671,
        "name:xx": "Jitan Qiao"
      }
    },
    {
      "geometry": {
        "type": "Point",
        "coordinates": [
          120.222222,
          22.905833
        ]
      },
      "type": "Feature",
      "properties": {
        "hierarchy": [
          "tgn:7482672",
          "tgn:1000004",
          "tgn:7490934",
          "tgn:1000141",
          "tgn:7029392"
        ],
        "placetype": [
          "aat:300006495"
        ],
        "id": 7482672,
        "name:xx": "Mingzong Guoxiao"
      }
    },
    {
      "geometry": {
        "type": "Point",
        "coordinates": [
          120.246667,
          22.923889
        ]
      },
      "type": "Feature",
      "properties": {
        "hierarchy": [
          "tgn:7482673",
          "tgn:1000004",
          "tgn:7490934",
          "tgn:1000141",
          "tgn:7029392"
        ],
        "placetype": [
          "aat:300387302"
        ],
        "id": 7482673,
        "name:xx": "Rende Gongyequ"
      }
    },
    {
      "geometry": {
        "type": "Point",
        "coordinates": [
          120.158889,
          22.988056
        ]
      },
      "type": "Feature",
      "properties": {
        "hierarchy": [
          "tgn:7482674",
          "tgn:1000004",
          "tgn:7490934",
          "tgn:1000141",
          "tgn:7029392"
        ],
        "placetype": [
          "aat:300006891"
        ],
        "id": 7482674,
        "name:xx": "Yizai Jincheng"
      }
    },
    {
      "geometry": {
        "type": "Point",
        "coordinates": [
          120.1525,
          22.985833
        ]
      },
      "type": "Feature",
      "properties": {
        "hierarchy": [
          "tgn:7482675",
          "tgn:1000004",
          "tgn:7490934",
          "tgn:1000141",
          "tgn:7029392"
        ],
        "placetype": [
          "aat:300008187"
        ],
        "id": 7482675,
        "name:xx": "Qiumaoyuan"
      }
    },
    {
      "geometry": {
        "type": "Point",
        "coordinates": [
          120.241389,
          22.9975
        ]
      },
      "type": "Feature",
      "properties": {
        "hierarchy": [
          "tgn:7482676",
          "tgn:1000004",
          "tgn:7490934",
          "tgn:1000141",
          "tgn:7029392"
        ],
        "placetype": [
          "aat:300006676"
        ],
        "id": 7482676,
        "name:xx": "Yongkang Rongmin Yiyuan"
      }
    },
    {
      "geometry": {
        "type": "Point",
        "coordinates": [
          120.181389,
          22.977222
        ]
      },
      "type": "Feature",
      "properties": {
        "hierarchy": [
          "tgn:7482677",
          "tgn:1000004",
          "tgn:7490934",
          "tgn:1000141",
          "tgn:7029392"
        ],
        "placetype": [
          "aat:300387302"
        ],
        "id": 7482677,
        "name:xx": "Anping Gongyequ"
      }
    },
    {
      "geometry": {
        "type": "Point",
        "coordinates": [
          120.140278,
          22.996389
        ]
      },
      "type": "Feature",
      "properties": {
        "hierarchy": [
          "tgn:7482678",
          "tgn:1000004",
          "tgn:7490934",
          "tgn:1000141",
          "tgn:7029392"
        ],
        "placetype": [
          "aat:300007836"
        ],
        "id": 7482678,
        "name:xx": "Sicao Kuahai Daqiao"
      }
    },
    {
      "geometry": {
        "type": "Point",
        "coordinates": [
          120.15,
          22.993611
        ]
      },
      "type": "Feature",
      "properties": {
        "hierarchy": [
          "tgn:7482679",
          "tgn:1000004",
          "tgn:7490934",
          "tgn:1000141",
          "tgn:7029392"
        ],
        "placetype": [
          "aat:300006495"
        ],
        "id": 7482679,
        "name:xx": "Shuichan Zhixiao"
      }
    }
  ]
}
