{
  "type": "FeatureCollection",
  "features": [
    {
      "geometry": {
        "type": "Point",
        "coordinates": [
          77.151079,
          29.761268
        ]
      },
      "type": "Feature",
      "properties": {
        "hierarchy": [
          "tgn:7590080",
          "tgn:1000004",
          "tgn:7000198",
          "tgn:7016722",
          "tgn:7029392"
        ],
        "placetype": [
          "aat:300008347"
        ],
        "name:en": "Shāhalīpur",
        "id": 7590080
      }
    },
    {
      "geometry": {
        "type": "Point",
        "coordinates": [
          77.145491,
          29.757258
        ]
      },
      "type": "Feature",
      "properties": {
        "hierarchy": [
          "tgn:7590081",
          "tgn:1000004",
          "tgn:7000198",
          "tgn:7016722",
          "tgn:7029392"
        ],
        "placetype": [
          "aat:300008347"
        ],
        "name:en": "Mānpur",
        "id": 7590081
      }
    },
    {
      "geometry": {
        "type": "Point",
        "coordinates": [
          77.10752,
          29.759797
        ]
      },
      "type": "Feature",
      "properties": {
        "hierarchy": [
          "tgn:7590082",
          "tgn:1000004",
          "tgn:1001871",
          "tgn:7000198",
          "tgn:7029392"
        ],
        "placetype": [
          "aat:300008347"
        ],
        "name:en": "Muhīuddīnpur",
        "id": 7590082
      }
    },
    {
      "geometry": {
        "type": "Point",
        "coordinates": [
          77.120406,
          29.772005
        ]
      },
      "type": "Feature",
      "properties": {
        "hierarchy": [
          "tgn:7590083",
          "tgn:1000004",
          "tgn:1001871",
          "tgn:7000198",
          "tgn:7029392"
        ],
        "placetype": [
          "aat:300008347"
        ],
        "name:en": "Shergarh Tāpu",
        "id": 7590083
      }
    },
    {
      "geometry": {
        "type": "Point",
        "coordinates": [
          77.087689,
          29.786721
        ]
      },
      "type": "Feature",
      "properties": {
        "hierarchy": [
          "tgn:7590084",
          "tgn:1000004",
          "tgn:1001871",
          "tgn:7000198",
          "tgn:7029392"
        ],
        "placetype": [
          "aat:300008347"
        ],
        "name:en": "Salārpura",
        "id": 7590084
      }
    },
    {
      "geometry": {
        "type": "Point",
        "coordinates": [
          77.113822,
          29.791319
        ]
      },
      "type": "Feature",
      "properties": {
        "hierarchy": [
          "tgn:7590085",
          "tgn:1000004",
          "tgn:1001871",
          "tgn:7000198",
          "tgn:7029392"
        ],
        "placetype": [
          "aat:300008347"
        ],
        "name:en": "Chaunra",
        "id": 7590085
      }
    },
    {
      "geometry": {
        "type": "Point",
        "coordinates": [
          77.117545,
          29.806752
        ]
      },
      "type": "Feature",
      "properties": {
        "hierarchy": [
          "tgn:7590086",
          "tgn:1000004",
          "tgn:1001871",
          "tgn:7000198",
          "tgn:7029392"
        ],
        "placetype": [
          "aat:300008347"
        ],
        "name:en": "Charpura",
        "id": 7590086
      }
    },
    {
      "geometry": {
        "type": "Point",
        "coordinates": [
          77.135238,
          29.809695
        ]
      },
      "type": "Feature",
      "properties": {
        "hierarchy": [
          "tgn:7590087",
          "tgn:1000004",
          "tgn:1001871",
          "tgn:7000198",
          "tgn:7029392"
        ],
        "placetype": [
          "aat:300008347"
        ],
        "name:en": "Dabkauli Kalān",
        "id": 7590087
      }
    },
    {
      "geometry": {
        "type": "Point",
        "coordinates": [
          77.089245,
          29.823631
        ]
      },
      "type": "Feature",
      "properties": {
        "hierarchy": [
          "tgn:7590088",
          "tgn:1000004",
          "tgn:1001871",
          "tgn:7000198",
          "tgn:7029392"
        ],
        "placetype": [
          "aat:300008347"
        ],
        "name:en": "Shāhpur",
        "id": 7590088
      }
    },
    {
      "geometry": {
        "type": "Point",
        "coordinates": [
          77.107194,
          29.819116
        ]
      },
      "type": "Feature",
      "properties": {
        "hierarchy": [
          "tgn:7590089",
          "tgn:1000004",
          "tgn:1001871",
          "tgn:7000198",
          "tgn:7029392"
        ],
        "placetype": [
          "aat:300008347"
        ],
        "name:en": "Chāndsamand",
        "id": 7590089
      }
    }
  ]
}
