{
  "type": "FeatureCollection",
  "features": [
    {
      "geometry": {
        "type": "Point",
        "coordinates": [
          31.350487,
          30.083216
        ]
      },
      "type": "Feature",
      "properties": {
        "hierarchy": [
          "tgn:7532700",
          "tgn:7001242",
          "tgn:7016833",
          "tgn:1001091",
          "tgn:7029392"
        ],
        "placetype": [
          "aat:300004792"
        ],
        "id": 7532700,
        "name:xx": "Shirkat al Ghāz aţ Ţabī'ī Bitrūjāz"
      }
    },
    {
      "geometry": {
        "type": "Point",
        "coordinates": [
          31.354429,
          30.082318
        ]
      },
      "type": "Feature",
      "properties": {
        "hierarchy": [
          "tgn:7532701",
          "tgn:7001242",
          "tgn:7016833",
          "tgn:1001091",
          "tgn:7029392"
        ],
        "placetype": [
          "aat:300007544"
        ],
        "id": 7532701,
        "name:xx": "Masjid al Jam'īyah ash Shar'īyah"
      }
    },
    {
      "geometry": {
        "type": "Point",
        "coordinates": [
          31.352459,
          30.081639
        ]
      },
      "type": "Feature",
      "properties": {
        "hierarchy": [
          "tgn:7532702",
          "tgn:7001242",
          "tgn:7016833",
          "tgn:1001091",
          "tgn:7029392"
        ],
        "placetype": [
          "aat:300004792"
        ],
        "id": 7532702,
        "name:xx": "Shirkat Fāyzir"
      }
    },
    {
      "geometry": {
        "type": "Point",
        "coordinates": [
          31.356391,
          30.081254
        ]
      },
      "type": "Feature",
      "properties": {
        "hierarchy": [
          "tgn:7532703",
          "tgn:7001242",
          "tgn:7016833",
          "tgn:1001091",
          "tgn:7029392"
        ],
        "placetype": [
          "aat:300004792"
        ],
        "id": 7532703,
        "name:xx": "Shirkat Aydiyāl"
      }
    },
    {
      "geometry": {
        "type": "Point",
        "coordinates": [
          31.348349,
          30.090249
        ]
      },
      "type": "Feature",
      "properties": {
        "hierarchy": [
          "tgn:7532704",
          "tgn:7001242",
          "tgn:7016833",
          "tgn:1001091",
          "tgn:7029392"
        ],
        "placetype": [
          "aat:300007748"
        ],
        "id": 7532704,
        "name:xx": "Maḩaţţat Almāz̧ah ad Dawlīyah"
      }
    },
    {
      "geometry": {
        "type": "Point",
        "coordinates": [
          31.354841,
          30.085192
        ]
      },
      "type": "Feature",
      "properties": {
        "hierarchy": [
          "tgn:7532705",
          "tgn:7001242",
          "tgn:7016833",
          "tgn:1001091",
          "tgn:7029392"
        ],
        "placetype": [
          "aat:300004792"
        ],
        "id": 7532705,
        "name:xx": "Nādī Mitrū Mişr al Jadīdah"
      }
    },
    {
      "geometry": {
        "type": "Point",
        "coordinates": [
          31.350517,
          30.087119
        ]
      },
      "type": "Feature",
      "properties": {
        "hierarchy": [
          "tgn:7532706",
          "tgn:7001242",
          "tgn:7016833",
          "tgn:1001091",
          "tgn:7029392"
        ],
        "placetype": [
          "aat:300007466"
        ],
        "id": 7532706,
        "name:xx": "Mārī Jirjis"
      }
    },
    {
      "geometry": {
        "type": "Point",
        "coordinates": [
          31.438827,
          30.075928
        ]
      },
      "type": "Feature",
      "properties": {
        "hierarchy": [
          "tgn:7532707",
          "tgn:7001242",
          "tgn:7016833",
          "tgn:1001091",
          "tgn:7029392"
        ],
        "placetype": [
          "aat:300000745"
        ],
        "id": 7532707,
        "name:xx": "Mīrāj Jūlf"
      }
    },
    {
      "geometry": {
        "type": "Point",
        "coordinates": [
          31.349018,
          30.086487
        ]
      },
      "type": "Feature",
      "properties": {
        "hierarchy": [
          "tgn:7532708",
          "tgn:7001242",
          "tgn:7016833",
          "tgn:1001091",
          "tgn:7029392"
        ],
        "placetype": [
          "aat:300004792"
        ],
        "id": 7532708,
        "name:xx": "Nādī Almāz̧ah"
      }
    },
    {
      "geometry": {
        "type": "Point",
        "coordinates": [
          31.341344,
          30.082101
        ]
      },
      "type": "Feature",
      "properties": {
        "hierarchy": [
          "tgn:7532709",
          "tgn:7001242",
          "tgn:7016833",
          "tgn:1001091",
          "tgn:7029392"
        ],
        "placetype": [
          "aat:300004792"
        ],
        "id": 7532709,
        "name:xx": "Al Amānah al 'Āmmah li Jāmi'at ad Duwal al 'Arabīyah"
      }
    }
  ]
}
