{
  "type": "FeatureCollection",
  "features": [
    {
      "geometry": {
        "type": "Point",
        "coordinates": [
          31.143328,
          30.527801
        ]
      },
      "type": "Feature",
      "properties": {
        "hierarchy": [
          "tgn:7536280",
          "tgn:7001242",
          "tgn:7016833",
          "tgn:1001087",
          "tgn:7029392"
        ],
        "placetype": [
          "aat:300008347"
        ],
        "name:en": "Kafr ash Shaykh Ibrāhīm",
        "id": 7536280
      }
    },
    {
      "geometry": {
        "type": "Point",
        "coordinates": [
          31.258438,
          30.427835
        ]
      },
      "type": "Feature",
      "properties": {
        "hierarchy": [
          "tgn:7536281",
          "tgn:7001242",
          "tgn:7016833",
          "tgn:1001092",
          "tgn:7029392"
        ],
        "placetype": [
          "aat:300008347"
        ],
        "name:en": "Kafr ash Shaykh Ibrāhīm",
        "id": 7536281
      }
    },
    {
      "geometry": {
        "type": "Point",
        "coordinates": [
          30.833333,
          28.466667
        ]
      },
      "type": "Feature",
      "properties": {
        "hierarchy": [
          "tgn:7536282",
          "tgn:7001242",
          "tgn:7016833",
          "tgn:1001088",
          "tgn:7029392"
        ],
        "placetype": [
          "aat:300008347"
        ],
        "name:en": "Kafr ash Shaykh Ibrāhīm",
        "id": 7536282
      }
    },
    {
      "geometry": {
        "type": "Point",
        "coordinates": [
          30.611679,
          31.157179
        ]
      },
      "type": "Feature",
      "properties": {
        "hierarchy": [
          "tgn:7536283",
          "tgn:7001242",
          "tgn:1001075",
          "tgn:7016833",
          "tgn:7029392"
        ],
        "placetype": [
          "aat:300008347"
        ],
        "name:en": "Kafr ash Shaykh Ḩasan",
        "id": 7536283
      }
    },
    {
      "geometry": {
        "type": "Point",
        "coordinates": [
          31.609996,
          30.545208
        ]
      },
      "type": "Feature",
      "properties": {
        "hierarchy": [
          "tgn:7536284",
          "tgn:7001242",
          "tgn:7016833",
          "tgn:1001113",
          "tgn:7029392"
        ],
        "placetype": [
          "aat:300008347"
        ],
        "id": 7536284,
        "name:xx": "Kafr ash Shaykh Dhikrī"
      }
    },
    {
      "geometry": {
        "type": "Point",
        "coordinates": [
          31.524625,
          30.74834
        ]
      },
      "type": "Feature",
      "properties": {
        "hierarchy": [
          "tgn:7536285",
          "tgn:7001242",
          "tgn:7016833",
          "tgn:1001113",
          "tgn:7029392"
        ],
        "placetype": [
          "aat:300008347"
        ],
        "id": 7536285,
        "name:xx": "Kafr ash Shaykh Dāwud"
      }
    },
    {
      "geometry": {
        "type": "Point",
        "coordinates": [
          31.499735,
          30.690815
        ]
      },
      "type": "Feature",
      "properties": {
        "hierarchy": [
          "tgn:7536286",
          "tgn:7001242",
          "tgn:7016833",
          "tgn:1001113",
          "tgn:7029392"
        ],
        "placetype": [
          "aat:300008347"
        ],
        "id": 7536286,
        "name:xx": "Kafr ash Shaykh az̧ Z̧awāhirī"
      }
    },
    {
      "geometry": {
        "type": "Point",
        "coordinates": [
          31.59963,
          31.199137
        ]
      },
      "type": "Feature",
      "properties": {
        "hierarchy": [
          "tgn:7536287",
          "tgn:7001242",
          "tgn:1001059",
          "tgn:7016833",
          "tgn:7029392"
        ],
        "placetype": [
          "aat:300008347"
        ],
        "name:en": "Kafr ash Shaykh 'Aţīyah",
        "id": 7536287
      }
    },
    {
      "geometry": {
        "type": "Point",
        "coordinates": [
          31.743253,
          30.555633
        ]
      },
      "type": "Feature",
      "properties": {
        "hierarchy": [
          "tgn:7536288",
          "tgn:7001242",
          "tgn:7016833",
          "tgn:1001113",
          "tgn:7029392"
        ],
        "placetype": [
          "aat:300008347"
        ],
        "id": 7536288,
        "name:xx": "Kafr ash Shaykh 'Aţīyah"
      }
    },
    {
      "geometry": {
        "type": "Point",
        "coordinates": [
          31.22784,
          30.51832
        ]
      },
      "type": "Feature",
      "properties": {
        "hierarchy": [
          "tgn:7536289",
          "tgn:7001242",
          "tgn:7016833",
          "tgn:1001092",
          "tgn:7029392"
        ],
        "placetype": [
          "aat:300008347"
        ],
        "name:en": "Kafr ash Shaykh 'Āmir",
        "id": 7536289
      }
    }
  ]
}
