{
  "type": "FeatureCollection",
  "features": [
    {
      "geometry": {
        "type": "Point",
        "coordinates": [
          -95.905278,
          17.373333
        ]
      },
      "type": "Feature",
      "properties": {
        "hierarchy": [
          "tgn:7419050",
          "tgn:1000001",
          "tgn:7005591",
          "tgn:7005560",
          "tgn:7029392"
        ],
        "placetype": [
          "aat:300008347"
        ],
        "id": 7419050,
        "name:xx": "Latani"
      }
    },
    {
      "geometry": {
        "type": "Point",
        "coordinates": [
          -95.853333,
          17.510833
        ]
      },
      "type": "Feature",
      "properties": {
        "hierarchy": [
          "tgn:7419051",
          "tgn:1000001",
          "tgn:7005591",
          "tgn:7005560",
          "tgn:7029392"
        ],
        "placetype": [
          "aat:300008347"
        ],
        "id": 7419051,
        "name:xx": "Arroyo Tomate"
      }
    },
    {
      "geometry": {
        "type": "Point",
        "coordinates": [
          -95.864444,
          17.59
        ]
      },
      "type": "Feature",
      "properties": {
        "hierarchy": [
          "tgn:7419052",
          "tgn:1000001",
          "tgn:7005591",
          "tgn:7005560",
          "tgn:7029392"
        ],
        "placetype": [
          "aat:300008347"
        ],
        "id": 7419052,
        "name:xx": "Monte Negro"
      }
    },
    {
      "geometry": {
        "type": "Point",
        "coordinates": [
          -95.879444,
          17.588611
        ]
      },
      "type": "Feature",
      "properties": {
        "hierarchy": [
          "tgn:7419053",
          "tgn:1000001",
          "tgn:7005591",
          "tgn:7005560",
          "tgn:7029392"
        ],
        "placetype": [
          "aat:300008347"
        ],
        "id": 7419053,
        "name:xx": "Congregación Monte Negro"
      }
    },
    {
      "geometry": {
        "type": "Point",
        "coordinates": [
          -95.824167,
          17.396944
        ]
      },
      "type": "Feature",
      "properties": {
        "hierarchy": [
          "tgn:7419054",
          "tgn:1000001",
          "tgn:7005591",
          "tgn:7005560",
          "tgn:7029392"
        ],
        "placetype": [
          "aat:300008347"
        ],
        "id": 7419054,
        "name:xx": "La Ermita"
      }
    },
    {
      "geometry": {
        "type": "Point",
        "coordinates": [
          -95.77,
          17.451111
        ]
      },
      "type": "Feature",
      "properties": {
        "hierarchy": [
          "tgn:7419055",
          "tgn:1000001",
          "tgn:7005591",
          "tgn:7005560",
          "tgn:7029392"
        ],
        "placetype": [
          "aat:300008347"
        ],
        "id": 7419055,
        "name:xx": "Santiago Jalahuy"
      }
    },
    {
      "geometry": {
        "type": "Point",
        "coordinates": [
          -95.759444,
          17.490833
        ]
      },
      "type": "Feature",
      "properties": {
        "hierarchy": [
          "tgn:7419056",
          "tgn:1000001",
          "tgn:7005591",
          "tgn:7005560",
          "tgn:7029392"
        ],
        "placetype": [
          "aat:300008347"
        ],
        "id": 7419056,
        "name:xx": "San Juan del Río"
      }
    },
    {
      "geometry": {
        "type": "Point",
        "coordinates": [
          -95.557778,
          17.431944
        ]
      },
      "type": "Feature",
      "properties": {
        "hierarchy": [
          "tgn:7419057",
          "tgn:1000001",
          "tgn:7005591",
          "tgn:7005560",
          "tgn:7029392"
        ],
        "placetype": [
          "aat:300008347"
        ],
        "id": 7419057,
        "name:xx": "Santa María"
      }
    },
    {
      "geometry": {
        "type": "Point",
        "coordinates": [
          -95.518333,
          17.454444
        ]
      },
      "type": "Feature",
      "properties": {
        "hierarchy": [
          "tgn:7419058",
          "tgn:1000001",
          "tgn:7005591",
          "tgn:7005560",
          "tgn:7029392"
        ],
        "placetype": [
          "aat:300008347"
        ],
        "id": 7419058,
        "name:xx": "El Coyolito"
      }
    },
    {
      "geometry": {
        "type": "Point",
        "coordinates": [
          -95.505,
          17.494444
        ]
      },
      "type": "Feature",
      "properties": {
        "hierarchy": [
          "tgn:7419059",
          "tgn:1000001",
          "tgn:7005591",
          "tgn:7005560",
          "tgn:7029392"
        ],
        "placetype": [
          "aat:300008347"
        ],
        "id": 7419059,
        "name:xx": "Nuevo Ocotlán"
      }
    }
  ]
}
