{
  "type": "FeatureCollection",
  "features": [
    {
      "geometry": {
        "type": "Point",
        "coordinates": [
          77.047222,
          31.143056
        ]
      },
      "type": "Feature",
      "properties": {
        "hierarchy": [
          "tgn:7569030",
          "tgn:1000004",
          "tgn:7000198",
          "tgn:1001996",
          "tgn:7029392"
        ],
        "placetype": [
          "aat:300008347"
        ],
        "name:en": "Jākhari",
        "id": 7569030
      }
    },
    {
      "geometry": {
        "type": "Point",
        "coordinates": [
          77.040278,
          31.143889
        ]
      },
      "type": "Feature",
      "properties": {
        "hierarchy": [
          "tgn:7569031",
          "tgn:1000004",
          "tgn:7000198",
          "tgn:1001996",
          "tgn:7029392"
        ],
        "placetype": [
          "aat:300008863"
        ],
        "name:en": "Jākhari Sarmāna Protected Forest",
        "id": 7569031
      }
    },
    {
      "geometry": {
        "type": "Point",
        "coordinates": [
          77.053611,
          31.145833
        ]
      },
      "type": "Feature",
      "properties": {
        "hierarchy": [
          "tgn:7569032",
          "tgn:1000004",
          "tgn:7000198",
          "tgn:1001996",
          "tgn:7029392"
        ],
        "placetype": [
          "aat:300008347"
        ],
        "name:en": "Shanāch",
        "id": 7569032
      }
    },
    {
      "geometry": {
        "type": "Point",
        "coordinates": [
          77.060833,
          31.144722
        ]
      },
      "type": "Feature",
      "properties": {
        "hierarchy": [
          "tgn:7569033",
          "tgn:1000004",
          "tgn:7000198",
          "tgn:1001996",
          "tgn:7029392"
        ],
        "placetype": [
          "aat:300008347"
        ],
        "name:en": "Chalhag",
        "id": 7569033
      }
    },
    {
      "geometry": {
        "type": "Point",
        "coordinates": [
          77.077778,
          31.147778
        ]
      },
      "type": "Feature",
      "properties": {
        "hierarchy": [
          "tgn:7569034",
          "tgn:1000004",
          "tgn:7000198",
          "tgn:1001996",
          "tgn:7029392"
        ],
        "placetype": [
          "aat:300008863"
        ],
        "name:en": "Kāhal ka Pāsh Protected Forest",
        "id": 7569034
      }
    },
    {
      "geometry": {
        "type": "Point",
        "coordinates": [
          77.065556,
          31.146944
        ]
      },
      "type": "Feature",
      "properties": {
        "hierarchy": [
          "tgn:7569035",
          "tgn:1000004",
          "tgn:7000198",
          "tgn:1001996",
          "tgn:7029392"
        ],
        "placetype": [
          "aat:300008347"
        ],
        "name:en": "Bhūmkar",
        "id": 7569035
      }
    },
    {
      "geometry": {
        "type": "Point",
        "coordinates": [
          77.066452,
          31.14807
        ]
      },
      "type": "Feature",
      "properties": {
        "hierarchy": [
          "tgn:7569036",
          "tgn:1000004",
          "tgn:7000198",
          "tgn:1001996",
          "tgn:7029392"
        ],
        "placetype": [
          "aat:300008347"
        ],
        "name:en": "Baddo",
        "id": 7569036
      }
    },
    {
      "geometry": {
        "type": "Point",
        "coordinates": [
          77.081389,
          31.151389
        ]
      },
      "type": "Feature",
      "properties": {
        "hierarchy": [
          "tgn:7569037",
          "tgn:1000004",
          "tgn:7000198",
          "tgn:1001996",
          "tgn:7029392"
        ],
        "placetype": [
          "aat:300008863"
        ],
        "name:en": "Dharog Protected Forest",
        "id": 7569037
      }
    },
    {
      "geometry": {
        "type": "Point",
        "coordinates": [
          75.602707,
          25.361574
        ]
      },
      "type": "Feature",
      "properties": {
        "hierarchy": [
          "tgn:7569038",
          "tgn:1000004",
          "tgn:7000198",
          "tgn:7016788",
          "tgn:7029392"
        ],
        "placetype": [
          "aat:300008347"
        ],
        "name:en": "Karjana",
        "id": 7569038
      }
    },
    {
      "geometry": {
        "type": "Point",
        "coordinates": [
          75.616498,
          25.355855
        ]
      },
      "type": "Feature",
      "properties": {
        "hierarchy": [
          "tgn:7569039",
          "tgn:1000004",
          "tgn:7000198",
          "tgn:7016788",
          "tgn:7029392"
        ],
        "placetype": [
          "aat:300008347"
        ],
        "name:en": "Bhīmpura",
        "id": 7569039
      }
    }
  ]
}
