{
  "type": "FeatureCollection",
  "features": [
    {
      "geometry": {
        "type": "Point",
        "coordinates": [
          120.729722,
          21.985278
        ]
      },
      "type": "Feature",
      "properties": {
        "hierarchy": [
          "tgn:7488790",
          "tgn:1000004",
          "tgn:7492971",
          "tgn:1000141",
          "tgn:7029392"
        ],
        "placetype": [
          "aat:300008347"
        ],
        "id": 7488790,
        "name:xx": "Longquan"
      }
    },
    {
      "geometry": {
        "type": "Point",
        "coordinates": [
          120.483333,
          23.683333
        ]
      },
      "type": "Feature",
      "properties": {
        "hierarchy": [
          "tgn:7488791",
          "tgn:1000004",
          "tgn:7001014",
          "tgn:1000141",
          "tgn:7029392"
        ],
        "placetype": [
          "aat:300008699"
        ],
        "id": 7488791,
        "name:xx": "Gukeng Xi"
      }
    },
    {
      "geometry": {
        "type": "Point",
        "coordinates": [
          120.562778,
          23.645
        ]
      },
      "type": "Feature",
      "properties": {
        "hierarchy": [
          "tgn:7488792",
          "tgn:1000004",
          "tgn:7001014",
          "tgn:1000141",
          "tgn:7029392"
        ],
        "placetype": [
          "aat:300008347"
        ],
        "id": 7488792,
        "name:xx": "Gukeng"
      }
    },
    {
      "geometry": {
        "type": "Point",
        "coordinates": [
          118.312222,
          24.393611
        ]
      },
      "type": "Feature",
      "properties": {
        "hierarchy": [
          "tgn:7488793",
          "tgn:7469009",
          "tgn:1000004",
          "tgn:1000141",
          "tgn:7029392"
        ],
        "placetype": [
          "aat:300008680"
        ],
        "id": 7488793,
        "name:xx": "Gugang Hu"
      }
    },
    {
      "geometry": {
        "type": "Point",
        "coordinates": [
          118.309167,
          24.395833
        ]
      },
      "type": "Feature",
      "properties": {
        "hierarchy": [
          "tgn:7488794",
          "tgn:7469009",
          "tgn:1000004",
          "tgn:1000141",
          "tgn:7029392"
        ],
        "placetype": [
          "aat:300008347"
        ],
        "id": 7488794,
        "name:xx": "Guta"
      }
    },
    {
      "geometry": {
        "type": "Point",
        "coordinates": [
          120.565961,
          24.09261
        ]
      },
      "type": "Feature",
      "properties": {
        "hierarchy": [
          "tgn:7488795",
          "tgn:1000004",
          "tgn:7467799",
          "tgn:1000141",
          "tgn:7029392"
        ],
        "placetype": [
          "aat:300000745"
        ],
        "id": 7488795,
        "name:xx": "Kulingjiao"
      }
    },
    {
      "geometry": {
        "type": "Point",
        "coordinates": [
          120.6275,
          22.359444
        ]
      },
      "type": "Feature",
      "properties": {
        "hierarchy": [
          "tgn:7488796",
          "tgn:1000004",
          "tgn:7492971",
          "tgn:1000141",
          "tgn:7029392"
        ],
        "placetype": [
          "aat:300008347"
        ],
        "id": 7488796,
        "name:xx": "Guhua"
      }
    },
    {
      "geometry": {
        "type": "Point",
        "coordinates": [
          121.333333,
          24.766667
        ]
      },
      "type": "Feature",
      "properties": {
        "hierarchy": [
          "tgn:7488797",
          "tgn:1000004",
          "tgn:7001013",
          "tgn:1000141",
          "tgn:7029392"
        ],
        "placetype": [
          "aat:300008347"
        ],
        "id": 7488797,
        "name:xx": "Guxicun"
      }
    },
    {
      "geometry": {
        "type": "Point",
        "coordinates": [
          121.070278,
          23.784722
        ]
      },
      "type": "Feature",
      "properties": {
        "hierarchy": [
          "tgn:7488798",
          "tgn:7488858",
          "tgn:1000004",
          "tgn:1000141",
          "tgn:7029392"
        ],
        "placetype": [
          "aat:300008347"
        ],
        "id": 7488798,
        "name:xx": "Kuxi"
      }
    },
    {
      "geometry": {
        "type": "Point",
        "coordinates": [
          120.900072,
          23.262888
        ]
      },
      "type": "Feature",
      "properties": {
        "hierarchy": [
          "tgn:7488799",
          "tgn:7001004",
          "tgn:1000004",
          "tgn:1000141",
          "tgn:7029392"
        ],
        "placetype": [
          "aat:300008798"
        ],
        "id": 7488799,
        "name:xx": "Kuhanuoxin Shan"
      }
    }
  ]
}
