{
  "type": "FeatureCollection",
  "features": [
    {
      "geometry": {
        "type": "Point",
        "coordinates": [
          77.020833,
          31.2425
        ]
      },
      "type": "Feature",
      "properties": {
        "hierarchy": [
          "tgn:7567600",
          "tgn:1000004",
          "tgn:7000198",
          "tgn:1001996",
          "tgn:7029392"
        ],
        "placetype": [
          "aat:300008347"
        ],
        "name:en": "Nehra",
        "id": 7567600
      }
    },
    {
      "geometry": {
        "type": "Point",
        "coordinates": [
          77.038333,
          31.244444
        ]
      },
      "type": "Feature",
      "properties": {
        "hierarchy": [
          "tgn:7567601",
          "tgn:1000004",
          "tgn:7000198",
          "tgn:1001996",
          "tgn:7029392"
        ],
        "placetype": [
          "aat:300008347"
        ],
        "name:en": "Sohal",
        "id": 7567601
      }
    },
    {
      "geometry": {
        "type": "Point",
        "coordinates": [
          77.015556,
          31.228889
        ]
      },
      "type": "Feature",
      "properties": {
        "hierarchy": [
          "tgn:7567602",
          "tgn:1000004",
          "tgn:7000198",
          "tgn:1001996",
          "tgn:7029392"
        ],
        "placetype": [
          "aat:300008347"
        ],
        "name:en": "Delag",
        "id": 7567602
      }
    },
    {
      "geometry": {
        "type": "Point",
        "coordinates": [
          77.004167,
          31.228611
        ]
      },
      "type": "Feature",
      "properties": {
        "hierarchy": [
          "tgn:7567603",
          "tgn:1000004",
          "tgn:7000198",
          "tgn:1001996",
          "tgn:7029392"
        ],
        "placetype": [
          "aat:300008347"
        ],
        "name:en": "Tyāmia",
        "id": 7567603
      }
    },
    {
      "geometry": {
        "type": "Point",
        "coordinates": [
          77.029444,
          31.229722
        ]
      },
      "type": "Feature",
      "properties": {
        "hierarchy": [
          "tgn:7567604",
          "tgn:1000004",
          "tgn:7000198",
          "tgn:1001996",
          "tgn:7029392"
        ],
        "placetype": [
          "aat:300008347"
        ],
        "name:en": "Kaloh",
        "id": 7567604
      }
    },
    {
      "geometry": {
        "type": "Point",
        "coordinates": [
          77.026111,
          31.230278
        ]
      },
      "type": "Feature",
      "properties": {
        "hierarchy": [
          "tgn:7567605",
          "tgn:1000004",
          "tgn:7000198",
          "tgn:1001996",
          "tgn:7029392"
        ],
        "placetype": [
          "aat:300008347"
        ],
        "name:en": "Bāl",
        "id": 7567605
      }
    },
    {
      "geometry": {
        "type": "Point",
        "coordinates": [
          77.018333,
          31.231389
        ]
      },
      "type": "Feature",
      "properties": {
        "hierarchy": [
          "tgn:7567606",
          "tgn:1000004",
          "tgn:7000198",
          "tgn:1001996",
          "tgn:7029392"
        ],
        "placetype": [
          "aat:300008347"
        ],
        "name:en": "Baror",
        "id": 7567606
      }
    },
    {
      "geometry": {
        "type": "Point",
        "coordinates": [
          77.006737,
          31.230956
        ]
      },
      "type": "Feature",
      "properties": {
        "hierarchy": [
          "tgn:7567607",
          "tgn:1000004",
          "tgn:7000198",
          "tgn:1001996",
          "tgn:7029392"
        ],
        "placetype": [
          "aat:300008347"
        ],
        "name:en": "Malaun",
        "id": 7567607
      }
    },
    {
      "geometry": {
        "type": "Point",
        "coordinates": [
          77.001667,
          31.233889
        ]
      },
      "type": "Feature",
      "properties": {
        "hierarchy": [
          "tgn:7567608",
          "tgn:1000004",
          "tgn:7000198",
          "tgn:1001996",
          "tgn:7029392"
        ],
        "placetype": [
          "aat:300008863"
        ],
        "name:en": "Mangu Sharer Protected Forest",
        "id": 7567608
      }
    },
    {
      "geometry": {
        "type": "Point",
        "coordinates": [
          77.006111,
          31.236111
        ]
      },
      "type": "Feature",
      "properties": {
        "hierarchy": [
          "tgn:7567609",
          "tgn:1000004",
          "tgn:7000198",
          "tgn:1001996",
          "tgn:7029392"
        ],
        "placetype": [
          "aat:300008347"
        ],
        "name:en": "Sandhoi",
        "id": 7567609
      }
    }
  ]
}
