{
  "type": "FeatureCollection",
  "features": [
    {
      "geometry": {
        "type": "Point",
        "coordinates": [
          120.322951,
          23.586506
        ]
      },
      "type": "Feature",
      "properties": {
        "hierarchy": [
          "tgn:7471000",
          "tgn:7468018",
          "tgn:1000004",
          "tgn:1000141",
          "tgn:7029392"
        ],
        "placetype": [
          "aat:300008347"
        ],
        "id": 7471000,
        "name:xx": "Hougouzi"
      }
    },
    {
      "geometry": {
        "type": "Point",
        "coordinates": [
          120.766667,
          22.066667
        ]
      },
      "type": "Feature",
      "properties": {
        "hierarchy": [
          "tgn:7471001",
          "tgn:1000004",
          "tgn:7492971",
          "tgn:1000141",
          "tgn:7029392"
        ],
        "placetype": [
          "aat:300008699"
        ],
        "id": 7471001,
        "name:xx": "Houke Xi"
      }
    },
    {
      "geometry": {
        "type": "Point",
        "coordinates": [
          120.776111,
          22.071389
        ]
      },
      "type": "Feature",
      "properties": {
        "hierarchy": [
          "tgn:7471002",
          "tgn:1000004",
          "tgn:7492971",
          "tgn:1000141",
          "tgn:7029392"
        ],
        "placetype": [
          "aat:300008347"
        ],
        "id": 7471002,
        "name:xx": "Zhushe"
      }
    },
    {
      "geometry": {
        "type": "Point",
        "coordinates": [
          121.463257,
          25.206973
        ]
      },
      "type": "Feature",
      "properties": {
        "hierarchy": [
          "tgn:7471003",
          "tgn:1000004",
          "tgn:1000454",
          "tgn:1000141",
          "tgn:7029392"
        ],
        "placetype": [
          "aat:300008347"
        ],
        "id": 7471003,
        "name:xx": "Houkengzi"
      }
    },
    {
      "geometry": {
        "type": "Point",
        "coordinates": [
          121.6071,
          24.9077
        ]
      },
      "type": "Feature",
      "properties": {
        "hierarchy": [
          "tgn:7471004",
          "tgn:1000004",
          "tgn:1000454",
          "tgn:1000141",
          "tgn:7029392"
        ],
        "placetype": [
          "aat:300008347"
        ],
        "id": 7471004,
        "name:xx": "Houkengzi"
      }
    },
    {
      "geometry": {
        "type": "Point",
        "coordinates": [
          120.465833,
          23.256944
        ]
      },
      "type": "Feature",
      "properties": {
        "hierarchy": [
          "tgn:7471005",
          "tgn:1000004",
          "tgn:7490934",
          "tgn:1000141",
          "tgn:7029392"
        ],
        "placetype": [
          "aat:300008347"
        ],
        "id": 7471005,
        "name:xx": "Houkengzi"
      }
    },
    {
      "geometry": {
        "type": "Point",
        "coordinates": [
          121.370125,
          25.119712
        ]
      },
      "type": "Feature",
      "properties": {
        "hierarchy": [
          "tgn:7471006",
          "tgn:1000004",
          "tgn:1000454",
          "tgn:1000141",
          "tgn:7029392"
        ],
        "placetype": [
          "aat:300008347"
        ],
        "id": 7471006,
        "name:xx": "Houkeng"
      }
    },
    {
      "geometry": {
        "type": "Point",
        "coordinates": [
          120.3262,
          22.6808
        ]
      },
      "type": "Feature",
      "properties": {
        "hierarchy": [
          "tgn:7471007",
          "tgn:7001004",
          "tgn:1000004",
          "tgn:1000141",
          "tgn:7029392"
        ],
        "placetype": [
          "aat:300008347"
        ],
        "id": 7471007,
        "name:xx": "Hougang"
      }
    },
    {
      "geometry": {
        "type": "Point",
        "coordinates": [
          120.150278,
          23.186944
        ]
      },
      "type": "Feature",
      "properties": {
        "hierarchy": [
          "tgn:7471008",
          "tgn:1000004",
          "tgn:7490934",
          "tgn:1000141",
          "tgn:7029392"
        ],
        "placetype": [
          "aat:300008347"
        ],
        "id": 7471008,
        "name:xx": "Gangdong"
      }
    },
    {
      "geometry": {
        "type": "Point",
        "coordinates": [
          120.143611,
          23.183611
        ]
      },
      "type": "Feature",
      "properties": {
        "hierarchy": [
          "tgn:7471009",
          "tgn:1000004",
          "tgn:7490934",
          "tgn:1000141",
          "tgn:7029392"
        ],
        "placetype": [
          "aat:300008347"
        ],
        "id": 7471009,
        "name:xx": "Hougang"
      }
    }
  ]
}
