{
  "type": "FeatureCollection",
  "features": [
    {
      "geometry": {
        "type": "Point",
        "coordinates": [
          120.473171,
          23.686697
        ]
      },
      "type": "Feature",
      "properties": {
        "hierarchy": [
          "tgn:7494260",
          "tgn:1000004",
          "tgn:7001014",
          "tgn:1000141",
          "tgn:7029392"
        ],
        "placetype": [
          "aat:300006495"
        ],
        "id": 7494260,
        "name:xx": "Dade Gongshang"
      }
    },
    {
      "geometry": {
        "type": "Point",
        "coordinates": [
          120.479831,
          23.6813
        ]
      },
      "type": "Feature",
      "properties": {
        "hierarchy": [
          "tgn:7494261",
          "tgn:1000004",
          "tgn:7001014",
          "tgn:1000141",
          "tgn:7029392"
        ],
        "placetype": [
          "aat:300006495"
        ],
        "id": 7494261,
        "name:xx": "Dounan Guoxiao"
      }
    },
    {
      "geometry": {
        "type": "Point",
        "coordinates": [
          120.477583,
          23.68165
        ]
      },
      "type": "Feature",
      "properties": {
        "hierarchy": [
          "tgn:7494262",
          "tgn:1000004",
          "tgn:7001014",
          "tgn:1000141",
          "tgn:7029392"
        ],
        "placetype": [
          "aat:300006495"
        ],
        "id": 7494262,
        "name:xx": "Dounan Guozhong"
      }
    },
    {
      "geometry": {
        "type": "Point",
        "coordinates": [
          120.481134,
          23.690913
        ]
      },
      "type": "Feature",
      "properties": {
        "hierarchy": [
          "tgn:7494263",
          "tgn:1000004",
          "tgn:7001014",
          "tgn:1000141",
          "tgn:7029392"
        ],
        "placetype": [
          "aat:300006495"
        ],
        "id": 7494263,
        "name:xx": "Wen'an Guoxiao"
      }
    },
    {
      "geometry": {
        "type": "Point",
        "coordinates": [
          120.451277,
          23.707856
        ]
      },
      "type": "Feature",
      "properties": {
        "hierarchy": [
          "tgn:7494264",
          "tgn:1000004",
          "tgn:7001014",
          "tgn:1000141",
          "tgn:7029392"
        ],
        "placetype": [
          "aat:300006495"
        ],
        "id": 7494264,
        "name:xx": "Pinghe Guoxiao"
      }
    },
    {
      "geometry": {
        "type": "Point",
        "coordinates": [
          120.459966,
          23.647806
        ]
      },
      "type": "Feature",
      "properties": {
        "hierarchy": [
          "tgn:7494265",
          "tgn:1000004",
          "tgn:7001014",
          "tgn:1000141",
          "tgn:7029392"
        ],
        "placetype": [
          "aat:300006495"
        ],
        "id": 7494265,
        "name:xx": "Jiaxing Guoxiao"
      }
    },
    {
      "geometry": {
        "type": "Point",
        "coordinates": [
          120.462115,
          23.632103
        ]
      },
      "type": "Feature",
      "properties": {
        "hierarchy": [
          "tgn:7494266",
          "tgn:7468018",
          "tgn:1000004",
          "tgn:1000141",
          "tgn:7029392"
        ],
        "placetype": [
          "aat:300006495"
        ],
        "id": 7494266,
        "name:xx": "Chongxian Zhongxue"
      }
    },
    {
      "geometry": {
        "type": "Point",
        "coordinates": [
          120.457126,
          23.534141
        ]
      },
      "type": "Feature",
      "properties": {
        "hierarchy": [
          "tgn:7494267",
          "tgn:7468018",
          "tgn:1000004",
          "tgn:1000141",
          "tgn:7029392"
        ],
        "placetype": [
          "aat:300006495"
        ],
        "id": 7494267,
        "name:xx": "Xiulin Guoxiao"
      }
    },
    {
      "geometry": {
        "type": "Point",
        "coordinates": [
          120.472094,
          23.510578
        ]
      },
      "type": "Feature",
      "properties": {
        "hierarchy": [
          "tgn:7494268",
          "tgn:7001001",
          "tgn:1000004",
          "tgn:1000141",
          "tgn:7029392"
        ],
        "placetype": [
          "aat:300006495"
        ],
        "id": 7494268,
        "name:xx": "Daqi Guoxiao"
      }
    },
    {
      "geometry": {
        "type": "Point",
        "coordinates": [
          120.452763,
          23.602179
        ]
      },
      "type": "Feature",
      "properties": {
        "hierarchy": [
          "tgn:7494269",
          "tgn:7468018",
          "tgn:1000004",
          "tgn:1000141",
          "tgn:7029392"
        ],
        "placetype": [
          "aat:300006495"
        ],
        "id": 7494269,
        "name:xx": "Dalin Guoxiao"
      }
    }
  ]
}
