{
  "type": "FeatureCollection",
  "features": [
    {
      "geometry": {
        "type": "Point",
        "coordinates": [
          73.836359,
          34.349941
        ]
      },
      "type": "Feature",
      "properties": {
        "hierarchy": [
          "tgn:7590430",
          "tgn:1000004",
          "tgn:7000198",
          "tgn:7000799",
          "tgn:7029392"
        ],
        "placetype": [
          "aat:300008347"
        ],
        "name:en": "Hajītara",
        "id": 7590430
      }
    },
    {
      "geometry": {
        "type": "Point",
        "coordinates": [
          73.847289,
          34.367248
        ]
      },
      "type": "Feature",
      "properties": {
        "hierarchy": [
          "tgn:7590431",
          "tgn:1000004",
          "tgn:7000198",
          "tgn:7000799",
          "tgn:7029392"
        ],
        "placetype": [
          "aat:300008347"
        ],
        "name:en": "Haftān",
        "id": 7590431
      }
    },
    {
      "geometry": {
        "type": "Point",
        "coordinates": [
          73.896265,
          34.394089
        ]
      },
      "type": "Feature",
      "properties": {
        "hierarchy": [
          "tgn:7590432",
          "tgn:1000004",
          "tgn:7000198",
          "tgn:7000799",
          "tgn:7029392"
        ],
        "placetype": [
          "aat:300008347"
        ],
        "name:en": "Hāpat Khani",
        "id": 7590432
      }
    },
    {
      "geometry": {
        "type": "Point",
        "coordinates": [
          73.880197,
          34.402475
        ]
      },
      "type": "Feature",
      "properties": {
        "hierarchy": [
          "tgn:7590433",
          "tgn:1000004",
          "tgn:7000198",
          "tgn:7000799",
          "tgn:7029392"
        ],
        "placetype": [
          "aat:300008347"
        ],
        "name:en": "Hājinār",
        "id": 7590433
      }
    },
    {
      "geometry": {
        "type": "Point",
        "coordinates": [
          73.795581,
          34.383126
        ]
      },
      "type": "Feature",
      "properties": {
        "hierarchy": [
          "tgn:7590434",
          "tgn:1000004",
          "tgn:7000198",
          "tgn:7000799",
          "tgn:7029392"
        ],
        "placetype": [
          "aat:300008347"
        ],
        "name:en": "Gundi Saiyidān",
        "id": 7590434
      }
    },
    {
      "geometry": {
        "type": "Point",
        "coordinates": [
          73.802778,
          34.386111
        ]
      },
      "type": "Feature",
      "properties": {
        "hierarchy": [
          "tgn:7590435",
          "tgn:1000004",
          "tgn:7000198",
          "tgn:7000799",
          "tgn:7029392"
        ],
        "placetype": [
          "aat:300008347"
        ],
        "name:en": "Gundi Gujarān",
        "id": 7590435
      }
    },
    {
      "geometry": {
        "type": "Point",
        "coordinates": [
          73.870913,
          34.394652
        ]
      },
      "type": "Feature",
      "properties": {
        "hierarchy": [
          "tgn:7590436",
          "tgn:1000004",
          "tgn:7000198",
          "tgn:7000799",
          "tgn:7029392"
        ],
        "placetype": [
          "aat:300008347"
        ],
        "name:en": "Gummal",
        "id": 7590436
      }
    },
    {
      "geometry": {
        "type": "Point",
        "coordinates": [
          73.998317,
          34.310753
        ]
      },
      "type": "Feature",
      "properties": {
        "hierarchy": [
          "tgn:7590437",
          "tgn:1000004",
          "tgn:7000198",
          "tgn:7000799",
          "tgn:7029392"
        ],
        "placetype": [
          "aat:300008699"
        ],
        "name:en": "Gūjar Nār",
        "id": 7590437
      }
    },
    {
      "geometry": {
        "type": "Point",
        "coordinates": [
          73.810476,
          34.370089
        ]
      },
      "type": "Feature",
      "properties": {
        "hierarchy": [
          "tgn:7590438",
          "tgn:1000004",
          "tgn:7000198",
          "tgn:7000799",
          "tgn:7029392"
        ],
        "placetype": [
          "aat:300008699"
        ],
        "name:en": "Grang Nār",
        "id": 7590438
      }
    },
    {
      "geometry": {
        "type": "Point",
        "coordinates": [
          73.979167,
          34.387474
        ]
      },
      "type": "Feature",
      "properties": {
        "hierarchy": [
          "tgn:7590439",
          "tgn:1000004",
          "tgn:7000198",
          "tgn:7000799",
          "tgn:7029392"
        ],
        "placetype": [
          "aat:300008347"
        ],
        "name:en": "Ghumri",
        "id": 7590439
      }
    }
  ]
}
