{
  "type": "FeatureCollection",
  "features": [
    {
      "geometry": {
        "type": "Point",
        "coordinates": [
          120.6375,
          22.334167
        ]
      },
      "type": "Feature",
      "properties": {
        "hierarchy": [
          "tgn:7468330",
          "tgn:1000004",
          "tgn:7492971",
          "tgn:1000141",
          "tgn:7029392"
        ],
        "placetype": [
          "aat:300008347"
        ],
        "id": 7468330,
        "name:xx": "Jiazijiao"
      }
    },
    {
      "geometry": {
        "type": "Point",
        "coordinates": [
          120.35,
          23.55
        ]
      },
      "type": "Feature",
      "properties": {
        "hierarchy": [
          "tgn:7468331",
          "tgn:7468018",
          "tgn:1000004",
          "tgn:1000141",
          "tgn:7029392"
        ],
        "placetype": [
          "aat:300387173"
        ],
        "id": 7468331,
        "name:xx": "Xingang Xiang"
      }
    },
    {
      "geometry": {
        "type": "Point",
        "coordinates": [
          121.387129,
          23.104211
        ]
      },
      "type": "Feature",
      "properties": {
        "hierarchy": [
          "tgn:7468332",
          "tgn:1000004",
          "tgn:7491221",
          "tgn:1000141",
          "tgn:7029392"
        ],
        "placetype": [
          "aat:300008699"
        ],
        "id": 7468332,
        "name:xx": "Xingang Xi"
      }
    },
    {
      "geometry": {
        "type": "Point",
        "coordinates": [
          121.381987,
          23.107382
        ]
      },
      "type": "Feature",
      "properties": {
        "hierarchy": [
          "tgn:7468333",
          "tgn:1000004",
          "tgn:7491221",
          "tgn:1000141",
          "tgn:7029392"
        ],
        "placetype": [
          "aat:300007836"
        ],
        "id": 7468333,
        "name:xx": "Xinggang Qiao"
      }
    },
    {
      "geometry": {
        "type": "Point",
        "coordinates": [
          120.946111,
          24.852222
        ]
      },
      "type": "Feature",
      "properties": {
        "hierarchy": [
          "tgn:7468334",
          "tgn:1000004",
          "tgn:7471332",
          "tgn:1000141",
          "tgn:7029392"
        ],
        "placetype": [
          "aat:300008347"
        ],
        "id": 7468334,
        "name:xx": "Xingangcun"
      }
    },
    {
      "geometry": {
        "type": "Point",
        "coordinates": [
          120.814554,
          24.612965
        ]
      },
      "type": "Feature",
      "properties": {
        "hierarchy": [
          "tgn:7468335",
          "tgn:7487020",
          "tgn:1000004",
          "tgn:1000141",
          "tgn:7029392"
        ],
        "placetype": [
          "aat:300008347"
        ],
        "id": 7468335,
        "name:xx": "Xingang"
      }
    },
    {
      "geometry": {
        "type": "Point",
        "coordinates": [
          120.489722,
          24.172222
        ]
      },
      "type": "Feature",
      "properties": {
        "hierarchy": [
          "tgn:7468336",
          "tgn:1000004",
          "tgn:7467799",
          "tgn:1000141",
          "tgn:7029392"
        ],
        "placetype": [
          "aat:300008347"
        ],
        "id": 7468336,
        "name:xx": "Xingang"
      }
    },
    {
      "geometry": {
        "type": "Point",
        "coordinates": [
          120.486111,
          24.143333
        ]
      },
      "type": "Feature",
      "properties": {
        "hierarchy": [
          "tgn:7468337",
          "tgn:1000004",
          "tgn:7467799",
          "tgn:1000141",
          "tgn:7029392"
        ],
        "placetype": [
          "aat:300387173"
        ],
        "id": 7468337,
        "name:xx": "Xingang Cun"
      }
    },
    {
      "geometry": {
        "type": "Point",
        "coordinates": [
          120.346033,
          23.557359
        ]
      },
      "type": "Feature",
      "properties": {
        "hierarchy": [
          "tgn:7468338",
          "tgn:7468018",
          "tgn:1000004",
          "tgn:1000141",
          "tgn:7029392"
        ],
        "placetype": [
          "aat:300008347"
        ],
        "id": 7468338,
        "name:xx": "Xingang"
      }
    },
    {
      "geometry": {
        "type": "Point",
        "coordinates": [
          120.594696,
          22.519619
        ]
      },
      "type": "Feature",
      "properties": {
        "hierarchy": [
          "tgn:7468339",
          "tgn:1000004",
          "tgn:7492971",
          "tgn:1000141",
          "tgn:7029392"
        ],
        "placetype": [
          "aat:300008347"
        ],
        "id": 7468339,
        "name:xx": "Xinkailiao"
      }
    }
  ]
}
