{
  "type": "FeatureCollection",
  "features": [
    {
      "geometry": {
        "type": "Point",
        "coordinates": [
          -103.966667,
          26.483333
        ]
      },
      "type": "Feature",
      "properties": {
        "hierarchy": [
          "tgn:7390860",
          "tgn:7005583",
          "tgn:1000001",
          "tgn:7005560",
          "tgn:7029392"
        ],
        "placetype": [
          "aat:300008347"
        ],
        "id": 7390860,
        "name:xx": "Rancho La Libertad"
      }
    },
    {
      "geometry": {
        "type": "Point",
        "coordinates": [
          -104.066667,
          26.366667
        ]
      },
      "type": "Feature",
      "properties": {
        "hierarchy": [
          "tgn:7390861",
          "tgn:7005583",
          "tgn:1000001",
          "tgn:7005560",
          "tgn:7029392"
        ],
        "placetype": [
          "aat:300008347"
        ],
        "id": 7390861,
        "name:xx": "Rancho La Libertad"
      }
    },
    {
      "geometry": {
        "type": "Point",
        "coordinates": [
          -100.116667,
          26.033333
        ]
      },
      "type": "Feature",
      "properties": {
        "hierarchy": [
          "tgn:7390862",
          "tgn:1000001",
          "tgn:7005589",
          "tgn:7005560",
          "tgn:7029392"
        ],
        "placetype": [
          "aat:300008347"
        ],
        "id": 7390862,
        "name:xx": "Rancho La Leona"
      }
    },
    {
      "geometry": {
        "type": "Point",
        "coordinates": [
          -99.865,
          25.010278
        ]
      },
      "type": "Feature",
      "properties": {
        "hierarchy": [
          "tgn:7390863",
          "tgn:1000001",
          "tgn:7005589",
          "tgn:7005560",
          "tgn:7029392"
        ],
        "placetype": [
          "aat:300008347"
        ],
        "id": 7390863,
        "name:xx": "Rancho La Leona"
      }
    },
    {
      "geometry": {
        "type": "Point",
        "coordinates": [
          -100.866667,
          27.216667
        ]
      },
      "type": "Feature",
      "properties": {
        "hierarchy": [
          "tgn:7390864",
          "tgn:1001853",
          "tgn:1000001",
          "tgn:7005560",
          "tgn:7029392"
        ],
        "placetype": [
          "aat:300008347"
        ],
        "id": 7390864,
        "name:xx": "Rancho La Lajita"
      }
    },
    {
      "geometry": {
        "type": "Point",
        "coordinates": [
          -99.916667,
          26.616667
        ]
      },
      "type": "Feature",
      "properties": {
        "hierarchy": [
          "tgn:7390865",
          "tgn:1000001",
          "tgn:7005589",
          "tgn:7005560",
          "tgn:7029392"
        ],
        "placetype": [
          "aat:300008347"
        ],
        "id": 7390865,
        "name:xx": "Rancho La Lajilla"
      }
    },
    {
      "geometry": {
        "type": "Point",
        "coordinates": [
          -106.283333,
          27.616667
        ]
      },
      "type": "Feature",
      "properties": {
        "hierarchy": [
          "tgn:7390866",
          "tgn:7005581",
          "tgn:1000001",
          "tgn:7005560",
          "tgn:7029392"
        ],
        "placetype": [
          "aat:300008347"
        ],
        "id": 7390866,
        "name:xx": "Rancho La Laja"
      }
    },
    {
      "geometry": {
        "type": "Point",
        "coordinates": [
          -107.433333,
          27.266667
        ]
      },
      "type": "Feature",
      "properties": {
        "hierarchy": [
          "tgn:7390867",
          "tgn:7005581",
          "tgn:1000001",
          "tgn:7005560",
          "tgn:7029392"
        ],
        "placetype": [
          "aat:300008347"
        ],
        "id": 7390867,
        "name:xx": "Rancho La Laja"
      }
    },
    {
      "geometry": {
        "type": "Point",
        "coordinates": [
          -105.601389,
          24.251389
        ]
      },
      "type": "Feature",
      "properties": {
        "hierarchy": [
          "tgn:7390868",
          "tgn:7005583",
          "tgn:1000001",
          "tgn:7005560",
          "tgn:7029392"
        ],
        "placetype": [
          "aat:300008347"
        ],
        "id": 7390868,
        "name:xx": "Rancho La Laja"
      }
    },
    {
      "geometry": {
        "type": "Point",
        "coordinates": [
          -115.938889,
          32.029167
        ]
      },
      "type": "Feature",
      "properties": {
        "hierarchy": [
          "tgn:7390869",
          "tgn:1001835",
          "tgn:1000001",
          "tgn:7005560",
          "tgn:7029392"
        ],
        "placetype": [
          "aat:300008347"
        ],
        "id": 7390869,
        "name:xx": "Rancho La Laguna"
      }
    }
  ]
}
