{
  "type": "FeatureCollection",
  "features": [
    {
      "geometry": {
        "type": "Point",
        "coordinates": [
          121.831389,
          24.8625
        ]
      },
      "type": "Feature",
      "properties": {
        "hierarchy": [
          "tgn:7483390",
          "tgn:1000004",
          "tgn:7489179",
          "tgn:1000141",
          "tgn:7029392"
        ],
        "placetype": [
          "aat:300008699"
        ],
        "id": 7483390,
        "name:xx": "Wuying Xi"
      }
    },
    {
      "geometry": {
        "type": "Point",
        "coordinates": [
          121.825556,
          24.846111
        ]
      },
      "type": "Feature",
      "properties": {
        "hierarchy": [
          "tgn:7483391",
          "tgn:1000004",
          "tgn:7489179",
          "tgn:1000141",
          "tgn:7029392"
        ],
        "placetype": [
          "aat:300008699"
        ],
        "id": 7483391,
        "name:xx": "Toucheng He"
      }
    },
    {
      "geometry": {
        "type": "Point",
        "coordinates": [
          121.805556,
          24.862222
        ]
      },
      "type": "Feature",
      "properties": {
        "hierarchy": [
          "tgn:7483392",
          "tgn:1000004",
          "tgn:7489179",
          "tgn:1000141",
          "tgn:7029392"
        ],
        "placetype": [
          "aat:300008347"
        ],
        "id": 7483392,
        "name:xx": "Dingfucheng"
      }
    },
    {
      "geometry": {
        "type": "Point",
        "coordinates": [
          121.816667,
          24.865
        ]
      },
      "type": "Feature",
      "properties": {
        "hierarchy": [
          "tgn:7483393",
          "tgn:1000004",
          "tgn:7489179",
          "tgn:1000141",
          "tgn:7029392"
        ],
        "placetype": [
          "aat:300006610"
        ],
        "id": 7483393,
        "name:xx": "Fuxing Gongzhuan"
      }
    },
    {
      "geometry": {
        "type": "Point",
        "coordinates": [
          121.821944,
          24.858333
        ]
      },
      "type": "Feature",
      "properties": {
        "hierarchy": [
          "tgn:7483394",
          "tgn:1000004",
          "tgn:7489179",
          "tgn:1000141",
          "tgn:7029392"
        ],
        "placetype": [
          "aat:300007783"
        ],
        "id": 7483394,
        "name:xx": "Toucheng Chezhan"
      }
    },
    {
      "geometry": {
        "type": "Point",
        "coordinates": [
          121.811944,
          24.853056
        ]
      },
      "type": "Feature",
      "properties": {
        "hierarchy": [
          "tgn:7483395",
          "tgn:1000004",
          "tgn:7489179",
          "tgn:1000141",
          "tgn:7029392"
        ],
        "placetype": [
          "aat:300008347"
        ],
        "id": 7483395,
        "name:xx": "Xiafucheng"
      }
    },
    {
      "geometry": {
        "type": "Point",
        "coordinates": [
          121.8175,
          24.846667
        ]
      },
      "type": "Feature",
      "properties": {
        "hierarchy": [
          "tgn:7483396",
          "tgn:1000004",
          "tgn:7489179",
          "tgn:1000141",
          "tgn:7029392"
        ],
        "placetype": [
          "aat:300000498"
        ],
        "id": 7483396,
        "name:xx": "Shijian Xincun"
      }
    },
    {
      "geometry": {
        "type": "Point",
        "coordinates": [
          121.822778,
          24.844722
        ]
      },
      "type": "Feature",
      "properties": {
        "hierarchy": [
          "tgn:7483397",
          "tgn:1000004",
          "tgn:7489179",
          "tgn:1000141",
          "tgn:7029392"
        ],
        "placetype": [
          "aat:300007836"
        ],
        "id": 7483397,
        "name:xx": "Jinma Qiao"
      }
    },
    {
      "geometry": {
        "type": "Point",
        "coordinates": [
          121.823889,
          24.841111
        ]
      },
      "type": "Feature",
      "properties": {
        "hierarchy": [
          "tgn:7483398",
          "tgn:1000004",
          "tgn:7489179",
          "tgn:1000141",
          "tgn:7029392"
        ],
        "placetype": [
          "aat:300007836"
        ],
        "id": 7483398,
        "name:xx": "Zhu'an Qiao"
      }
    },
    {
      "geometry": {
        "type": "Point",
        "coordinates": [
          121.821111,
          24.821111
        ]
      },
      "type": "Feature",
      "properties": {
        "hierarchy": [
          "tgn:7483399",
          "tgn:1000004",
          "tgn:7489179",
          "tgn:1000141",
          "tgn:7029392"
        ],
        "placetype": [
          "aat:300007595"
        ],
        "id": 7483399,
        "name:xx": "Zhen'an Gong"
      }
    }
  ]
}
