{
  "type": "FeatureCollection",
  "features": [
    {
      "geometry": {
        "type": "Point",
        "coordinates": [
          -98.641667,
          20.727778
        ]
      },
      "type": "Feature",
      "properties": {
        "hierarchy": [
          "tgn:7414040",
          "tgn:7005587",
          "tgn:1000001",
          "tgn:7005560",
          "tgn:7029392"
        ],
        "placetype": [
          "aat:300008347"
        ],
        "id": 7414040,
        "name:es": "Coatempa"
      }
    },
    {
      "geometry": {
        "type": "Point",
        "coordinates": [
          -98.593056,
          20.743056
        ]
      },
      "type": "Feature",
      "properties": {
        "hierarchy": [
          "tgn:7414041",
          "tgn:7005587",
          "tgn:1000001",
          "tgn:7005560",
          "tgn:7029392"
        ],
        "placetype": [
          "aat:300008347"
        ],
        "id": 7414041,
        "name:es": "Lestillero"
      }
    },
    {
      "geometry": {
        "type": "Point",
        "coordinates": [
          -98.666667,
          20.730556
        ]
      },
      "type": "Feature",
      "properties": {
        "hierarchy": [
          "tgn:7414042",
          "tgn:7005587",
          "tgn:1000001",
          "tgn:7005560",
          "tgn:7029392"
        ],
        "placetype": [
          "aat:300008347"
        ],
        "id": 7414042,
        "name:es": "Santa Mónica"
      }
    },
    {
      "geometry": {
        "type": "Point",
        "coordinates": [
          -98.763889,
          20.616667
        ]
      },
      "type": "Feature",
      "properties": {
        "hierarchy": [
          "tgn:7414043",
          "tgn:7005587",
          "tgn:1000001",
          "tgn:7005560",
          "tgn:7029392"
        ],
        "placetype": [
          "aat:300008347"
        ],
        "id": 7414043,
        "name:es": "El Tablón"
      }
    },
    {
      "geometry": {
        "type": "Point",
        "coordinates": [
          -98.75,
          20.636111
        ]
      },
      "type": "Feature",
      "properties": {
        "hierarchy": [
          "tgn:7414044",
          "tgn:7005587",
          "tgn:1000001",
          "tgn:7005560",
          "tgn:7029392"
        ],
        "placetype": [
          "aat:300008347"
        ],
        "id": 7414044,
        "name:es": "La Joya de Analco"
      }
    },
    {
      "geometry": {
        "type": "Point",
        "coordinates": [
          -98.647222,
          20.656944
        ]
      },
      "type": "Feature",
      "properties": {
        "hierarchy": [
          "tgn:7414045",
          "tgn:7005587",
          "tgn:1000001",
          "tgn:7005560",
          "tgn:7029392"
        ],
        "placetype": [
          "aat:300008347"
        ],
        "id": 7414045,
        "name:es": "Coalquizque"
      }
    },
    {
      "geometry": {
        "type": "Point",
        "coordinates": [
          -98.813889,
          20.594444
        ]
      },
      "type": "Feature",
      "properties": {
        "hierarchy": [
          "tgn:7414046",
          "tgn:7005587",
          "tgn:1000001",
          "tgn:7005560",
          "tgn:7029392"
        ],
        "placetype": [
          "aat:300008347"
        ],
        "id": 7414046,
        "name:es": "Atzolcintla"
      }
    },
    {
      "geometry": {
        "type": "Point",
        "coordinates": [
          -98.816667,
          20.619444
        ]
      },
      "type": "Feature",
      "properties": {
        "hierarchy": [
          "tgn:7414047",
          "tgn:7005587",
          "tgn:1000001",
          "tgn:7005560",
          "tgn:7029392"
        ],
        "placetype": [
          "aat:300008699"
        ],
        "id": 7414047,
        "name:es": "Venados, Río"
      }
    },
    {
      "geometry": {
        "type": "Point",
        "coordinates": [
          -98.805556,
          20.619444
        ]
      },
      "type": "Feature",
      "properties": {
        "hierarchy": [
          "tgn:7414048",
          "tgn:7005587",
          "tgn:1000001",
          "tgn:7005560",
          "tgn:7029392"
        ],
        "placetype": [
          "aat:300008347"
        ],
        "id": 7414048,
        "name:es": "Tlamaxa"
      }
    },
    {
      "geometry": {
        "type": "Point",
        "coordinates": [
          -98.772222,
          20.627778
        ]
      },
      "type": "Feature",
      "properties": {
        "hierarchy": [
          "tgn:7414049",
          "tgn:7005587",
          "tgn:1000001",
          "tgn:7005560",
          "tgn:7029392"
        ],
        "placetype": [
          "aat:300008347"
        ],
        "id": 7414049,
        "name:es": "Tepatetipa"
      }
    }
  ]
}
