{
  "type": "FeatureCollection",
  "features": [
    {
      "geometry": {
        "type": "Point",
        "coordinates": [
          34.593551,
          28.83843
        ]
      },
      "type": "Feature",
      "properties": {
        "hierarchy": [
          "tgn:7532660",
          "tgn:7001242",
          "tgn:7016833",
          "tgn:7001336",
          "tgn:7029392"
        ],
        "placetype": [
          "aat:300379998"
        ],
        "name:en": "Mu'aṭrish, Wâdi",
        "id": 7532660
      }
    },
    {
      "geometry": {
        "type": "Point",
        "coordinates": [
          32.13685,
          31.316472
        ]
      },
      "type": "Feature",
      "properties": {
        "hierarchy": [
          "tgn:7532661",
          "tgn:7001242",
          "tgn:7016833",
          "tgn:1001123",
          "tgn:7029392"
        ],
        "placetype": [
          "aat:300008347"
        ],
        "id": 7532661,
        "name:xx": "Al Jarāb'ah"
      }
    },
    {
      "geometry": {
        "type": "Point",
        "coordinates": [
          34.619532,
          28.765651
        ]
      },
      "type": "Feature",
      "properties": {
        "hierarchy": [
          "tgn:7532662",
          "tgn:7001242",
          "tgn:7016833",
          "tgn:7001336",
          "tgn:7029392"
        ],
        "placetype": [
          "aat:300379998"
        ],
        "id": 7532662,
        "name:xx": "Sukhn, Wādī"
      }
    },
    {
      "geometry": {
        "type": "Point",
        "coordinates": [
          34.576349,
          28.776021
        ]
      },
      "type": "Feature",
      "properties": {
        "hierarchy": [
          "tgn:7532663",
          "tgn:7001242",
          "tgn:7016833",
          "tgn:7001336",
          "tgn:7029392"
        ],
        "placetype": [
          "aat:300379998"
        ],
        "id": 7532663,
        "name:xx": "Meneidra, Wâdi"
      }
    },
    {
      "geometry": {
        "type": "Point",
        "coordinates": [
          34.62073,
          28.810354
        ]
      },
      "type": "Feature",
      "properties": {
        "hierarchy": [
          "tgn:7532664",
          "tgn:7001242",
          "tgn:7016833",
          "tgn:7001336",
          "tgn:7029392"
        ],
        "placetype": [
          "aat:300379998"
        ],
        "id": 7532664,
        "name:xx": "Amran, Wādī"
      }
    },
    {
      "geometry": {
        "type": "Point",
        "coordinates": [
          34.579107,
          28.820973
        ]
      },
      "type": "Feature",
      "properties": {
        "hierarchy": [
          "tgn:7532665",
          "tgn:7001242",
          "tgn:7016833",
          "tgn:7001336",
          "tgn:7029392"
        ],
        "placetype": [
          "aat:300379998"
        ],
        "id": 7532665,
        "name:xx": "Talet Sa'ada"
      }
    },
    {
      "geometry": {
        "type": "Point",
        "coordinates": [
          34.608238,
          28.84086
        ]
      },
      "type": "Feature",
      "properties": {
        "hierarchy": [
          "tgn:7532666",
          "tgn:7001242",
          "tgn:7016833",
          "tgn:7001336",
          "tgn:7029392"
        ],
        "placetype": [
          "aat:300379998"
        ],
        "id": 7532666,
        "name:xx": "Umm Zaradib, Wādī"
      }
    },
    {
      "geometry": {
        "type": "Point",
        "coordinates": [
          34.578404,
          28.845773
        ]
      },
      "type": "Feature",
      "properties": {
        "hierarchy": [
          "tgn:7532667",
          "tgn:7001242",
          "tgn:7016833",
          "tgn:7001336",
          "tgn:7029392"
        ],
        "placetype": [
          "aat:300379998"
        ],
        "id": 7532667,
        "name:xx": "Ḥibeiqîya, Wâdi-el"
      }
    },
    {
      "geometry": {
        "type": "Point",
        "coordinates": [
          34.612839,
          28.846894
        ]
      },
      "type": "Feature",
      "properties": {
        "hierarchy": [
          "tgn:7532668",
          "tgn:7001242",
          "tgn:7016833",
          "tgn:7001336",
          "tgn:7029392"
        ],
        "placetype": [
          "aat:300379998"
        ],
        "id": 7532668,
        "name:xx": "Nakhl, Rôḍ el-"
      }
    },
    {
      "geometry": {
        "type": "Point",
        "coordinates": [
          34.640074,
          28.876941
        ]
      },
      "type": "Feature",
      "properties": {
        "hierarchy": [
          "tgn:7532669",
          "tgn:7001242",
          "tgn:7016833",
          "tgn:7001336",
          "tgn:7029392"
        ],
        "placetype": [
          "aat:300379998"
        ],
        "id": 7532669,
        "name:xx": "Shaq Diyâb, Wâdi"
      }
    }
  ]
}
