{
  "type": "FeatureCollection",
  "features": [
    {
      "geometry": {
        "type": "Point",
        "coordinates": [
          -111.838889,
          31.204444
        ]
      },
      "type": "Feature",
      "properties": {
        "hierarchy": [
          "tgn:7398420",
          "tgn:1000001",
          "tgn:1001960",
          "tgn:7005560",
          "tgn:7029392"
        ],
        "placetype": [
          "aat:300008777"
        ],
        "id": 7398420,
        "name:xx": "El Corral, Cerro"
      }
    },
    {
      "geometry": {
        "type": "Point",
        "coordinates": [
          -111.814444,
          31.2275
        ]
      },
      "type": "Feature",
      "properties": {
        "hierarchy": [
          "tgn:7398421",
          "tgn:1000001",
          "tgn:1001960",
          "tgn:7005560",
          "tgn:7029392"
        ],
        "placetype": [
          "aat:300008777"
        ],
        "id": 7398421,
        "name:xx": "La Virgen, Cerro"
      }
    },
    {
      "geometry": {
        "type": "Point",
        "coordinates": [
          -111.828611,
          31.231944
        ]
      },
      "type": "Feature",
      "properties": {
        "hierarchy": [
          "tgn:7398422",
          "tgn:1000001",
          "tgn:1001960",
          "tgn:7005560",
          "tgn:7029392"
        ],
        "placetype": [
          "aat:300008777"
        ],
        "id": 7398422,
        "name:xx": "Potrerito, Cerro"
      }
    },
    {
      "geometry": {
        "type": "Point",
        "coordinates": [
          -111.845556,
          31.219722
        ]
      },
      "type": "Feature",
      "properties": {
        "hierarchy": [
          "tgn:7398423",
          "tgn:1000001",
          "tgn:1001960",
          "tgn:7005560",
          "tgn:7029392"
        ],
        "placetype": [
          "aat:300008777"
        ],
        "id": 7398423,
        "name:xx": "Atravesado, Cerro"
      }
    },
    {
      "geometry": {
        "type": "Point",
        "coordinates": [
          -111.856389,
          31.196111
        ]
      },
      "type": "Feature",
      "properties": {
        "hierarchy": [
          "tgn:7398424",
          "tgn:1000001",
          "tgn:1001960",
          "tgn:7005560",
          "tgn:7029392"
        ],
        "placetype": [
          "aat:300266554",
          "aat:300008699"
        ],
        "id": 7398424,
        "name:xx": "Ca침ada el Tap칩n, Arroyo"
      }
    },
    {
      "geometry": {
        "type": "Point",
        "coordinates": [
          -111.920556,
          31.184167
        ]
      },
      "type": "Feature",
      "properties": {
        "hierarchy": [
          "tgn:7398425",
          "tgn:1000001",
          "tgn:1001960",
          "tgn:7005560",
          "tgn:7029392"
        ],
        "placetype": [
          "aat:300008777"
        ],
        "id": 7398425,
        "name:xx": "Sahuara, Cerro"
      }
    },
    {
      "geometry": {
        "type": "Point",
        "coordinates": [
          -111.926667,
          31.225278
        ]
      },
      "type": "Feature",
      "properties": {
        "hierarchy": [
          "tgn:7398426",
          "tgn:1000001",
          "tgn:1001960",
          "tgn:7005560",
          "tgn:7029392"
        ],
        "placetype": [
          "aat:300008777"
        ],
        "id": 7398426,
        "name:xx": "San Pedro, Cerro"
      }
    },
    {
      "geometry": {
        "type": "Point",
        "coordinates": [
          -111.975,
          31.215278
        ]
      },
      "type": "Feature",
      "properties": {
        "hierarchy": [
          "tgn:7398427",
          "tgn:1000001",
          "tgn:1001960",
          "tgn:7005560",
          "tgn:7029392"
        ],
        "placetype": [
          "aat:300008347"
        ],
        "id": 7398427,
        "name:xx": "El Dos"
      }
    },
    {
      "geometry": {
        "type": "Point",
        "coordinates": [
          -111.9825,
          31.198056
        ]
      },
      "type": "Feature",
      "properties": {
        "hierarchy": [
          "tgn:7398428",
          "tgn:1000001",
          "tgn:1001960",
          "tgn:7005560",
          "tgn:7029392"
        ],
        "placetype": [
          "aat:300006191"
        ],
        "id": 7398428,
        "name:xx": "El Cimarr칩n"
      }
    },
    {
      "geometry": {
        "type": "Point",
        "coordinates": [
          -111.989722,
          31.203333
        ]
      },
      "type": "Feature",
      "properties": {
        "hierarchy": [
          "tgn:7398429",
          "tgn:1000001",
          "tgn:1001960",
          "tgn:7005560",
          "tgn:7029392"
        ],
        "placetype": [
          "aat:300008777"
        ],
        "id": 7398429,
        "name:xx": "El Cimarr칩n, Cerro"
      }
    }
  ]
}
