{
  "type": "FeatureCollection",
  "features": [
    {
      "geometry": {
        "type": "Point",
        "coordinates": [
          121.374043,
          23.468069
        ]
      },
      "type": "Feature",
      "properties": {
        "hierarchy": [
          "tgn:7468110",
          "tgn:7001010",
          "tgn:1000004",
          "tgn:1000141",
          "tgn:7029392"
        ],
        "placetype": [
          "aat:300008777"
        ],
        "id": 7468110,
        "name:xx": "Jianana Shan"
      }
    },
    {
      "geometry": {
        "type": "Point",
        "coordinates": [
          121.673179,
          24.300113
        ]
      },
      "type": "Feature",
      "properties": {
        "hierarchy": [
          "tgn:7468111",
          "tgn:7001010",
          "tgn:1000004",
          "tgn:1000141",
          "tgn:7029392"
        ],
        "placetype": [
          "aat:300008798"
        ],
        "id": 7468111,
        "name:xx": "Jialuoli Shan"
      }
    },
    {
      "geometry": {
        "type": "Point",
        "coordinates": [
          121.372141,
          23.62725
        ]
      },
      "type": "Feature",
      "properties": {
        "hierarchy": [
          "tgn:7468112",
          "tgn:7001010",
          "tgn:1000004",
          "tgn:1000141",
          "tgn:7029392"
        ],
        "placetype": [
          "aat:300008798"
        ],
        "id": 7468112,
        "name:xx": "Jialuolan Shan"
      }
    },
    {
      "geometry": {
        "type": "Point",
        "coordinates": [
          121.560016,
          24.043151
        ]
      },
      "type": "Feature",
      "properties": {
        "hierarchy": [
          "tgn:7468113",
          "tgn:7001010",
          "tgn:1000004",
          "tgn:1000141",
          "tgn:7029392"
        ],
        "placetype": [
          "aat:300008798"
        ],
        "id": 7468113,
        "name:xx": "Jialiwan Shan"
      }
    },
    {
      "geometry": {
        "type": "Point",
        "coordinates": [
          120.494205,
          23.653179
        ]
      },
      "type": "Feature",
      "properties": {
        "hierarchy": [
          "tgn:7468114",
          "tgn:1000004",
          "tgn:7001014",
          "tgn:1000141",
          "tgn:7029392"
        ],
        "placetype": [
          "aat:300008347"
        ],
        "id": 7468114,
        "name:xx": "Jialiupi"
      }
    },
    {
      "geometry": {
        "type": "Point",
        "coordinates": [
          121.49123,
          23.678356
        ]
      },
      "type": "Feature",
      "properties": {
        "hierarchy": [
          "tgn:7468115",
          "tgn:7001010",
          "tgn:1000004",
          "tgn:1000141",
          "tgn:7029392"
        ],
        "placetype": [
          "aat:300008798"
        ],
        "id": 7468115,
        "name:xx": "Jialitun Shan"
      }
    },
    {
      "geometry": {
        "type": "Point",
        "coordinates": [
          121.0125,
          24.510556
        ]
      },
      "type": "Feature",
      "properties": {
        "hierarchy": [
          "tgn:7468116",
          "tgn:7487020",
          "tgn:1000004",
          "tgn:1000141",
          "tgn:7029392"
        ],
        "placetype": [
          "aat:300008798"
        ],
        "id": 7468116,
        "name:xx": "Jiali Shan"
      }
    },
    {
      "geometry": {
        "type": "Point",
        "coordinates": [
          121.216111,
          24.459444
        ]
      },
      "type": "Feature",
      "properties": {
        "hierarchy": [
          "tgn:7468117",
          "tgn:7487020",
          "tgn:1000004",
          "tgn:1000141",
          "tgn:7029392"
        ],
        "placetype": [
          "aat:300008798"
        ],
        "id": 7468117,
        "name:xx": "Jiali Shan"
      }
    },
    {
      "geometry": {
        "type": "Point",
        "coordinates": [
          121.054167,
          23.798611
        ]
      },
      "type": "Feature",
      "properties": {
        "hierarchy": [
          "tgn:7468118",
          "tgn:7488858",
          "tgn:1000004",
          "tgn:1000141",
          "tgn:7029392"
        ],
        "placetype": [
          "aat:300008347"
        ],
        "id": 7468118,
        "name:xx": "Jialimo'anshe"
      }
    },
    {
      "geometry": {
        "type": "Point",
        "coordinates": [
          121.071389,
          23.823333
        ]
      },
      "type": "Feature",
      "properties": {
        "hierarchy": [
          "tgn:7468119",
          "tgn:7488858",
          "tgn:1000004",
          "tgn:1000141",
          "tgn:7029392"
        ],
        "placetype": [
          "aat:300008347"
        ],
        "id": 7468119,
        "name:xx": "Jialimo'an"
      }
    }
  ]
}
