{
  "type": "FeatureCollection",
  "features": [
    {
      "geometry": {
        "type": "Point",
        "coordinates": [
          86.081118,
          21.049005
        ]
      },
      "type": "Feature",
      "properties": {
        "hierarchy": [
          "tgn:7569590",
          "tgn:1000004",
          "tgn:7000198",
          "tgn:7016694",
          "tgn:7029392"
        ],
        "placetype": [
          "aat:300008777"
        ],
        "name:en": "Kajabi Huli",
        "id": 7569590
      }
    },
    {
      "geometry": {
        "type": "Point",
        "coordinates": [
          86.065697,
          21.057647
        ]
      },
      "type": "Feature",
      "properties": {
        "hierarchy": [
          "tgn:7569591",
          "tgn:1000004",
          "tgn:7000198",
          "tgn:7016694",
          "tgn:7029392"
        ],
        "placetype": [
          "aat:300008777"
        ],
        "name:en": "Dhani Huli",
        "id": 7569591
      }
    },
    {
      "geometry": {
        "type": "Point",
        "coordinates": [
          86.019343,
          21.053707
        ]
      },
      "type": "Feature",
      "properties": {
        "hierarchy": [
          "tgn:7569592",
          "tgn:1000004",
          "tgn:7000198",
          "tgn:7016694",
          "tgn:7029392"
        ],
        "placetype": [
          "aat:300008777"
        ],
        "name:en": "Kuspada Huli",
        "id": 7569592
      }
    },
    {
      "geometry": {
        "type": "Point",
        "coordinates": [
          86.240626,
          21.21204
        ]
      },
      "type": "Feature",
      "properties": {
        "hierarchy": [
          "tgn:7569593",
          "tgn:1000004",
          "tgn:7000198",
          "tgn:7016694",
          "tgn:7029392"
        ],
        "placetype": [
          "aat:300008777"
        ],
        "name:en": "Pursangiri",
        "id": 7569593
      }
    },
    {
      "geometry": {
        "type": "Point",
        "coordinates": [
          86.232392,
          21.241137
        ]
      },
      "type": "Feature",
      "properties": {
        "hierarchy": [
          "tgn:7569594",
          "tgn:1000004",
          "tgn:7000198",
          "tgn:7016694",
          "tgn:7029392"
        ],
        "placetype": [
          "aat:300008777"
        ],
        "name:en": "Childhāri Huli",
        "id": 7569594
      }
    },
    {
      "geometry": {
        "type": "Point",
        "coordinates": [
          86.232778,
          21.298333
        ]
      },
      "type": "Feature",
      "properties": {
        "hierarchy": [
          "tgn:7569595",
          "tgn:1000004",
          "tgn:7000198",
          "tgn:7016694",
          "tgn:7029392"
        ],
        "placetype": [
          "aat:300008777"
        ],
        "name:en": "Phuljhora Pahār",
        "id": 7569595
      }
    },
    {
      "geometry": {
        "type": "Point",
        "coordinates": [
          86.19996,
          21.285037
        ]
      },
      "type": "Feature",
      "properties": {
        "hierarchy": [
          "tgn:7569596",
          "tgn:1000004",
          "tgn:7000198",
          "tgn:7016694",
          "tgn:7029392"
        ],
        "placetype": [
          "aat:300008777"
        ],
        "name:en": "Bāgmāra Pahār",
        "id": 7569596
      }
    },
    {
      "geometry": {
        "type": "Point",
        "coordinates": [
          86.12509,
          21.276452
        ]
      },
      "type": "Feature",
      "properties": {
        "hierarchy": [
          "tgn:7569597",
          "tgn:1000004",
          "tgn:7000198",
          "tgn:7016694",
          "tgn:7029392"
        ],
        "placetype": [
          "aat:300008777"
        ],
        "name:en": "Mālkuro Pahār",
        "id": 7569597
      }
    },
    {
      "geometry": {
        "type": "Point",
        "coordinates": [
          86.049598,
          21.248926
        ]
      },
      "type": "Feature",
      "properties": {
        "hierarchy": [
          "tgn:7569598",
          "tgn:1000004",
          "tgn:7000198",
          "tgn:7016694",
          "tgn:7029392"
        ],
        "placetype": [
          "aat:300008777"
        ],
        "name:en": "Dhanāi Huli",
        "id": 7569598
      }
    },
    {
      "geometry": {
        "type": "Point",
        "coordinates": [
          86.206944,
          21.3425
        ]
      },
      "type": "Feature",
      "properties": {
        "hierarchy": [
          "tgn:7569599",
          "tgn:1000004",
          "tgn:7000198",
          "tgn:7016694",
          "tgn:7029392"
        ],
        "placetype": [
          "aat:300008777"
        ],
        "name:en": "Kundipāl Huli",
        "id": 7569599
      }
    }
  ]
}
