{
  "type": "FeatureCollection",
  "features": [
    {
      "geometry": {
        "type": "Point",
        "coordinates": [
          -2.8833,
          5.05
        ]
      },
      "type": "Feature",
      "properties": {
        "hierarchy": [
          "tgn:1090130",
          "tgn:7001242",
          "tgn:1001771",
          "tgn:1000166",
          "tgn:7029392"
        ],
        "placetype": [
          "aat:300008347"
        ],
        "id": 1090130,
        "name:xx": "Half Assini"
      }
    },
    {
      "geometry": {
        "type": "Point",
        "coordinates": [
          -2.7333,
          10.9833
        ]
      },
      "type": "Feature",
      "properties": {
        "hierarchy": [
          "tgn:1090131",
          "tgn:7001242",
          "tgn:7018308",
          "tgn:1000166",
          "tgn:7029392"
        ],
        "placetype": [
          "aat:300008347"
        ],
        "id": 1090131,
        "name:xx": "Hamale"
      }
    },
    {
      "geometry": {
        "type": "Point",
        "coordinates": [
          -2.3667,
          10.7667
        ]
      },
      "type": "Feature",
      "properties": {
        "hierarchy": [
          "tgn:1090132",
          "tgn:7001242",
          "tgn:7018308",
          "tgn:1000166",
          "tgn:7029392"
        ],
        "placetype": [
          "aat:300008347"
        ],
        "id": 1090132,
        "name:xx": "Han"
      }
    },
    {
      "geometry": {
        "type": "Point",
        "coordinates": [
          0.6333,
          6.6333
        ]
      },
      "type": "Feature",
      "properties": {
        "hierarchy": [
          "tgn:1090133",
          "tgn:7001242",
          "tgn:1001770",
          "tgn:1000166",
          "tgn:7029392"
        ],
        "placetype": [
          "aat:300008347",
          "aat:300387220"
        ],
        "id": 1090133,
        "name:xx": "Ho"
      }
    },
    {
      "geometry": {
        "type": "Point",
        "coordinates": [
          0.5333,
          7.1333
        ]
      },
      "type": "Feature",
      "properties": {
        "hierarchy": [
          "tgn:1090134",
          "tgn:7001242",
          "tgn:1001770",
          "tgn:1000166",
          "tgn:7029392"
        ],
        "placetype": [
          "aat:300008347"
        ],
        "id": 1090134,
        "name:xx": "Hohoe"
      }
    },
    {
      "geometry": {
        "type": "Point",
        "coordinates": [
          -1.9333,
          5.55
        ]
      },
      "type": "Feature",
      "properties": {
        "hierarchy": [
          "tgn:1090135",
          "tgn:7001242",
          "tgn:1001771",
          "tgn:1000166",
          "tgn:7029392"
        ],
        "placetype": [
          "aat:300008347"
        ],
        "id": 1090135,
        "name:xx": "Huni Valley"
      }
    },
    {
      "geometry": {
        "type": "Point",
        "coordinates": [
          0.55,
          7.4667
        ]
      },
      "type": "Feature",
      "properties": {
        "hierarchy": [
          "tgn:1090136",
          "tgn:7001242",
          "tgn:1001770",
          "tgn:1000166",
          "tgn:7029392"
        ],
        "placetype": [
          "aat:300008347"
        ],
        "id": 1090136,
        "name:xx": "Jasikan"
      }
    },
    {
      "geometry": {
        "type": "Point",
        "coordinates": [
          -2.65,
          7.4333
        ]
      },
      "type": "Feature",
      "properties": {
        "hierarchy": [
          "tgn:1090137",
          "tgn:1001640",
          "tgn:7001242",
          "tgn:1000166",
          "tgn:7029392"
        ],
        "placetype": [
          "aat:300008347"
        ],
        "id": 1090137,
        "name:xx": "Jinjini"
      }
    },
    {
      "geometry": {
        "type": "Point",
        "coordinates": [
          -0.85,
          6.1333
        ]
      },
      "type": "Feature",
      "properties": {
        "hierarchy": [
          "tgn:1090138",
          "tgn:7001242",
          "tgn:1001663",
          "tgn:1000166",
          "tgn:7029392"
        ],
        "placetype": [
          "aat:300008347"
        ],
        "id": 1090138,
        "name:xx": "Kade"
      }
    },
    {
      "geometry": {
        "type": "Point",
        "coordinates": [
          -2.6167,
          10.6667
        ]
      },
      "type": "Feature",
      "properties": {
        "hierarchy": [
          "tgn:1090139",
          "tgn:7001242",
          "tgn:7018308",
          "tgn:1000166",
          "tgn:7029392"
        ],
        "placetype": [
          "aat:300008347"
        ],
        "id": 1090139,
        "name:xx": "Karni"
      }
    }
  ]
}
