{
  "type": "FeatureCollection",
  "features": [
    {
      "geometry": {
        "type": "Point",
        "coordinates": [
          30.766667,
          27.416667
        ]
      },
      "type": "Feature",
      "properties": {
        "hierarchy": [
          "tgn:7523571",
          "tgn:7001242",
          "tgn:7016833",
          "tgn:1001114",
          "tgn:7029392"
        ],
        "placetype": [
          "aat:300008347"
        ],
        "name:en": "As Sarāqinā",
        "id": 7523571
      }
    },
    {
      "geometry": {
        "type": "Point",
        "coordinates": [
          30.133333,
          31.133333
        ]
      },
      "type": "Feature",
      "properties": {
        "hierarchy": [
          "tgn:7523572",
          "tgn:7001242",
          "tgn:1001075",
          "tgn:7016833",
          "tgn:7029392"
        ],
        "placetype": [
          "aat:300008347"
        ],
        "name:en": "As Sa'rānīyah",
        "id": 7523572
      }
    },
    {
      "geometry": {
        "type": "Point",
        "coordinates": [
          31.72074,
          26.425888
        ]
      },
      "type": "Feature",
      "properties": {
        "hierarchy": [
          "tgn:7523573",
          "tgn:7001242",
          "tgn:7016833",
          "tgn:7000124",
          "tgn:7029392"
        ],
        "placetype": [
          "aat:300008347"
        ],
        "name:en": "As Saqrīyah",
        "id": 7523573
      }
    },
    {
      "geometry": {
        "type": "Point",
        "coordinates": [
          32.874298,
          26.743145
        ]
      },
      "type": "Feature",
      "properties": {
        "hierarchy": [
          "tgn:7523574",
          "tgn:7001242",
          "tgn:7001311",
          "tgn:7016833",
          "tgn:7029392"
        ],
        "placetype": [
          "aat:300008057"
        ],
        "name:en": "As Sāqiyah",
        "id": 7523574
      }
    },
    {
      "geometry": {
        "type": "Point",
        "coordinates": [
          31.116667,
          30.733333
        ]
      },
      "type": "Feature",
      "properties": {
        "hierarchy": [
          "tgn:7523575",
          "tgn:7001242",
          "tgn:7016833",
          "tgn:7001312",
          "tgn:7029392"
        ],
        "placetype": [
          "aat:300007783"
        ],
        "name:en": "As Sanţah",
        "id": 7523575
      }
    },
    {
      "geometry": {
        "type": "Point",
        "coordinates": [
          31.495251,
          30.8036
        ]
      },
      "type": "Feature",
      "properties": {
        "hierarchy": [
          "tgn:7523578",
          "tgn:7001242",
          "tgn:1001059",
          "tgn:7016833",
          "tgn:7029392"
        ],
        "placetype": [
          "aat:300008347"
        ],
        "name:en": "Aş Şāniyah",
        "id": 7523578
      }
    },
    {
      "geometry": {
        "type": "Point",
        "coordinates": [
          31.626709,
          30.534231
        ]
      },
      "type": "Feature",
      "properties": {
        "hierarchy": [
          "tgn:7523579",
          "tgn:7001242",
          "tgn:7016833",
          "tgn:1001113",
          "tgn:7029392"
        ],
        "placetype": [
          "aat:300008347"
        ],
        "id": 7523579,
        "name:xx": "As Sanājirah"
      }
    }
  ]
}
