{
  "type": "FeatureCollection",
  "features": [
    {
      "geometry": {
        "type": "Point",
        "coordinates": [
          34.242953,
          24.498433
        ]
      },
      "type": "Feature",
      "properties": {
        "hierarchy": [
          "tgn:7520570",
          "tgn:7001242",
          "tgn:7001311",
          "tgn:7016833",
          "tgn:7029392"
        ],
        "placetype": [
          "aat:300379998"
        ],
        "name:en": "'Âbid, Rôd",
        "id": 7520570
      }
    },
    {
      "geometry": {
        "type": "Point",
        "coordinates": [
          27.361258,
          30.832643
        ]
      },
      "type": "Feature",
      "properties": {
        "hierarchy": [
          "tgn:7520571",
          "tgn:7001242",
          "tgn:7016833",
          "tgn:1001418",
          "tgn:7029392"
        ],
        "placetype": [
          "aat:300005926"
        ],
        "name:en": "Qabr el 'Abîd",
        "id": 7520571
      }
    },
    {
      "geometry": {
        "type": "Point",
        "coordinates": [
          30.133333,
          31.166667
        ]
      },
      "type": "Feature",
      "properties": {
        "hierarchy": [
          "tgn:7520572",
          "tgn:7001242",
          "tgn:1001075",
          "tgn:7016833",
          "tgn:7029392"
        ],
        "placetype": [
          "aat:300000206"
        ],
        "name:en": "'Izbat al 'Abīd",
        "id": 7520572
      }
    },
    {
      "geometry": {
        "type": "Point",
        "coordinates": [
          31.913111,
          31.471411
        ]
      },
      "type": "Feature",
      "properties": {
        "hierarchy": [
          "tgn:7520573",
          "tgn:7001242",
          "tgn:1001059",
          "tgn:7016833",
          "tgn:7029392"
        ],
        "placetype": [
          "aat:300008713"
        ],
        "name:en": "'Abīd, Ḩalq al",
        "id": 7520573
      }
    },
    {
      "geometry": {
        "type": "Point",
        "coordinates": [
          30.533333,
          25.25
        ]
      },
      "type": "Feature",
      "properties": {
        "hierarchy": [
          "tgn:7520574",
          "tgn:7001242",
          "tgn:7016833",
          "tgn:7001334",
          "tgn:7029392"
        ],
        "placetype": [
          "aat:300006207"
        ],
        "name:en": "'Aîn el-Abia",
        "id": 7520574
      }
    },
    {
      "geometry": {
        "type": "Point",
        "coordinates": [
          30.842989,
          29.421815
        ]
      },
      "type": "Feature",
      "properties": {
        "hierarchy": [
          "tgn:7520575",
          "tgn:7001242",
          "tgn:7001105",
          "tgn:7016833",
          "tgn:7029392"
        ],
        "placetype": [
          "aat:300008347"
        ],
        "name:en": "Abhīt",
        "id": 7520575
      }
    },
    {
      "geometry": {
        "type": "Point",
        "coordinates": [
          34.483333,
          29.183333
        ]
      },
      "type": "Feature",
      "properties": {
        "hierarchy": [
          "tgn:7520576",
          "tgn:7001242",
          "tgn:7016833",
          "tgn:7001336",
          "tgn:7029392"
        ],
        "placetype": [
          "aat:300379998"
        ],
        "name:en": "Abeiyid, Wâdi",
        "id": 7520576
      }
    },
    {
      "geometry": {
        "type": "Point",
        "coordinates": [
          33.8525,
          30.675556
        ]
      },
      "type": "Feature",
      "properties": {
        "hierarchy": [
          "tgn:7520577",
          "tgn:7001242",
          "tgn:7016833",
          "tgn:7001335",
          "tgn:7029392"
        ],
        "placetype": [
          "aat:300008777"
        ],
        "id": 7520577,
        "name:xx": "Abeiriq el-Gindi"
      }
    },
    {
      "geometry": {
        "type": "Point",
        "coordinates": [
          33.933333,
          30.533333
        ]
      },
      "type": "Feature",
      "properties": {
        "hierarchy": [
          "tgn:7520578",
          "tgn:7001242",
          "tgn:7016833",
          "tgn:7001335",
          "tgn:7029392"
        ],
        "placetype": [
          "aat:300008777"
        ],
        "id": 7520578,
        "name:xx": "Abeiriq, Gebel el"
      }
    },
    {
      "geometry": {
        "type": "Point",
        "coordinates": [
          30.616667,
          25.416667
        ]
      },
      "type": "Feature",
      "properties": {
        "hierarchy": [
          "tgn:7520579",
          "tgn:7001242",
          "tgn:7016833",
          "tgn:7001334",
          "tgn:7029392"
        ],
        "placetype": [
          "aat:300006207"
        ],
        "name:en": "Aîn Abdula",
        "id": 7520579
      }
    }
  ]
}
