{
  "type": "FeatureCollection",
  "features": [
    {
      "geometry": {
        "type": "Point",
        "coordinates": [
          31.221801,
          31.174194
        ]
      },
      "type": "Feature",
      "properties": {
        "hierarchy": [
          "tgn:1095440",
          "tgn:7001242",
          "tgn:7016833",
          "tgn:1001335",
          "tgn:7029392"
        ],
        "placetype": [
          "aat:300008347"
        ],
        "name:en": "Biyala",
        "id": 1095440
      }
    },
    {
      "geometry": {
        "type": "Point",
        "coordinates": [
          30.231028,
          30.978421
        ]
      },
      "type": "Feature",
      "properties": {
        "hierarchy": [
          "tgn:1095441",
          "tgn:7001242",
          "tgn:1001075",
          "tgn:7016833",
          "tgn:7029392"
        ],
        "placetype": [
          "aat:300008347"
        ],
        "name:en": "'Izbat Māḑī",
        "id": 1095441
      }
    },
    {
      "geometry": {
        "type": "Point",
        "coordinates": [
          31.134214,
          30.147498
        ]
      },
      "type": "Feature",
      "properties": {
        "hierarchy": [
          "tgn:1095442",
          "tgn:7001242",
          "tgn:7016833",
          "tgn:1001083",
          "tgn:7029392"
        ],
        "placetype": [
          "aat:300008347"
        ],
        "id": 1095442,
        "name:xx": "Burṭus"
      }
    },
    {
      "geometry": {
        "type": "Point",
        "coordinates": [
          30.386425,
          31.450513
        ]
      },
      "type": "Feature",
      "properties": {
        "hierarchy": [
          "tgn:1095443",
          "tgn:7001242",
          "tgn:7016833",
          "tgn:1001335",
          "tgn:7029392"
        ],
        "placetype": [
          "aat:300008347"
        ],
        "name:en": "Burj Mughayzil",
        "id": 1095443
      }
    },
    {
      "geometry": {
        "type": "Point",
        "coordinates": [
          29.553573,
          30.903487
        ]
      },
      "type": "Feature",
      "properties": {
        "hierarchy": [
          "tgn:1095444",
          "tgn:7001242",
          "tgn:7016833",
          "tgn:1001418",
          "tgn:7029392"
        ],
        "placetype": [
          "aat:300008347"
        ],
        "name:en": "Burj al 'Arab",
        "id": 1095444
      }
    },
    {
      "geometry": {
        "type": "Point",
        "coordinates": [
          30.645266,
          28.393337
        ]
      },
      "type": "Feature",
      "properties": {
        "hierarchy": [
          "tgn:1095445",
          "tgn:7001242",
          "tgn:7016833",
          "tgn:1001088",
          "tgn:7029392"
        ],
        "placetype": [
          "aat:300008347"
        ],
        "name:en": "Dāqūf",
        "id": 1095445
      }
    },
    {
      "geometry": {
        "type": "Point",
        "coordinates": [
          31.233333,
          29.983333
        ]
      },
      "type": "Feature",
      "properties": {
        "hierarchy": [
          "tgn:1095446",
          "tgn:7001242",
          "tgn:7016833",
          "tgn:1001083",
          "tgn:7029392"
        ],
        "placetype": [
          "aat:300008347"
        ],
        "name:en": "Dār as Salām",
        "id": 1095446
      }
    },
    {
      "geometry": {
        "type": "Point",
        "coordinates": [
          30.813326,
          28.690624
        ]
      },
      "type": "Feature",
      "properties": {
        "hierarchy": [
          "tgn:1095447",
          "tgn:7001242",
          "tgn:7016833",
          "tgn:1001088",
          "tgn:7029392"
        ],
        "placetype": [
          "aat:300008347"
        ],
        "name:en": "Dahmarū",
        "id": 1095447
      }
    },
    {
      "geometry": {
        "type": "Point",
        "coordinates": [
          30.700582,
          27.642493
        ]
      },
      "type": "Feature",
      "properties": {
        "hierarchy": [
          "tgn:1095449",
          "tgn:7001242",
          "tgn:7016833",
          "tgn:1001088",
          "tgn:7029392"
        ],
        "placetype": [
          "aat:300008347"
        ],
        "name:en": "Daljā'",
        "id": 1095449
      }
    }
  ]
}
