{
  "type": "FeatureCollection",
  "features": [
    {
      "geometry": {
        "type": "Point",
        "coordinates": [
          31.416667,
          29.833333
        ]
      },
      "type": "Feature",
      "properties": {
        "hierarchy": [
          "tgn:7521350",
          "tgn:7001242",
          "tgn:7016833",
          "tgn:1001091",
          "tgn:7029392"
        ],
        "placetype": [
          "aat:300379998"
        ],
        "name:en": "Abū Gharāqid, Wādī",
        "id": 7521350
      }
    },
    {
      "geometry": {
        "type": "Point",
        "coordinates": [
          34.688575,
          29.625467
        ]
      },
      "type": "Feature",
      "properties": {
        "hierarchy": [
          "tgn:7521351",
          "tgn:7001242",
          "tgn:7016833",
          "tgn:7001336",
          "tgn:7029392"
        ],
        "placetype": [
          "aat:300379998"
        ],
        "name:en": "Abū 'Araybāt, Wādī",
        "id": 7521351
      }
    },
    {
      "geometry": {
        "type": "Point",
        "coordinates": [
          28.105112,
          30.091271
        ]
      },
      "type": "Feature",
      "properties": {
        "hierarchy": [
          "tgn:7521352",
          "tgn:7001242",
          "tgn:7016833",
          "tgn:1001418",
          "tgn:7029392"
        ],
        "placetype": [
          "aat:300006207"
        ],
        "name:en": "Bi'r Abū Gharādiq",
        "id": 7521352
      }
    },
    {
      "geometry": {
        "type": "Point",
        "coordinates": [
          30.63851,
          31.276973
        ]
      },
      "type": "Feature",
      "properties": {
        "hierarchy": [
          "tgn:7521353",
          "tgn:7001242",
          "tgn:7016833",
          "tgn:1001335",
          "tgn:7029392"
        ],
        "placetype": [
          "aat:300008347"
        ],
        "name:en": "Abū Ghanīmah",
        "id": 7521353
      }
    },
    {
      "geometry": {
        "type": "Point",
        "coordinates": [
          35.280949,
          24.018241
        ]
      },
      "type": "Feature",
      "properties": {
        "hierarchy": [
          "tgn:7521354",
          "tgn:7001242",
          "tgn:7001311",
          "tgn:7016833",
          "tgn:7029392"
        ],
        "placetype": [
          "aat:300008795"
        ],
        "name:en": "Abū Ghalqah, Jabal",
        "id": 7521354
      }
    },
    {
      "geometry": {
        "type": "Point",
        "coordinates": [
          35.066667,
          24.383333
        ]
      },
      "type": "Feature",
      "properties": {
        "hierarchy": [
          "tgn:7521355",
          "tgn:7001242",
          "tgn:7001311",
          "tgn:7016833",
          "tgn:7029392"
        ],
        "placetype": [
          "aat:300379998"
        ],
        "name:en": "Abū Ghāliqah, Wādī",
        "id": 7521355
      }
    },
    {
      "geometry": {
        "type": "Point",
        "coordinates": [
          30.90828,
          30.27323
        ]
      },
      "type": "Feature",
      "properties": {
        "hierarchy": [
          "tgn:7521356",
          "tgn:7001242",
          "tgn:7016833",
          "tgn:1001083",
          "tgn:7029392"
        ],
        "placetype": [
          "aat:300007783"
        ],
        "name:en": "Maḩaţţat Abū Ghālib",
        "id": 7521356
      }
    },
    {
      "geometry": {
        "type": "Point",
        "coordinates": [
          30.966667,
          30.25
        ]
      },
      "type": "Feature",
      "properties": {
        "hierarchy": [
          "tgn:7521357",
          "tgn:7001242",
          "tgn:7016833",
          "tgn:1001083",
          "tgn:7029392"
        ],
        "placetype": [
          "aat:300008791"
        ],
        "name:en": "Abū Ghālib, Jazīrat",
        "id": 7521357
      }
    },
    {
      "geometry": {
        "type": "Point",
        "coordinates": [
          31.590631,
          31.194401
        ]
      },
      "type": "Feature",
      "properties": {
        "hierarchy": [
          "tgn:7521359",
          "tgn:7001242",
          "tgn:7016833",
          "tgn:1001225",
          "tgn:7029392"
        ],
        "placetype": [
          "aat:300008347"
        ],
        "name:en": "Al Aḩmadīyah",
        "id": 7521359
      }
    }
  ]
}
