{
  "type": "FeatureCollection",
  "features": [
    {
      "geometry": {
        "type": "Point",
        "coordinates": [
          78.616667,
          14.616667
        ]
      },
      "type": "Feature",
      "properties": {
        "hierarchy": [
          "tgn:7572570",
          "tgn:1001828",
          "tgn:1000004",
          "tgn:7000198",
          "tgn:7029392"
        ],
        "placetype": [
          "aat:300008347"
        ],
        "name:en": "ErragudipƒÅdu",
        "id": 7572570
      }
    },
    {
      "geometry": {
        "type": "Point",
        "coordinates": [
          77.798333,
          13.066944
        ]
      },
      "type": "Feature",
      "properties": {
        "hierarchy": [
          "tgn:7572572",
          "tgn:1000004",
          "tgn:7000198",
          "tgn:1001882",
          "tgn:7029392"
        ],
        "placetype": [
          "aat:300008347"
        ],
        "name:en": "Hoskote",
        "id": 7572572
      }
    },
    {
      "geometry": {
        "type": "Point",
        "coordinates": [
          77.444722,
          13.447222
        ]
      },
      "type": "Feature",
      "properties": {
        "hierarchy": [
          "tgn:7572577",
          "tgn:1000004",
          "tgn:7000198",
          "tgn:1001882",
          "tgn:7029392"
        ],
        "placetype": [
          "aat:300008347"
        ],
        "name:en": "Hoshalli",
        "id": 7572577
      }
    },
    {
      "geometry": {
        "type": "Point",
        "coordinates": [
          76.133333,
          13.866667
        ]
      },
      "type": "Feature",
      "properties": {
        "hierarchy": [
          "tgn:7572578",
          "tgn:1000004",
          "tgn:7000198",
          "tgn:1001882",
          "tgn:7029392"
        ],
        "placetype": [
          "aat:300007783"
        ],
        "name:en": "Hosdurga Road",
        "id": 7572578
      }
    },
    {
      "geometry": {
        "type": "Point",
        "coordinates": [
          76.286111,
          13.798056
        ]
      },
      "type": "Feature",
      "properties": {
        "hierarchy": [
          "tgn:7572579",
          "tgn:1000004",
          "tgn:7000198",
          "tgn:1001882",
          "tgn:7029392"
        ],
        "placetype": [
          "aat:300008347"
        ],
        "name:en": "Hosdurga",
        "id": 7572579
      }
    }
  ]
}
