{
  "type": "FeatureCollection",
  "features": [
    {
      "geometry": {
        "type": "Point",
        "coordinates": [
          121.766389,
          24.873333
        ]
      },
      "type": "Feature",
      "properties": {
        "hierarchy": [
          "tgn:7483050",
          "tgn:1000004",
          "tgn:7489179",
          "tgn:1000141",
          "tgn:7029392"
        ],
        "placetype": [
          "aat:300007836"
        ],
        "id": 7483050,
        "name:xx": "Hudi Qiao"
      }
    },
    {
      "geometry": {
        "type": "Point",
        "coordinates": [
          120.692222,
          24.451667
        ]
      },
      "type": "Feature",
      "properties": {
        "hierarchy": [
          "tgn:7483051",
          "tgn:7487020",
          "tgn:1000004",
          "tgn:1000141",
          "tgn:7029392"
        ],
        "placetype": [
          "aat:300008347"
        ],
        "id": 7483051,
        "name:xx": "Hupabi"
      }
    },
    {
      "geometry": {
        "type": "Point",
        "coordinates": [
          120.6925,
          24.448333
        ]
      },
      "type": "Feature",
      "properties": {
        "hierarchy": [
          "tgn:7483052",
          "tgn:7487020",
          "tgn:1000004",
          "tgn:1000141",
          "tgn:7029392"
        ],
        "placetype": [
          "aat:300008347"
        ],
        "id": 7483052,
        "name:xx": "Xiaping"
      }
    },
    {
      "geometry": {
        "type": "Point",
        "coordinates": [
          120.615556,
          23.646667
        ]
      },
      "type": "Feature",
      "properties": {
        "hierarchy": [
          "tgn:7483053",
          "tgn:1000004",
          "tgn:7001014",
          "tgn:1000141",
          "tgn:7029392"
        ],
        "placetype": [
          "aat:300008347"
        ],
        "id": 7483053,
        "name:xx": "Neiwan"
      }
    },
    {
      "geometry": {
        "type": "Point",
        "coordinates": [
          120.555833,
          23.579444
        ]
      },
      "type": "Feature",
      "properties": {
        "hierarchy": [
          "tgn:7483054",
          "tgn:7468018",
          "tgn:1000004",
          "tgn:1000141",
          "tgn:7029392"
        ],
        "placetype": [
          "aat:300008347"
        ],
        "id": 7483054,
        "name:xx": "Bulun"
      }
    },
    {
      "geometry": {
        "type": "Point",
        "coordinates": [
          120.738611,
          23.526667
        ]
      },
      "type": "Feature",
      "properties": {
        "hierarchy": [
          "tgn:7483055",
          "tgn:7468018",
          "tgn:1000004",
          "tgn:1000141",
          "tgn:7029392"
        ],
        "placetype": [
          "aat:300007836"
        ],
        "id": 7483055,
        "name:xx": "Laiji Daqiao"
      }
    },
    {
      "geometry": {
        "type": "Point",
        "coordinates": [
          120.548056,
          23.585278
        ]
      },
      "type": "Feature",
      "properties": {
        "hierarchy": [
          "tgn:7483056",
          "tgn:7468018",
          "tgn:1000004",
          "tgn:1000141",
          "tgn:7029392"
        ],
        "placetype": [
          "aat:300008347"
        ],
        "id": 7483056,
        "name:xx": "Dayuan"
      }
    },
    {
      "geometry": {
        "type": "Point",
        "coordinates": [
          120.598333,
          23.608056
        ]
      },
      "type": "Feature",
      "properties": {
        "hierarchy": [
          "tgn:7483057",
          "tgn:1000004",
          "tgn:7001014",
          "tgn:1000141",
          "tgn:7029392"
        ],
        "placetype": [
          "aat:300008347"
        ],
        "id": 7483057,
        "name:xx": "Zhatian"
      }
    },
    {
      "geometry": {
        "type": "Point",
        "coordinates": [
          120.640278,
          23.606389
        ]
      },
      "type": "Feature",
      "properties": {
        "hierarchy": [
          "tgn:7483058",
          "tgn:1000004",
          "tgn:7001014",
          "tgn:1000141",
          "tgn:7029392"
        ],
        "placetype": [
          "aat:300008347"
        ],
        "id": 7483058,
        "name:xx": "Sanbuwan"
      }
    },
    {
      "geometry": {
        "type": "Point",
        "coordinates": [
          120.647222,
          23.599167
        ]
      },
      "type": "Feature",
      "properties": {
        "hierarchy": [
          "tgn:7483059",
          "tgn:1000004",
          "tgn:7001014",
          "tgn:1000141",
          "tgn:7029392"
        ],
        "placetype": [
          "aat:300008347"
        ],
        "id": 7483059,
        "name:xx": "Chexinlun"
      }
    }
  ]
}
