{
  "type": "FeatureCollection",
  "features": [
    {
      "geometry": {
        "type": "Point",
        "coordinates": [
          73.816667,
          15.533333
        ]
      },
      "type": "Feature",
      "properties": {
        "hierarchy": [
          "tgn:7556570",
          "tgn:1000004",
          "tgn:7018318",
          "tgn:7000198",
          "tgn:7029392"
        ],
        "placetype": [
          "aat:300008347"
        ],
        "name:en": "Pilerne",
        "id": 7556570
      }
    },
    {
      "geometry": {
        "type": "Point",
        "coordinates": [
          76.837604,
          26.595322
        ]
      },
      "type": "Feature",
      "properties": {
        "hierarchy": [
          "tgn:7556571",
          "tgn:1000004",
          "tgn:7000198",
          "tgn:7016788",
          "tgn:7029392"
        ],
        "placetype": [
          "aat:300008347"
        ],
        "name:en": "Pilauda",
        "id": 7556571
      }
    },
    {
      "geometry": {
        "type": "Point",
        "coordinates": [
          72.904306,
          27.967995
        ]
      },
      "type": "Feature",
      "properties": {
        "hierarchy": [
          "tgn:7556572",
          "tgn:1000004",
          "tgn:7000198",
          "tgn:7016788",
          "tgn:7029392"
        ],
        "placetype": [
          "aat:300008347"
        ],
        "name:en": "Pilāp",
        "id": 7556572
      }
    },
    {
      "geometry": {
        "type": "Point",
        "coordinates": [
          75.602958,
          28.365399
        ]
      },
      "type": "Feature",
      "properties": {
        "hierarchy": [
          "tgn:7556573",
          "tgn:1000004",
          "tgn:7000198",
          "tgn:7016788",
          "tgn:7029392"
        ],
        "placetype": [
          "aat:300008347"
        ],
        "name:en": "Pilāni",
        "id": 7556573
      }
    },
    {
      "geometry": {
        "type": "Point",
        "coordinates": [
          78.665152,
          30.7716
        ]
      },
      "type": "Feature",
      "properties": {
        "hierarchy": [
          "tgn:7556574",
          "tgn:1000004",
          "tgn:7000198",
          "tgn:7031786",
          "tgn:7029392"
        ],
        "placetype": [
          "aat:300008347"
        ],
        "name:en": "Pilang",
        "id": 7556574
      }
    },
    {
      "geometry": {
        "type": "Point",
        "coordinates": [
          79.266667,
          28.566667
        ]
      },
      "type": "Feature",
      "properties": {
        "hierarchy": [
          "tgn:7556576",
          "tgn:1000004",
          "tgn:7000198",
          "tgn:7016722",
          "tgn:7029392"
        ],
        "placetype": [
          "aat:300008699"
        ],
        "name:en": "Pīlākhār Nadī",
        "id": 7556576
      }
    },
    {
      "geometry": {
        "type": "Point",
        "coordinates": [
          77.990254,
          24.029489
        ]
      },
      "type": "Feature",
      "properties": {
        "hierarchy": [
          "tgn:7556577",
          "tgn:1000004",
          "tgn:7000198",
          "tgn:1001894",
          "tgn:7029392"
        ],
        "placetype": [
          "aat:300008347"
        ],
        "name:en": "Piklon",
        "id": 7556577
      }
    },
    {
      "geometry": {
        "type": "Point",
        "coordinates": [
          96.019642,
          28.298159
        ]
      },
      "type": "Feature",
      "properties": {
        "hierarchy": [
          "tgn:7556578",
          "tgn:7001819",
          "tgn:1000004",
          "tgn:7000198",
          "tgn:7029392"
        ],
        "placetype": [
          "aat:300008347"
        ],
        "name:en": "Pika",
        "id": 7556578
      }
    },
    {
      "geometry": {
        "type": "Point",
        "coordinates": [
          85.803078,
          24.642901
        ]
      },
      "type": "Feature",
      "properties": {
        "hierarchy": [
          "tgn:7556579",
          "tgn:1000004",
          "tgn:7000198",
          "tgn:7031783",
          "tgn:7029392"
        ],
        "placetype": [
          "aat:300008347"
        ],
        "name:en": "Pihra",
        "id": 7556579
      }
    }
  ]
}
