{
  "type": "FeatureCollection",
  "features": [
    {
      "geometry": {
        "type": "Point",
        "coordinates": [
          32.518551,
          29.33266
        ]
      },
      "type": "Feature",
      "properties": {
        "hierarchy": [
          "tgn:7532950",
          "tgn:7001242",
          "tgn:7016833",
          "tgn:1001110",
          "tgn:7029392"
        ],
        "placetype": [
          "aat:300379998"
        ],
        "name:en": "Umm Ḩalāwāt, Wādī",
        "id": 7532950
      }
    },
    {
      "geometry": {
        "type": "Point",
        "coordinates": [
          32.493188,
          29.292719
        ]
      },
      "type": "Feature",
      "properties": {
        "hierarchy": [
          "tgn:7532951",
          "tgn:7001242",
          "tgn:7016833",
          "tgn:1001110",
          "tgn:7029392"
        ],
        "placetype": [
          "aat:300379998"
        ],
        "name:en": "Māliḩah, Wādī",
        "id": 7532951
      }
    },
    {
      "geometry": {
        "type": "Point",
        "coordinates": [
          32.353048,
          29.30293
        ]
      },
      "type": "Feature",
      "properties": {
        "hierarchy": [
          "tgn:7532952",
          "tgn:7001242",
          "tgn:7016833",
          "tgn:1001110",
          "tgn:7029392"
        ],
        "placetype": [
          "aat:300379998"
        ],
        "name:en": "Umm Umşānah, Wādī",
        "id": 7532952
      }
    },
    {
      "geometry": {
        "type": "Point",
        "coordinates": [
          32.29564,
          29.263796
        ]
      },
      "type": "Feature",
      "properties": {
        "hierarchy": [
          "tgn:7532953",
          "tgn:7001242",
          "tgn:7016833",
          "tgn:1001110",
          "tgn:7029392"
        ],
        "placetype": [
          "aat:300379998"
        ],
        "name:en": "Umm 'Alājān, Wādī",
        "id": 7532953
      }
    },
    {
      "geometry": {
        "type": "Point",
        "coordinates": [
          32.362809,
          29.261671
        ]
      },
      "type": "Feature",
      "properties": {
        "hierarchy": [
          "tgn:7532954",
          "tgn:7001242",
          "tgn:7016833",
          "tgn:1001110",
          "tgn:7029392"
        ],
        "placetype": [
          "aat:300008798"
        ],
        "name:en": "Nu'ūz, Ra's",
        "id": 7532954
      }
    },
    {
      "geometry": {
        "type": "Point",
        "coordinates": [
          34.518117,
          28.68034
        ]
      },
      "type": "Feature",
      "properties": {
        "hierarchy": [
          "tgn:7532955",
          "tgn:7001242",
          "tgn:7016833",
          "tgn:7001336",
          "tgn:7029392"
        ],
        "placetype": [
          "aat:300379998"
        ],
        "id": 7532955,
        "name:xx": "Hatheirga, Wâdi"
      }
    },
    {
      "geometry": {
        "type": "Point",
        "coordinates": [
          32.745833,
          31.038056
        ]
      },
      "type": "Feature",
      "properties": {
        "hierarchy": [
          "tgn:7532956",
          "tgn:7001242",
          "tgn:7016833",
          "tgn:7001335",
          "tgn:7029392"
        ],
        "placetype": [
          "aat:300387200"
        ],
        "id": 7532956,
        "name:xx": "Ar Rajim"
      }
    },
    {
      "geometry": {
        "type": "Point",
        "coordinates": [
          34.555096,
          28.791483
        ]
      },
      "type": "Feature",
      "properties": {
        "hierarchy": [
          "tgn:7532957",
          "tgn:7001242",
          "tgn:7016833",
          "tgn:7001336",
          "tgn:7029392"
        ],
        "placetype": [
          "aat:300379998"
        ],
        "id": 7532957,
        "name:xx": "Abu Rigm, Wâdi"
      }
    },
    {
      "geometry": {
        "type": "Point",
        "coordinates": [
          34.516667,
          28.846111
        ]
      },
      "type": "Feature",
      "properties": {
        "hierarchy": [
          "tgn:7532958",
          "tgn:7001242",
          "tgn:7016833",
          "tgn:7001336",
          "tgn:7029392"
        ],
        "placetype": [
          "aat:300008777"
        ],
        "id": 7532958,
        "name:xx": "El-Micra"
      }
    },
    {
      "geometry": {
        "type": "Point",
        "coordinates": [
          34.542731,
          28.861378
        ]
      },
      "type": "Feature",
      "properties": {
        "hierarchy": [
          "tgn:7532959",
          "tgn:7001242",
          "tgn:7016833",
          "tgn:7001336",
          "tgn:7029392"
        ],
        "placetype": [
          "aat:300379998"
        ],
        "id": 7532959,
        "name:xx": "Khileil, Wâdi"
      }
    }
  ]
}
