{
  "type": "FeatureCollection",
  "features": [
    {
      "geometry": {
        "type": "Point",
        "coordinates": [
          -100.545556,
          21.325833
        ]
      },
      "type": "Feature",
      "properties": {
        "hierarchy": [
          "tgn:7420490",
          "tgn:7005584",
          "tgn:1000001",
          "tgn:7005560",
          "tgn:7029392"
        ],
        "placetype": [
          "aat:300008347"
        ],
        "id": 7420490,
        "name:xx": "El Toreador de Abajo"
      }
    },
    {
      "geometry": {
        "type": "Point",
        "coordinates": [
          -100.552222,
          21.338056
        ]
      },
      "type": "Feature",
      "properties": {
        "hierarchy": [
          "tgn:7420491",
          "tgn:7005584",
          "tgn:1000001",
          "tgn:7005560",
          "tgn:7029392"
        ],
        "placetype": [
          "aat:300008347"
        ],
        "id": 7420491,
        "name:xx": "Cascarero"
      }
    },
    {
      "geometry": {
        "type": "Point",
        "coordinates": [
          -100.617778,
          21.358056
        ]
      },
      "type": "Feature",
      "properties": {
        "hierarchy": [
          "tgn:7420492",
          "tgn:7005584",
          "tgn:1000001",
          "tgn:7005560",
          "tgn:7029392"
        ],
        "placetype": [
          "aat:300008347"
        ],
        "id": 7420492,
        "name:xx": "El Pedregal"
      }
    },
    {
      "geometry": {
        "type": "Point",
        "coordinates": [
          -100.581944,
          21.371111
        ]
      },
      "type": "Feature",
      "properties": {
        "hierarchy": [
          "tgn:7420493",
          "tgn:7005584",
          "tgn:1000001",
          "tgn:7005560",
          "tgn:7029392"
        ],
        "placetype": [
          "aat:300008347"
        ],
        "id": 7420493,
        "name:xx": "Rancho Nuevo"
      }
    },
    {
      "geometry": {
        "type": "Point",
        "coordinates": [
          -100.609167,
          21.3675
        ]
      },
      "type": "Feature",
      "properties": {
        "hierarchy": [
          "tgn:7420494",
          "tgn:7005584",
          "tgn:1000001",
          "tgn:7005560",
          "tgn:7029392"
        ],
        "placetype": [
          "aat:300008347"
        ],
        "id": 7420494,
        "name:xx": "Santa Teresa"
      }
    },
    {
      "geometry": {
        "type": "Point",
        "coordinates": [
          -100.579167,
          21.398333
        ]
      },
      "type": "Feature",
      "properties": {
        "hierarchy": [
          "tgn:7420495",
          "tgn:7005584",
          "tgn:1000001",
          "tgn:7005560",
          "tgn:7029392"
        ],
        "placetype": [
          "aat:300008347"
        ],
        "id": 7420495,
        "name:xx": "La Quinta"
      }
    },
    {
      "geometry": {
        "type": "Point",
        "coordinates": [
          -100.580556,
          21.4075
        ]
      },
      "type": "Feature",
      "properties": {
        "hierarchy": [
          "tgn:7420496",
          "tgn:7005584",
          "tgn:1000001",
          "tgn:7005560",
          "tgn:7029392"
        ],
        "placetype": [
          "aat:300008347"
        ],
        "id": 7420496,
        "name:xx": "El Derramadero"
      }
    },
    {
      "geometry": {
        "type": "Point",
        "coordinates": [
          -100.550556,
          21.426667
        ]
      },
      "type": "Feature",
      "properties": {
        "hierarchy": [
          "tgn:7420497",
          "tgn:7005584",
          "tgn:1000001",
          "tgn:7005560",
          "tgn:7029392"
        ],
        "placetype": [
          "aat:300008347"
        ],
        "id": 7420497,
        "name:xx": "El Corcovada"
      }
    },
    {
      "geometry": {
        "type": "Point",
        "coordinates": [
          -100.503889,
          21.441111
        ]
      },
      "type": "Feature",
      "properties": {
        "hierarchy": [
          "tgn:7420498",
          "tgn:7005584",
          "tgn:1000001",
          "tgn:7005560",
          "tgn:7029392"
        ],
        "placetype": [
          "aat:300008347"
        ],
        "id": 7420498,
        "name:xx": "Puerto del Aire"
      }
    },
    {
      "geometry": {
        "type": "Point",
        "coordinates": [
          -100.581944,
          21.441389
        ]
      },
      "type": "Feature",
      "properties": {
        "hierarchy": [
          "tgn:7420499",
          "tgn:7005584",
          "tgn:1000001",
          "tgn:7005560",
          "tgn:7029392"
        ],
        "placetype": [
          "aat:300008347"
        ],
        "id": 7420499,
        "name:xx": "San Rosa de Ochoa"
      }
    }
  ]
}
