{
  "type": "FeatureCollection",
  "features": [
    {
      "geometry": {
        "type": "Point",
        "coordinates": [
          120.529444,
          23.662222
        ]
      },
      "type": "Feature",
      "properties": {
        "hierarchy": [
          "tgn:7467650",
          "tgn:1000004",
          "tgn:7001014",
          "tgn:1000141",
          "tgn:7029392"
        ],
        "placetype": [
          "aat:300008347"
        ],
        "id": 7467650,
        "name:xx": "Xiachaili"
      }
    },
    {
      "geometry": {
        "type": "Point",
        "coordinates": [
          121.479444,
          22.674167
        ]
      },
      "type": "Feature",
      "properties": {
        "hierarchy": [
          "tgn:7467651",
          "tgn:1000004",
          "tgn:7491221",
          "tgn:1000141",
          "tgn:7029392"
        ],
        "placetype": [
          "aat:300008347"
        ],
        "id": 7467651,
        "name:xx": "Chaikou"
      }
    },
    {
      "geometry": {
        "type": "Point",
        "coordinates": [
          120.5761,
          24.0917
        ]
      },
      "type": "Feature",
      "properties": {
        "hierarchy": [
          "tgn:7467652",
          "tgn:1000004",
          "tgn:7001009",
          "tgn:1000141",
          "tgn:7029392"
        ],
        "placetype": [
          "aat:300008347"
        ],
        "id": 7467652,
        "name:xx": "Chaikengzi"
      }
    },
    {
      "geometry": {
        "type": "Point",
        "coordinates": [
          119.602353,
          23.578673
        ]
      },
      "type": "Feature",
      "properties": {
        "hierarchy": [
          "tgn:7467653",
          "tgn:1000004",
          "tgn:7004300",
          "tgn:1000141",
          "tgn:7029392"
        ],
        "placetype": [
          "aat:300008347"
        ],
        "id": 7467653,
        "name:xx": "Anzhai"
      }
    },
    {
      "geometry": {
        "type": "Point",
        "coordinates": [
          121.439058,
          25.020887
        ]
      },
      "type": "Feature",
      "properties": {
        "hierarchy": [
          "tgn:7467654",
          "tgn:1000004",
          "tgn:1000454",
          "tgn:1000141",
          "tgn:7029392"
        ],
        "placetype": [
          "aat:300008347"
        ],
        "id": 7467654,
        "name:xx": "Qionglin"
      }
    },
    {
      "geometry": {
        "type": "Point",
        "coordinates": [
          120.796573,
          23.828867
        ]
      },
      "type": "Feature",
      "properties": {
        "hierarchy": [
          "tgn:7467655",
          "tgn:7488858",
          "tgn:1000004",
          "tgn:1000141",
          "tgn:7029392"
        ],
        "placetype": [
          "aat:300000745"
        ],
        "id": 7467655,
        "name:xx": "Chaiqiaotou"
      }
    },
    {
      "geometry": {
        "type": "Point",
        "coordinates": [
          120.967778,
          24.766667
        ]
      },
      "type": "Feature",
      "properties": {
        "hierarchy": [
          "tgn:7467656",
          "tgn:1000004",
          "tgn:7471332",
          "tgn:1000141",
          "tgn:7029392"
        ],
        "placetype": [
          "aat:300387173"
        ],
        "id": 7467656,
        "name:xx": "Chaiqiao Li"
      }
    },
    {
      "geometry": {
        "type": "Point",
        "coordinates": [
          121.733333,
          25.033333
        ]
      },
      "type": "Feature",
      "properties": {
        "hierarchy": [
          "tgn:7467657",
          "tgn:1000004",
          "tgn:1000454",
          "tgn:1000141",
          "tgn:7029392"
        ],
        "placetype": [
          "aat:300008347"
        ],
        "id": 7467657,
        "name:xx": "Chaiqiaokeng"
      }
    },
    {
      "geometry": {
        "type": "Point",
        "coordinates": [
          121.5046,
          24.9646
        ]
      },
      "type": "Feature",
      "properties": {
        "hierarchy": [
          "tgn:7467658",
          "tgn:1000004",
          "tgn:1000454",
          "tgn:1000141",
          "tgn:7029392"
        ],
        "placetype": [
          "aat:300387173"
        ],
        "id": 7467658,
        "name:xx": "Chaicheng Li"
      }
    },
    {
      "geometry": {
        "type": "Point",
        "coordinates": [
          120.752,
          23.9348
        ]
      },
      "type": "Feature",
      "properties": {
        "hierarchy": [
          "tgn:7467659",
          "tgn:7488858",
          "tgn:1000004",
          "tgn:1000141",
          "tgn:7029392"
        ],
        "placetype": [
          "aat:300008347"
        ],
        "id": 7467659,
        "name:xx": "Chaicheng"
      }
    }
  ]
}
