{
  "type": "FeatureCollection",
  "features": [
    {
      "geometry": {
        "type": "Point",
        "coordinates": [
          121.290809,
          24.900444
        ]
      },
      "type": "Feature",
      "properties": {
        "hierarchy": [
          "tgn:7496260",
          "tgn:1000004",
          "tgn:7001013",
          "tgn:1000141",
          "tgn:7029392"
        ],
        "placetype": [
          "aat:300008347"
        ],
        "id": 7496260,
        "name:xx": "Haoxincheng"
      }
    },
    {
      "geometry": {
        "type": "Point",
        "coordinates": [
          121.293611,
          24.903905
        ]
      },
      "type": "Feature",
      "properties": {
        "hierarchy": [
          "tgn:7496261",
          "tgn:1000004",
          "tgn:7001013",
          "tgn:1000141",
          "tgn:7029392"
        ],
        "placetype": [
          "aat:300008347"
        ],
        "id": 7496261,
        "name:xx": "Wucuo"
      }
    },
    {
      "geometry": {
        "type": "Point",
        "coordinates": [
          121.29052,
          24.915183
        ]
      },
      "type": "Feature",
      "properties": {
        "hierarchy": [
          "tgn:7496262",
          "tgn:1000004",
          "tgn:7001013",
          "tgn:1000141",
          "tgn:7029392"
        ],
        "placetype": [
          "aat:300008347"
        ],
        "id": 7496262,
        "name:xx": "Songshujiao"
      }
    },
    {
      "geometry": {
        "type": "Point",
        "coordinates": [
          121.29763,
          24.911883
        ]
      },
      "type": "Feature",
      "properties": {
        "hierarchy": [
          "tgn:7496263",
          "tgn:1000004",
          "tgn:7001013",
          "tgn:1000141",
          "tgn:7029392"
        ],
        "placetype": [
          "aat:300008347"
        ],
        "id": 7496263,
        "name:xx": "Shijia"
      }
    },
    {
      "geometry": {
        "type": "Point",
        "coordinates": [
          121.297329,
          24.914748
        ]
      },
      "type": "Feature",
      "properties": {
        "hierarchy": [
          "tgn:7496264",
          "tgn:1000004",
          "tgn:7001013",
          "tgn:1000141",
          "tgn:7029392"
        ],
        "placetype": [
          "aat:300008347"
        ],
        "id": 7496264,
        "name:xx": "Wujia"
      }
    },
    {
      "geometry": {
        "type": "Point",
        "coordinates": [
          121.259593,
          24.91763
        ]
      },
      "type": "Feature",
      "properties": {
        "hierarchy": [
          "tgn:7496265",
          "tgn:1000004",
          "tgn:7001013",
          "tgn:1000141",
          "tgn:7029392"
        ],
        "placetype": [
          "aat:300008347"
        ],
        "id": 7496265,
        "name:xx": "Fanshe"
      }
    },
    {
      "geometry": {
        "type": "Point",
        "coordinates": [
          121.30146,
          24.919255
        ]
      },
      "type": "Feature",
      "properties": {
        "hierarchy": [
          "tgn:7496266",
          "tgn:1000004",
          "tgn:7001013",
          "tgn:1000141",
          "tgn:7029392"
        ],
        "placetype": [
          "aat:300008347"
        ],
        "id": 7496266,
        "name:xx": "Gongguan"
      }
    },
    {
      "geometry": {
        "type": "Point",
        "coordinates": [
          121.29456,
          24.923266
        ]
      },
      "type": "Feature",
      "properties": {
        "hierarchy": [
          "tgn:7496267",
          "tgn:1000004",
          "tgn:7001013",
          "tgn:1000141",
          "tgn:7029392"
        ],
        "placetype": [
          "aat:300008347"
        ],
        "id": 7496267,
        "name:xx": "Qiao'ai"
      }
    },
    {
      "geometry": {
        "type": "Point",
        "coordinates": [
          121.266452,
          24.921826
        ]
      },
      "type": "Feature",
      "properties": {
        "hierarchy": [
          "tgn:7496268",
          "tgn:1000004",
          "tgn:7001013",
          "tgn:1000141",
          "tgn:7029392"
        ],
        "placetype": [
          "aat:300008347"
        ],
        "id": 7496268,
        "name:xx": "Yingpan"
      }
    },
    {
      "geometry": {
        "type": "Point",
        "coordinates": [
          121.286284,
          24.932805
        ]
      },
      "type": "Feature",
      "properties": {
        "hierarchy": [
          "tgn:7496269",
          "tgn:1000004",
          "tgn:7001013",
          "tgn:1000141",
          "tgn:7029392"
        ],
        "placetype": [
          "aat:300008347"
        ],
        "id": 7496269,
        "name:xx": "Lunzi"
      }
    }
  ]
}
