{
  "type": "FeatureCollection",
  "features": [
    {
      "geometry": {
        "type": "Point",
        "coordinates": [
          74.1474,
          34.486993
        ]
      },
      "type": "Feature",
      "properties": {
        "hierarchy": [
          "tgn:7585950",
          "tgn:1000004",
          "tgn:7000198",
          "tgn:7000799",
          "tgn:7029392"
        ],
        "placetype": [
          "aat:300008347"
        ],
        "name:en": "Dūhom",
        "id": 7585950
      }
    },
    {
      "geometry": {
        "type": "Point",
        "coordinates": [
          74.11146,
          34.306382
        ]
      },
      "type": "Feature",
      "properties": {
        "hierarchy": [
          "tgn:7585951",
          "tgn:1000004",
          "tgn:7000198",
          "tgn:7000799",
          "tgn:7029392"
        ],
        "placetype": [
          "aat:300008347"
        ],
        "name:en": "Dūdhban",
        "id": 7585951
      }
    },
    {
      "geometry": {
        "type": "Point",
        "coordinates": [
          74.212727,
          34.344109
        ]
      },
      "type": "Feature",
      "properties": {
        "hierarchy": [
          "tgn:7585952",
          "tgn:1000004",
          "tgn:7000198",
          "tgn:7000799",
          "tgn:7029392"
        ],
        "placetype": [
          "aat:300008347"
        ],
        "name:en": "Drangso",
        "id": 7585952
      }
    },
    {
      "geometry": {
        "type": "Point",
        "coordinates": [
          74.156428,
          34.464321
        ]
      },
      "type": "Feature",
      "properties": {
        "hierarchy": [
          "tgn:7585953",
          "tgn:1000004",
          "tgn:7000198",
          "tgn:7000799",
          "tgn:7029392"
        ],
        "placetype": [
          "aat:300008347"
        ],
        "name:en": "Dolipura",
        "id": 7585953
      }
    },
    {
      "geometry": {
        "type": "Point",
        "coordinates": [
          74.115577,
          34.427625
        ]
      },
      "type": "Feature",
      "properties": {
        "hierarchy": [
          "tgn:7585954",
          "tgn:1000004",
          "tgn:7000198",
          "tgn:7000799",
          "tgn:7029392"
        ],
        "placetype": [
          "aat:300008347"
        ],
        "name:en": "Dogarpur",
        "id": 7585954
      }
    },
    {
      "geometry": {
        "type": "Point",
        "coordinates": [
          74.240278,
          34.451389
        ]
      },
      "type": "Feature",
      "properties": {
        "hierarchy": [
          "tgn:7585955",
          "tgn:1000004",
          "tgn:7000198",
          "tgn:7000799",
          "tgn:7029392"
        ],
        "placetype": [
          "aat:300008347"
        ],
        "name:en": "Divispur",
        "id": 7585955
      }
    },
    {
      "geometry": {
        "type": "Point",
        "coordinates": [
          74.173204,
          34.490299
        ]
      },
      "type": "Feature",
      "properties": {
        "hierarchy": [
          "tgn:7585956",
          "tgn:1000004",
          "tgn:7000198",
          "tgn:7000799",
          "tgn:7029392"
        ],
        "placetype": [
          "aat:300008347"
        ],
        "name:en": "Dingri",
        "id": 7585956
      }
    },
    {
      "geometry": {
        "type": "Point",
        "coordinates": [
          74.199888,
          34.493536
        ]
      },
      "type": "Feature",
      "properties": {
        "hierarchy": [
          "tgn:7585957",
          "tgn:1000004",
          "tgn:7000198",
          "tgn:7000799",
          "tgn:7029392"
        ],
        "placetype": [
          "aat:300008347"
        ],
        "name:en": "Didikūt",
        "id": 7585957
      }
    },
    {
      "geometry": {
        "type": "Point",
        "coordinates": [
          74.108315,
          34.28191
        ]
      },
      "type": "Feature",
      "properties": {
        "hierarchy": [
          "tgn:7585958",
          "tgn:1000004",
          "tgn:7000198",
          "tgn:7000799",
          "tgn:7029392"
        ],
        "placetype": [
          "aat:300008347"
        ],
        "name:en": "Dibri",
        "id": 7585958
      }
    },
    {
      "geometry": {
        "type": "Point",
        "coordinates": [
          74.117852,
          34.461563
        ]
      },
      "type": "Feature",
      "properties": {
        "hierarchy": [
          "tgn:7585959",
          "tgn:1000004",
          "tgn:7000198",
          "tgn:7000799",
          "tgn:7029392"
        ],
        "placetype": [
          "aat:300008347"
        ],
        "name:en": "Darel",
        "id": 7585959
      }
    }
  ]
}
