{
  "type": "FeatureCollection",
  "features": [
    {
      "geometry": {
        "type": "Point",
        "coordinates": [
          120.619158,
          23.43214
        ]
      },
      "type": "Feature",
      "properties": {
        "hierarchy": [
          "tgn:7493890",
          "tgn:7468018",
          "tgn:1000004",
          "tgn:1000141",
          "tgn:7029392"
        ],
        "placetype": [
          "aat:300007836"
        ],
        "id": 7493890,
        "name:xx": "Xinyi Qiao"
      }
    },
    {
      "geometry": {
        "type": "Point",
        "coordinates": [
          120.657692,
          23.436484
        ]
      },
      "type": "Feature",
      "properties": {
        "hierarchy": [
          "tgn:7493891",
          "tgn:7468018",
          "tgn:1000004",
          "tgn:1000141",
          "tgn:7029392"
        ],
        "placetype": [
          "aat:300008795"
        ],
        "id": 7493891,
        "name:xx": "Xiding Shan"
      }
    },
    {
      "geometry": {
        "type": "Point",
        "coordinates": [
          120.617234,
          23.456614
        ]
      },
      "type": "Feature",
      "properties": {
        "hierarchy": [
          "tgn:7493893",
          "tgn:7468018",
          "tgn:1000004",
          "tgn:1000141",
          "tgn:7029392"
        ],
        "placetype": [
          "aat:300007836"
        ],
        "id": 7493893,
        "name:xx": "Caolin Qiao"
      }
    },
    {
      "geometry": {
        "type": "Point",
        "coordinates": [
          120.626358,
          23.459612
        ]
      },
      "type": "Feature",
      "properties": {
        "hierarchy": [
          "tgn:7493894",
          "tgn:7468018",
          "tgn:1000004",
          "tgn:1000141",
          "tgn:7029392"
        ],
        "placetype": [
          "aat:300008699"
        ],
        "id": 7493894,
        "name:xx": "Jiangmou Xi"
      }
    },
    {
      "geometry": {
        "type": "Point",
        "coordinates": [
          120.64355,
          23.469861
        ]
      },
      "type": "Feature",
      "properties": {
        "hierarchy": [
          "tgn:7493895",
          "tgn:7468018",
          "tgn:1000004",
          "tgn:1000141",
          "tgn:7029392"
        ],
        "placetype": [
          "aat:300008699"
        ],
        "id": 7493895,
        "name:xx": "Qiedong Xi"
      }
    },
    {
      "geometry": {
        "type": "Point",
        "coordinates": [
          120.620207,
          23.474208
        ]
      },
      "type": "Feature",
      "properties": {
        "hierarchy": [
          "tgn:7493896",
          "tgn:7468018",
          "tgn:1000004",
          "tgn:1000141",
          "tgn:7029392"
        ],
        "placetype": [
          "aat:300006495"
        ],
        "id": 7493896,
        "name:xx": "Dahu Guoxiao"
      }
    },
    {
      "geometry": {
        "type": "Point",
        "coordinates": [
          120.647531,
          23.47891
        ]
      },
      "type": "Feature",
      "properties": {
        "hierarchy": [
          "tgn:7493897",
          "tgn:7468018",
          "tgn:1000004",
          "tgn:1000141",
          "tgn:7029392"
        ],
        "placetype": [
          "aat:300007836"
        ],
        "id": 7493897,
        "name:xx": "Zhuoshui Xi Qiao"
      }
    },
    {
      "geometry": {
        "type": "Point",
        "coordinates": [
          120.653169,
          23.481277
        ]
      },
      "type": "Feature",
      "properties": {
        "hierarchy": [
          "tgn:7493898",
          "tgn:7468018",
          "tgn:1000004",
          "tgn:1000141",
          "tgn:7029392"
        ],
        "placetype": [
          "aat:300007836"
        ],
        "id": 7493898,
        "name:xx": "Qiedong Qiao"
      }
    }
  ]
}
