{
  "type": "FeatureCollection",
  "features": [
    {
      "geometry": {
        "type": "Point",
        "coordinates": [
          74.401788,
          34.329554
        ]
      },
      "type": "Feature",
      "properties": {
        "hierarchy": [
          "tgn:7585620",
          "tgn:1000004",
          "tgn:7000198",
          "tgn:7000799",
          "tgn:7029392"
        ],
        "placetype": [
          "aat:300008347"
        ],
        "name:en": "Bāhrampur",
        "id": 7585620
      }
    },
    {
      "geometry": {
        "type": "Point",
        "coordinates": [
          74.422222,
          34.325
        ]
      },
      "type": "Feature",
      "properties": {
        "hierarchy": [
          "tgn:7585621",
          "tgn:1000004",
          "tgn:7000198",
          "tgn:7000799",
          "tgn:7029392"
        ],
        "placetype": [
          "aat:300387033"
        ],
        "name:en": "Siūl",
        "id": 7585621
      }
    },
    {
      "geometry": {
        "type": "Point",
        "coordinates": [
          74.42282,
          34.316934
        ]
      },
      "type": "Feature",
      "properties": {
        "hierarchy": [
          "tgn:7585622",
          "tgn:1000004",
          "tgn:7000198",
          "tgn:7000799",
          "tgn:7029392"
        ],
        "placetype": [
          "aat:300008347"
        ],
        "name:en": "Buhirpur",
        "id": 7585622
      }
    },
    {
      "geometry": {
        "type": "Point",
        "coordinates": [
          74.431944,
          34.311111
        ]
      },
      "type": "Feature",
      "properties": {
        "hierarchy": [
          "tgn:7585623",
          "tgn:1000004",
          "tgn:7000198",
          "tgn:7000799",
          "tgn:7029392"
        ],
        "placetype": [
          "aat:300008347"
        ],
        "name:en": "Shangargund",
        "id": 7585623
      }
    },
    {
      "geometry": {
        "type": "Point",
        "coordinates": [
          74.442258,
          34.324382
        ]
      },
      "type": "Feature",
      "properties": {
        "hierarchy": [
          "tgn:7585624",
          "tgn:1000004",
          "tgn:7000198",
          "tgn:7000799",
          "tgn:7029392"
        ],
        "placetype": [
          "aat:300008347"
        ],
        "name:en": "Bardāt",
        "id": 7585624
      }
    },
    {
      "geometry": {
        "type": "Point",
        "coordinates": [
          74.457329,
          34.318324
        ]
      },
      "type": "Feature",
      "properties": {
        "hierarchy": [
          "tgn:7585625",
          "tgn:1000004",
          "tgn:7000198",
          "tgn:7000799",
          "tgn:7029392"
        ],
        "placetype": [
          "aat:300008347"
        ],
        "name:en": "Saidpur",
        "id": 7585625
      }
    },
    {
      "geometry": {
        "type": "Point",
        "coordinates": [
          74.459525,
          34.321925
        ]
      },
      "type": "Feature",
      "properties": {
        "hierarchy": [
          "tgn:7585626",
          "tgn:1000004",
          "tgn:7000198",
          "tgn:7000799",
          "tgn:7029392"
        ],
        "placetype": [
          "aat:300008347"
        ],
        "name:en": "Zandwain",
        "id": 7585626
      }
    },
    {
      "geometry": {
        "type": "Point",
        "coordinates": [
          74.926749,
          34.251858
        ]
      },
      "type": "Feature",
      "properties": {
        "hierarchy": [
          "tgn:7585627",
          "tgn:1000004",
          "tgn:7000198",
          "tgn:7000799",
          "tgn:7029392"
        ],
        "placetype": [
          "aat:300008347"
        ],
        "name:en": "Mārgund",
        "id": 7585627
      }
    },
    {
      "geometry": {
        "type": "Point",
        "coordinates": [
          74.904043,
          34.250902
        ]
      },
      "type": "Feature",
      "properties": {
        "hierarchy": [
          "tgn:7585628",
          "tgn:1000004",
          "tgn:7000198",
          "tgn:7000799",
          "tgn:7029392"
        ],
        "placetype": [
          "aat:300008347"
        ],
        "name:en": "Akahāl",
        "id": 7585628
      }
    },
    {
      "geometry": {
        "type": "Point",
        "coordinates": [
          74.893056,
          34.25
        ]
      },
      "type": "Feature",
      "properties": {
        "hierarchy": [
          "tgn:7585629",
          "tgn:1000004",
          "tgn:7000198",
          "tgn:7000799",
          "tgn:7029392"
        ],
        "placetype": [
          "aat:300008699"
        ],
        "name:en": "Chak Nār",
        "id": 7585629
      }
    }
  ]
}
