{
  "type": "FeatureCollection",
  "features": [
    {
      "geometry": {
        "type": "Point",
        "coordinates": [
          120.924795,
          24.04713
        ]
      },
      "type": "Feature",
      "properties": {
        "hierarchy": [
          "tgn:7486670",
          "tgn:7488858",
          "tgn:1000004",
          "tgn:1000141",
          "tgn:7029392"
        ],
        "placetype": [
          "aat:300387033"
        ],
        "id": 7486670,
        "name:xx": "Bafanqi Shan"
      }
    },
    {
      "geometry": {
        "type": "Point",
        "coordinates": [
          120.185492,
          23.330497
        ]
      },
      "type": "Feature",
      "properties": {
        "hierarchy": [
          "tgn:7486671",
          "tgn:7468018",
          "tgn:1000004",
          "tgn:1000141",
          "tgn:7029392"
        ],
        "placetype": [
          "aat:300386871"
        ],
        "id": 7486671,
        "name:xx": "Baqu Yanchang"
      }
    },
    {
      "geometry": {
        "type": "Point",
        "coordinates": [
          120.906944,
          22.362778
        ]
      },
      "type": "Feature",
      "properties": {
        "hierarchy": [
          "tgn:7486672",
          "tgn:1000004",
          "tgn:7491221",
          "tgn:1000141",
          "tgn:7029392"
        ],
        "placetype": [
          "aat:300008347",
          "aat:300387200"
        ],
        "id": 7486672,
        "name:xx": "Balangwei"
      }
    },
    {
      "geometry": {
        "type": "Point",
        "coordinates": [
          120.673333,
          22.469722
        ]
      },
      "type": "Feature",
      "properties": {
        "hierarchy": [
          "tgn:7486673",
          "tgn:1000004",
          "tgn:7492971",
          "tgn:1000141",
          "tgn:7029392"
        ],
        "placetype": [
          "aat:300008798"
        ],
        "id": 7486673,
        "name:xx": "Bajingliushou Shan"
      }
    },
    {
      "geometry": {
        "type": "Point",
        "coordinates": [
          121.766667,
          25.15
        ]
      },
      "type": "Feature",
      "properties": {
        "hierarchy": [
          "tgn:7486674",
          "tgn:1000957",
          "tgn:1000004",
          "tgn:1000141",
          "tgn:7029392"
        ],
        "placetype": [
          "aat:300007783"
        ],
        "id": 7486674,
        "name:xx": "Bachimen Huochezhan"
      }
    },
    {
      "geometry": {
        "type": "Point",
        "coordinates": [
          121.771874,
          25.151827
        ]
      },
      "type": "Feature",
      "properties": {
        "hierarchy": [
          "tgn:7486675",
          "tgn:1000957",
          "tgn:1000004",
          "tgn:1000141",
          "tgn:7029392"
        ],
        "placetype": [
          "aat:300008347"
        ],
        "id": 7486675,
        "name:xx": "Bachimen"
      }
    },
    {
      "geometry": {
        "type": "Point",
        "coordinates": [
          121.766667,
          25.15
        ]
      },
      "type": "Feature",
      "properties": {
        "hierarchy": [
          "tgn:7486676",
          "tgn:1000957",
          "tgn:1000004",
          "tgn:1000141",
          "tgn:7029392"
        ],
        "placetype": [
          "aat:300387026"
        ],
        "id": 7486676,
        "name:xx": "Bachi Men"
      }
    },
    {
      "geometry": {
        "type": "Point",
        "coordinates": [
          120.409305,
          23.8955
        ]
      },
      "type": "Feature",
      "properties": {
        "hierarchy": [
          "tgn:7486677",
          "tgn:1000004",
          "tgn:7467799",
          "tgn:1000141",
          "tgn:7029392"
        ],
        "placetype": [
          "aat:300008347"
        ],
        "id": 7486677,
        "name:xx": "Bajian"
      }
    },
    {
      "geometry": {
        "type": "Point",
        "coordinates": [
          121.31336,
          24.825981
        ]
      },
      "type": "Feature",
      "properties": {
        "hierarchy": [
          "tgn:7486678",
          "tgn:1000004",
          "tgn:7001013",
          "tgn:1000141",
          "tgn:7029392"
        ],
        "placetype": [
          "aat:300008347"
        ],
        "id": 7486678,
        "name:xx": "Baiji"
      }
    },
    {
      "geometry": {
        "type": "Point",
        "coordinates": [
          120.873,
          24.4877
        ]
      },
      "type": "Feature",
      "properties": {
        "hierarchy": [
          "tgn:7486679",
          "tgn:7487020",
          "tgn:1000004",
          "tgn:1000141",
          "tgn:7029392"
        ],
        "placetype": [
          "aat:300008795"
        ],
        "id": 7486679,
        "name:xx": "Bajiaodong Shan"
      }
    }
  ]
}
