{
  "type": "FeatureCollection",
  "features": [
    {
      "geometry": {
        "type": "Point",
        "coordinates": [
          81.400344,
          25.607896
        ]
      },
      "type": "Feature",
      "properties": {
        "hierarchy": [
          "tgn:7580601",
          "tgn:1000004",
          "tgn:7000198",
          "tgn:7016722",
          "tgn:7029392"
        ],
        "placetype": [
          "aat:300007783"
        ],
        "name:en": "Shujāatpur",
        "id": 7580601
      }
    },
    {
      "geometry": {
        "type": "Point",
        "coordinates": [
          93.873721,
          24.295455
        ]
      },
      "type": "Feature",
      "properties": {
        "hierarchy": [
          "tgn:7580602",
          "tgn:1000004",
          "tgn:7000198",
          "tgn:1001997",
          "tgn:7029392"
        ],
        "placetype": [
          "aat:300008347"
        ],
        "name:en": "Shuganu",
        "id": 7580602
      }
    },
    {
      "geometry": {
        "type": "Point",
        "coordinates": [
          76.704167,
          12.413611
        ]
      },
      "type": "Feature",
      "properties": {
        "hierarchy": [
          "tgn:7580603",
          "tgn:1000004",
          "tgn:7000198",
          "tgn:1001882",
          "tgn:7029392"
        ],
        "placetype": [
          "aat:300008347"
        ],
        "name:en": "Shrīrangapattana",
        "id": 7580603
      }
    },
    {
      "geometry": {
        "type": "Point",
        "coordinates": [
          79.519588,
          22.952079
        ]
      },
      "type": "Feature",
      "properties": {
        "hierarchy": [
          "tgn:7580605",
          "tgn:1000004",
          "tgn:7000198",
          "tgn:1001894",
          "tgn:7029392"
        ],
        "placetype": [
          "aat:300008347"
        ],
        "name:en": "Shrīnagar",
        "id": 7580605
      }
    },
    {
      "geometry": {
        "type": "Point",
        "coordinates": [
          76.96799,
          26.684032
        ]
      },
      "type": "Feature",
      "properties": {
        "hierarchy": [
          "tgn:7580607",
          "tgn:1000004",
          "tgn:7000198",
          "tgn:7016788",
          "tgn:7029392"
        ],
        "placetype": [
          "aat:300007783"
        ],
        "name:en": "Shri Mahāvīrji Railroad Station",
        "id": 7580607
      }
    },
    {
      "geometry": {
        "type": "Point",
        "coordinates": [
          74.698946,
          18.615274
        ]
      },
      "type": "Feature",
      "properties": {
        "hierarchy": [
          "tgn:7580608",
          "tgn:1000004",
          "tgn:7000198",
          "tgn:1001895",
          "tgn:7029392"
        ],
        "placetype": [
          "aat:300008347"
        ],
        "name:en": "Shrīgonda",
        "id": 7580608
      }
    },
    {
      "geometry": {
        "type": "Point",
        "coordinates": [
          72.641264,
          24.404459
        ]
      },
      "type": "Feature",
      "properties": {
        "hierarchy": [
          "tgn:7580609",
          "tgn:1000004",
          "tgn:1001869",
          "tgn:7000198",
          "tgn:7029392"
        ],
        "placetype": [
          "aat:300007783"
        ],
        "name:en": "Amīrgadh Railroad Station",
        "id": 7580609
      }
    }
  ]
}
