{
  "type": "FeatureCollection",
  "features": [
    {
      "geometry": {
        "type": "Point",
        "coordinates": [
          75.693373,
          27.072407
        ]
      },
      "type": "Feature",
      "properties": {
        "hierarchy": [
          "tgn:7574351",
          "tgn:1000004",
          "tgn:7000198",
          "tgn:7016788",
          "tgn:7029392"
        ],
        "placetype": [
          "aat:300008347"
        ],
        "name:en": "Jayrāmpura",
        "id": 7574351
      }
    },
    {
      "geometry": {
        "type": "Point",
        "coordinates": [
          82.297041,
          22.034263
        ]
      },
      "type": "Feature",
      "properties": {
        "hierarchy": [
          "tgn:7574352",
          "tgn:1000004",
          "tgn:7031781",
          "tgn:7000198",
          "tgn:7029392"
        ],
        "placetype": [
          "aat:300007783"
        ],
        "name:en": "Jairāmnagar",
        "id": 7574352
      }
    },
    {
      "geometry": {
        "type": "Point",
        "coordinates": [
          79.583333,
          18.833333
        ]
      },
      "type": "Feature",
      "properties": {
        "hierarchy": [
          "tgn:7574353",
          "tgn:1001828",
          "tgn:1000004",
          "tgn:7000198",
          "tgn:7029392"
        ],
        "placetype": [
          "aat:300008347"
        ],
        "name:en": "Jaipuram",
        "id": 7574353
      }
    },
    {
      "geometry": {
        "type": "Point",
        "coordinates": [
          74.142993,
          23.912091
        ]
      },
      "type": "Feature",
      "properties": {
        "hierarchy": [
          "tgn:7574354",
          "tgn:1000004",
          "tgn:7000198",
          "tgn:7016788",
          "tgn:7029392"
        ],
        "placetype": [
          "aat:300008347"
        ],
        "name:en": "Jaipura",
        "id": 7574354
      }
    },
    {
      "geometry": {
        "type": "Point",
        "coordinates": [
          95.39595,
          27.261918
        ]
      },
      "type": "Feature",
      "properties": {
        "hierarchy": [
          "tgn:7574355",
          "tgn:1000004",
          "tgn:1001832",
          "tgn:7000198",
          "tgn:7029392"
        ],
        "placetype": [
          "aat:300008347"
        ],
        "name:en": "Jaipur",
        "id": 7574355
      }
    },
    {
      "geometry": {
        "type": "Point",
        "coordinates": [
          93.058137,
          24.903213
        ]
      },
      "type": "Feature",
      "properties": {
        "hierarchy": [
          "tgn:7574357",
          "tgn:1000004",
          "tgn:1001832",
          "tgn:7000198",
          "tgn:7029392"
        ],
        "placetype": [
          "aat:300008347"
        ],
        "name:en": "Jaipur",
        "id": 7574357
      }
    },
    {
      "geometry": {
        "type": "Point",
        "coordinates": [
          86.145775,
          23.418699
        ]
      },
      "type": "Feature",
      "properties": {
        "hierarchy": [
          "tgn:7574358",
          "tgn:1000004",
          "tgn:7000198",
          "tgn:1001977",
          "tgn:7029392"
        ],
        "placetype": [
          "aat:300008347"
        ],
        "name:en": "Jaipur",
        "id": 7574358
      }
    },
    {
      "geometry": {
        "type": "Point",
        "coordinates": [
          76.783333,
          19.883333
        ]
      },
      "type": "Feature",
      "properties": {
        "hierarchy": [
          "tgn:7574359",
          "tgn:1000004",
          "tgn:7000198",
          "tgn:1001895",
          "tgn:7029392"
        ],
        "placetype": [
          "aat:300008347"
        ],
        "name:en": "Jaipur",
        "id": 7574359
      }
    }
  ]
}
