{
  "type": "FeatureCollection",
  "features": [
    {
      "geometry": {
        "type": "Point",
        "coordinates": [
          120.459722,
          23.488611
        ]
      },
      "type": "Feature",
      "properties": {
        "hierarchy": [
          "tgn:7483710",
          "tgn:7001001",
          "tgn:1000004",
          "tgn:1000141",
          "tgn:7029392"
        ],
        "placetype": [
          "aat:300006610"
        ],
        "id": 7483710,
        "name:xx": "Jiayi Daxue Linsen Xiaoqu"
      }
    },
    {
      "geometry": {
        "type": "Point",
        "coordinates": [
          120.496667,
          23.25
        ]
      },
      "type": "Feature",
      "properties": {
        "hierarchy": [
          "tgn:7483711",
          "tgn:1000004",
          "tgn:7490934",
          "tgn:1000141",
          "tgn:7029392"
        ],
        "placetype": [
          "aat:300008798"
        ],
        "id": 7483711,
        "name:xx": "Yijian Shan"
      }
    },
    {
      "geometry": {
        "type": "Point",
        "coordinates": [
          120.504167,
          23.489167
        ]
      },
      "type": "Feature",
      "properties": {
        "hierarchy": [
          "tgn:7483712",
          "tgn:7468018",
          "tgn:1000004",
          "tgn:1000141",
          "tgn:7029392"
        ],
        "placetype": [
          "aat:300006495"
        ],
        "id": 7483712,
        "name:xx": "Yuanchong Guoxiao"
      }
    },
    {
      "geometry": {
        "type": "Point",
        "coordinates": [
          120.469444,
          23.478889
        ]
      },
      "type": "Feature",
      "properties": {
        "hierarchy": [
          "tgn:7483713",
          "tgn:7001001",
          "tgn:1000004",
          "tgn:1000141",
          "tgn:7029392"
        ],
        "placetype": [
          "aat:300006495"
        ],
        "id": 7483713,
        "name:xx": "Dongya Gaogong"
      }
    },
    {
      "geometry": {
        "type": "Point",
        "coordinates": [
          120.492222,
          23.48
        ]
      },
      "type": "Feature",
      "properties": {
        "hierarchy": [
          "tgn:7483714",
          "tgn:7468018",
          "tgn:1000004",
          "tgn:1000141",
          "tgn:7029392"
        ],
        "placetype": [
          "aat:300008777"
        ],
        "id": 7483714,
        "name:xx": "Hongmaopi"
      }
    },
    {
      "geometry": {
        "type": "Point",
        "coordinates": [
          120.502778,
          23.4925
        ]
      },
      "type": "Feature",
      "properties": {
        "hierarchy": [
          "tgn:7483715",
          "tgn:7468018",
          "tgn:1000004",
          "tgn:1000141",
          "tgn:7029392"
        ],
        "placetype": [
          "aat:300007836"
        ],
        "id": 7483715,
        "name:xx": "Wantou Qiao"
      }
    },
    {
      "geometry": {
        "type": "Point",
        "coordinates": [
          120.462222,
          23.489167
        ]
      },
      "type": "Feature",
      "properties": {
        "hierarchy": [
          "tgn:7483716",
          "tgn:7001001",
          "tgn:1000004",
          "tgn:1000141",
          "tgn:7029392"
        ],
        "placetype": [
          "aat:300006495"
        ],
        "id": 7483716,
        "name:xx": "Xinhua Zhongxue"
      }
    },
    {
      "geometry": {
        "type": "Point",
        "coordinates": [
          120.484167,
          23.470278
        ]
      },
      "type": "Feature",
      "properties": {
        "hierarchy": [
          "tgn:7483717",
          "tgn:7468018",
          "tgn:1000004",
          "tgn:1000141",
          "tgn:7029392"
        ],
        "placetype": [
          "aat:300006610"
        ],
        "id": 7483717,
        "name:xx": "Jiayi Daxue Lantan Xiaoqu"
      }
    },
    {
      "geometry": {
        "type": "Point",
        "coordinates": [
          120.476111,
          23.468889
        ]
      },
      "type": "Feature",
      "properties": {
        "hierarchy": [
          "tgn:7483718",
          "tgn:7468018",
          "tgn:1000004",
          "tgn:1000141",
          "tgn:7029392"
        ],
        "placetype": [
          "aat:300387033"
        ],
        "id": 7483718,
        "name:xx": "Buxin"
      }
    },
    {
      "geometry": {
        "type": "Point",
        "coordinates": [
          120.501389,
          23.445278
        ]
      },
      "type": "Feature",
      "properties": {
        "hierarchy": [
          "tgn:7483719",
          "tgn:7468018",
          "tgn:1000004",
          "tgn:1000141",
          "tgn:7029392"
        ],
        "placetype": [
          "aat:300007836"
        ],
        "id": 7483719,
        "name:xx": "Diyihao Qiao"
      }
    }
  ]
}
