{
  "type": "FeatureCollection",
  "features": [
    {
      "geometry": {
        "type": "Point",
        "coordinates": [
          83.75534,
          22.540919
        ]
      },
      "type": "Feature",
      "properties": {
        "hierarchy": [
          "tgn:7545380",
          "tgn:1000004",
          "tgn:7031781",
          "tgn:7000198",
          "tgn:7029392"
        ],
        "placetype": [
          "aat:300008347"
        ],
        "name:en": "Bagbahal",
        "id": 7545380
      }
    },
    {
      "geometry": {
        "type": "Point",
        "coordinates": [
          73.564452,
          25.874773
        ]
      },
      "type": "Feature",
      "properties": {
        "hierarchy": [
          "tgn:7545381",
          "tgn:1000004",
          "tgn:7000198",
          "tgn:7016788",
          "tgn:7029392"
        ],
        "placetype": [
          "aat:300008347"
        ],
        "name:en": "Bāgāwās",
        "id": 7545381
      }
    },
    {
      "geometry": {
        "type": "Point",
        "coordinates": [
          84.46186,
          26.039061
        ]
      },
      "type": "Feature",
      "properties": {
        "hierarchy": [
          "tgn:7545382",
          "tgn:1000004",
          "tgn:7000198",
          "tgn:7016722",
          "tgn:7029392"
        ],
        "placetype": [
          "aat:300008347"
        ],
        "name:en": "Bagaura",
        "id": 7545382
      }
    },
    {
      "geometry": {
        "type": "Point",
        "coordinates": [
          75.870373,
          22.321225
        ]
      },
      "type": "Feature",
      "properties": {
        "hierarchy": [
          "tgn:7545383",
          "tgn:1000004",
          "tgn:7000198",
          "tgn:1001894",
          "tgn:7029392"
        ],
        "placetype": [
          "aat:300008347"
        ],
        "name:en": "Bāgaud",
        "id": 7545383
      }
    },
    {
      "geometry": {
        "type": "Point",
        "coordinates": [
          70.716667,
          22.85
        ]
      },
      "type": "Feature",
      "properties": {
        "hierarchy": [
          "tgn:7545384",
          "tgn:1000004",
          "tgn:1001869",
          "tgn:7000198",
          "tgn:7029392"
        ],
        "placetype": [
          "aat:300008347"
        ],
        "name:en": "Bagathala",
        "id": 7545384
      }
    },
    {
      "geometry": {
        "type": "Point",
        "coordinates": [
          78.266531,
          23.937011
        ]
      },
      "type": "Feature",
      "properties": {
        "hierarchy": [
          "tgn:7545386",
          "tgn:1000004",
          "tgn:7000198",
          "tgn:1001894",
          "tgn:7029392"
        ],
        "placetype": [
          "aat:300008699"
        ],
        "name:en": "Bagaru Nadī",
        "id": 7545386
      }
    },
    {
      "geometry": {
        "type": "Point",
        "coordinates": [
          75.523871,
          28.157861
        ]
      },
      "type": "Feature",
      "properties": {
        "hierarchy": [
          "tgn:7545387",
          "tgn:1000004",
          "tgn:7000198",
          "tgn:7016788",
          "tgn:7029392"
        ],
        "placetype": [
          "aat:300007783"
        ],
        "name:en": "Ratanshahr Railroad Station",
        "id": 7545387
      }
    },
    {
      "geometry": {
        "type": "Point",
        "coordinates": [
          79.683333,
          27.233333
        ]
      },
      "type": "Feature",
      "properties": {
        "hierarchy": [
          "tgn:7545388",
          "tgn:1000004",
          "tgn:7000198",
          "tgn:7016722",
          "tgn:7029392"
        ],
        "placetype": [
          "aat:300008699"
        ],
        "name:en": "Bagār Nadī",
        "id": 7545388
      }
    },
    {
      "geometry": {
        "type": "Point",
        "coordinates": [
          76.752406,
          27.526694
        ]
      },
      "type": "Feature",
      "properties": {
        "hierarchy": [
          "tgn:7545389",
          "tgn:1000004",
          "tgn:7000198",
          "tgn:7016788",
          "tgn:7029392"
        ],
        "placetype": [
          "aat:300008347"
        ],
        "name:en": "Bagar Meo",
        "id": 7545389
      }
    }
  ]
}
