{
  "type": "FeatureCollection",
  "features": [
    {
      "geometry": {
        "type": "Point",
        "coordinates": [
          121.800556,
          24.846111
        ]
      },
      "type": "Feature",
      "properties": {
        "hierarchy": [
          "tgn:7482940",
          "tgn:1000004",
          "tgn:7489179",
          "tgn:1000141",
          "tgn:7029392"
        ],
        "placetype": [
          "aat:300266755"
        ],
        "id": 7482940,
        "name:xx": "Diyi Gongmu"
      }
    },
    {
      "geometry": {
        "type": "Point",
        "coordinates": [
          121.796111,
          24.840278
        ]
      },
      "type": "Feature",
      "properties": {
        "hierarchy": [
          "tgn:7482941",
          "tgn:1000004",
          "tgn:7489179",
          "tgn:1000141",
          "tgn:7029392"
        ],
        "placetype": [
          "aat:300007836"
        ],
        "id": 7482941,
        "name:xx": "Jinmian Qiao"
      }
    },
    {
      "geometry": {
        "type": "Point",
        "coordinates": [
          121.824167,
          24.836111
        ]
      },
      "type": "Feature",
      "properties": {
        "hierarchy": [
          "tgn:7482942",
          "tgn:1000004",
          "tgn:7489179",
          "tgn:1000141",
          "tgn:7029392"
        ],
        "placetype": [
          "aat:300007595"
        ],
        "id": 7482942,
        "name:xx": "Tai'an Miao"
      }
    },
    {
      "geometry": {
        "type": "Point",
        "coordinates": [
          121.792778,
          24.837778
        ]
      },
      "type": "Feature",
      "properties": {
        "hierarchy": [
          "tgn:7482943",
          "tgn:1000004",
          "tgn:7489179",
          "tgn:1000141",
          "tgn:7029392"
        ],
        "placetype": [
          "aat:300007595"
        ],
        "id": 7482943,
        "name:xx": "Weihui Miao"
      }
    },
    {
      "geometry": {
        "type": "Point",
        "coordinates": [
          121.779167,
          24.833889
        ]
      },
      "type": "Feature",
      "properties": {
        "hierarchy": [
          "tgn:7482944",
          "tgn:1000004",
          "tgn:7489179",
          "tgn:1000141",
          "tgn:7029392"
        ],
        "placetype": [
          "aat:300007595"
        ],
        "id": 7482944,
        "name:xx": "Wanshan Tang"
      }
    },
    {
      "geometry": {
        "type": "Point",
        "coordinates": [
          121.7725,
          24.832778
        ]
      },
      "type": "Feature",
      "properties": {
        "hierarchy": [
          "tgn:7482945",
          "tgn:1000004",
          "tgn:7489179",
          "tgn:1000141",
          "tgn:7029392"
        ],
        "placetype": [
          "aat:300007595"
        ],
        "id": 7482945,
        "name:xx": "Pilu Si"
      }
    },
    {
      "geometry": {
        "type": "Point",
        "coordinates": [
          121.821944,
          24.825
        ]
      },
      "type": "Feature",
      "properties": {
        "hierarchy": [
          "tgn:7482946",
          "tgn:1000004",
          "tgn:7489179",
          "tgn:1000141",
          "tgn:7029392"
        ],
        "placetype": [
          "aat:300387033"
        ],
        "id": 7482946,
        "name:xx": "Sanbaozhu Shan"
      }
    },
    {
      "geometry": {
        "type": "Point",
        "coordinates": [
          121.800278,
          24.826389
        ]
      },
      "type": "Feature",
      "properties": {
        "hierarchy": [
          "tgn:7482947",
          "tgn:1000004",
          "tgn:7489179",
          "tgn:1000141",
          "tgn:7029392"
        ],
        "placetype": [
          "aat:300007836"
        ],
        "id": 7482947,
        "name:xx": "Shagang Qiao"
      }
    },
    {
      "geometry": {
        "type": "Point",
        "coordinates": [
          121.798889,
          24.823889
        ]
      },
      "type": "Feature",
      "properties": {
        "hierarchy": [
          "tgn:7482948",
          "tgn:1000004",
          "tgn:7489179",
          "tgn:1000141",
          "tgn:7029392"
        ],
        "placetype": [
          "aat:300007836"
        ],
        "id": 7482948,
        "name:xx": "Diao'ao Qiao"
      }
    },
    {
      "geometry": {
        "type": "Point",
        "coordinates": [
          121.784444,
          24.830278
        ]
      },
      "type": "Feature",
      "properties": {
        "hierarchy": [
          "tgn:7482949",
          "tgn:1000004",
          "tgn:7489179",
          "tgn:1000141",
          "tgn:7029392"
        ],
        "placetype": [
          "aat:300007836"
        ],
        "id": 7482949,
        "name:xx": "Fenwei Qiao"
      }
    }
  ]
}
