{
  "type": "FeatureCollection",
  "features": [
    {
      "geometry": {
        "type": "Point",
        "coordinates": [
          29.436466,
          30.556725
        ]
      },
      "type": "Feature",
      "properties": {
        "hierarchy": [
          "tgn:7539710",
          "tgn:7001242",
          "tgn:7016833",
          "tgn:1001418",
          "tgn:7029392"
        ],
        "placetype": [
          "aat:300008777"
        ],
        "name:en": "Markhī, Tallat al",
        "id": 7539710
      }
    },
    {
      "geometry": {
        "type": "Point",
        "coordinates": [
          34.093705,
          24.155852
        ]
      },
      "type": "Feature",
      "properties": {
        "hierarchy": [
          "tgn:7539711",
          "tgn:7001242",
          "tgn:7001311",
          "tgn:7016833",
          "tgn:7029392"
        ],
        "placetype": [
          "aat:300379998"
        ],
        "name:en": "Markha, Wâdî el-",
        "id": 7539711
      }
    },
    {
      "geometry": {
        "type": "Point",
        "coordinates": [
          33.221918,
          29.001263
        ]
      },
      "type": "Feature",
      "properties": {
        "hierarchy": [
          "tgn:7539712",
          "tgn:7001242",
          "tgn:7016833",
          "tgn:7001336",
          "tgn:7029392"
        ],
        "placetype": [
          "aat:300006207"
        ],
        "id": 7539712,
        "name:xx": "Bîr el-Markhâ"
      }
    },
    {
      "geometry": {
        "type": "Point",
        "coordinates": [
          33.060833,
          29.606111
        ]
      },
      "type": "Feature",
      "properties": {
        "hierarchy": [
          "tgn:7539713",
          "tgn:7001242",
          "tgn:7016833",
          "tgn:7001336",
          "tgn:7029392"
        ],
        "placetype": [
          "aat:300008697"
        ],
        "name:en": "Markhah, 'Ayn al",
        "id": 7539713
      }
    },
    {
      "geometry": {
        "type": "Point",
        "coordinates": [
          33.119685,
          26.429019
        ]
      },
      "type": "Feature",
      "properties": {
        "hierarchy": [
          "tgn:7539714",
          "tgn:7001242",
          "tgn:7001311",
          "tgn:7016833",
          "tgn:7029392"
        ],
        "placetype": [
          "aat:300379998"
        ],
        "name:en": "Markh, Wādī al",
        "id": 7539714
      }
    },
    {
      "geometry": {
        "type": "Point",
        "coordinates": [
          27.228234,
          30.518519
        ]
      },
      "type": "Feature",
      "properties": {
        "hierarchy": [
          "tgn:7539715",
          "tgn:7001242",
          "tgn:7016833",
          "tgn:1001418",
          "tgn:7029392"
        ],
        "placetype": [
          "aat:300008777"
        ],
        "name:en": "Markaz, Qâret el",
        "id": 7539715
      }
    },
    {
      "geometry": {
        "type": "Point",
        "coordinates": [
          27.832215,
          30.953066
        ]
      },
      "type": "Feature",
      "properties": {
        "hierarchy": [
          "tgn:7539719",
          "tgn:7001242",
          "tgn:7016833",
          "tgn:1001418",
          "tgn:7029392"
        ],
        "placetype": [
          "aat:300005926"
        ],
        "name:en": "Qabr Samâlûsi",
        "id": 7539719
      }
    }
  ]
}
