{
  "type": "FeatureCollection",
  "features": [
    {
      "geometry": {
        "type": "Point",
        "coordinates": [
          31.193508,
          30.056011
        ]
      },
      "type": "Feature",
      "properties": {
        "hierarchy": [
          "tgn:7531230",
          "tgn:7001242",
          "tgn:7016833",
          "tgn:1001083",
          "tgn:7029392"
        ],
        "placetype": [
          "aat:300008187"
        ],
        "id": 7531230,
        "name:xx": "Ḩadīqat Niqābat al Muhandisīn"
      }
    },
    {
      "geometry": {
        "type": "Point",
        "coordinates": [
          31.202748,
          30.062364
        ]
      },
      "type": "Feature",
      "properties": {
        "hierarchy": [
          "tgn:7531231",
          "tgn:7001242",
          "tgn:7016833",
          "tgn:1001083",
          "tgn:7029392"
        ],
        "placetype": [
          "aat:300004792"
        ],
        "name:en": "Arsenal Sporting Club",
        "id": 7531231
      }
    },
    {
      "geometry": {
        "type": "Point",
        "coordinates": [
          31.205336,
          30.043561
        ]
      },
      "type": "Feature",
      "properties": {
        "hierarchy": [
          "tgn:7531232",
          "tgn:7001242",
          "tgn:7016833",
          "tgn:1001083",
          "tgn:7029392"
        ],
        "placetype": [
          "aat:300386970"
        ],
        "id": 7531232,
        "name:xx": "Tanmiyat al I'timān az Zirā'ī, Bank at"
      }
    },
    {
      "geometry": {
        "type": "Point",
        "coordinates": [
          31.209587,
          30.044206
        ]
      },
      "type": "Feature",
      "properties": {
        "hierarchy": [
          "tgn:7531233",
          "tgn:7001242",
          "tgn:7016833",
          "tgn:1001083",
          "tgn:7029392"
        ],
        "placetype": [
          "aat:300004792"
        ],
        "id": 7531233,
        "name:xx": "Al Jam'īyah at Ta'āwunīyah lil Işlāḩ az Zirā'ī"
      }
    },
    {
      "geometry": {
        "type": "Point",
        "coordinates": [
          31.205429,
          30.049077
        ]
      },
      "type": "Feature",
      "properties": {
        "hierarchy": [
          "tgn:7531234",
          "tgn:7001242",
          "tgn:7016833",
          "tgn:1001083",
          "tgn:7029392"
        ],
        "placetype": [
          "aat:300386970"
        ],
        "id": 7531234,
        "name:xx": "Waţanī lil Tanmiyah, Al Bank al"
      }
    },
    {
      "geometry": {
        "type": "Point",
        "coordinates": [
          31.203212,
          30.052201
        ]
      },
      "type": "Feature",
      "properties": {
        "hierarchy": [
          "tgn:7531235",
          "tgn:7001242",
          "tgn:7016833",
          "tgn:1001083",
          "tgn:7029392"
        ],
        "placetype": [
          "aat:300006676"
        ],
        "id": 7531235,
        "name:xx": "Mustashfá Muşţafá Maḩmūd"
      }
    },
    {
      "geometry": {
        "type": "Point",
        "coordinates": [
          31.202813,
          30.052528
        ]
      },
      "type": "Feature",
      "properties": {
        "hierarchy": [
          "tgn:7531236",
          "tgn:7001242",
          "tgn:7016833",
          "tgn:1001083",
          "tgn:7029392"
        ],
        "placetype": [
          "aat:300007544"
        ],
        "id": 7531236,
        "name:xx": "Masjid Muşţafá Maḩmūd"
      }
    },
    {
      "geometry": {
        "type": "Point",
        "coordinates": [
          31.251772,
          30.067301
        ]
      },
      "type": "Feature",
      "properties": {
        "hierarchy": [
          "tgn:7531237",
          "tgn:7001242",
          "tgn:7016833",
          "tgn:1001091",
          "tgn:7029392"
        ],
        "placetype": [
          "aat:300007544"
        ],
        "id": 7531237,
        "name:xx": "Masjid at Tawḩīd"
      }
    },
    {
      "geometry": {
        "type": "Point",
        "coordinates": [
          31.256282,
          30.067829
        ]
      },
      "type": "Feature",
      "properties": {
        "hierarchy": [
          "tgn:7531238",
          "tgn:7001242",
          "tgn:7016833",
          "tgn:1001091",
          "tgn:7029392"
        ],
        "placetype": [
          "aat:300007466"
        ],
        "id": 7531238,
        "name:xx": "Kanīsat al Qiddīsat Tirīzā"
      }
    },
    {
      "geometry": {
        "type": "Point",
        "coordinates": [
          31.25745,
          30.068027
        ]
      },
      "type": "Feature",
      "properties": {
        "hierarchy": [
          "tgn:7531239",
          "tgn:7001242",
          "tgn:7016833",
          "tgn:1001091",
          "tgn:7029392"
        ],
        "placetype": [
          "aat:300004792"
        ],
        "id": 7531239,
        "name:xx": "Shirkat Maţāḩin Shamāl al Qāhirah"
      }
    }
  ]
}
