{
  "type": "FeatureCollection",
  "features": [
    {
      "geometry": {
        "type": "Point",
        "coordinates": [
          79.443561,
          26.347818
        ]
      },
      "type": "Feature",
      "properties": {
        "hierarchy": [
          "tgn:7566040",
          "tgn:1000004",
          "tgn:7000198",
          "tgn:7016722",
          "tgn:7029392"
        ],
        "placetype": [
          "aat:300008347"
        ],
        "name:en": "Randhīrpur",
        "id": 7566040
      }
    },
    {
      "geometry": {
        "type": "Point",
        "coordinates": [
          79.437964,
          26.339327
        ]
      },
      "type": "Feature",
      "properties": {
        "hierarchy": [
          "tgn:7566041",
          "tgn:1000004",
          "tgn:7000198",
          "tgn:7016722",
          "tgn:7029392"
        ],
        "placetype": [
          "aat:300008347"
        ],
        "name:en": "Mālpur",
        "id": 7566041
      }
    },
    {
      "geometry": {
        "type": "Point",
        "coordinates": [
          89.871962,
          26.414229
        ]
      },
      "type": "Feature",
      "properties": {
        "hierarchy": [
          "tgn:7566042",
          "tgn:1000004",
          "tgn:1001832",
          "tgn:7000198",
          "tgn:7029392"
        ],
        "placetype": [
          "aat:300008347"
        ],
        "name:en": "Mājer Dābri",
        "id": 7566042
      }
    },
    {
      "geometry": {
        "type": "Point",
        "coordinates": [
          89.840443,
          26.400007
        ]
      },
      "type": "Feature",
      "properties": {
        "hierarchy": [
          "tgn:7566043",
          "tgn:1000004",
          "tgn:1001832",
          "tgn:7000198",
          "tgn:7029392"
        ],
        "placetype": [
          "aat:300008699"
        ],
        "name:en": "Harwāphuta Nadi",
        "id": 7566043
      }
    },
    {
      "geometry": {
        "type": "Point",
        "coordinates": [
          89.876959,
          26.422493
        ]
      },
      "type": "Feature",
      "properties": {
        "hierarchy": [
          "tgn:7566044",
          "tgn:1000004",
          "tgn:1001832",
          "tgn:7000198",
          "tgn:7029392"
        ],
        "placetype": [
          "aat:300008347"
        ],
        "name:en": "Khoiraghutu",
        "id": 7566044
      }
    },
    {
      "geometry": {
        "type": "Point",
        "coordinates": [
          89.873788,
          26.434361
        ]
      },
      "type": "Feature",
      "properties": {
        "hierarchy": [
          "tgn:7566045",
          "tgn:1000004",
          "tgn:1001832",
          "tgn:7000198",
          "tgn:7029392"
        ],
        "placetype": [
          "aat:300008347"
        ],
        "name:en": "Simaltāpu",
        "id": 7566045
      }
    },
    {
      "geometry": {
        "type": "Point",
        "coordinates": [
          89.915685,
          26.444114
        ]
      },
      "type": "Feature",
      "properties": {
        "hierarchy": [
          "tgn:7566046",
          "tgn:1000004",
          "tgn:1001832",
          "tgn:7000198",
          "tgn:7029392"
        ],
        "placetype": [
          "aat:300008347"
        ],
        "name:en": "Bhairiguri",
        "id": 7566046
      }
    },
    {
      "geometry": {
        "type": "Point",
        "coordinates": [
          89.899877,
          26.428643
        ]
      },
      "type": "Feature",
      "properties": {
        "hierarchy": [
          "tgn:7566047",
          "tgn:1000004",
          "tgn:1001832",
          "tgn:7000198",
          "tgn:7029392"
        ],
        "placetype": [
          "aat:300008347"
        ],
        "name:en": "Srirāmpur",
        "id": 7566047
      }
    },
    {
      "geometry": {
        "type": "Point",
        "coordinates": [
          89.906412,
          26.424271
        ]
      },
      "type": "Feature",
      "properties": {
        "hierarchy": [
          "tgn:7566048",
          "tgn:1000004",
          "tgn:1001832",
          "tgn:7000198",
          "tgn:7029392"
        ],
        "placetype": [
          "aat:300008347"
        ],
        "name:en": "Damriguri",
        "id": 7566048
      }
    },
    {
      "geometry": {
        "type": "Point",
        "coordinates": [
          89.899685,
          26.451129
        ]
      },
      "type": "Feature",
      "properties": {
        "hierarchy": [
          "tgn:7566049",
          "tgn:1000004",
          "tgn:1001832",
          "tgn:7000198",
          "tgn:7029392"
        ],
        "placetype": [
          "aat:300008347"
        ],
        "name:en": "Nayapāra",
        "id": 7566049
      }
    }
  ]
}
