{
  "type": "FeatureCollection",
  "features": [
    {
      "geometry": {
        "type": "Point",
        "coordinates": [
          120.619274,
          22.883286
        ]
      },
      "type": "Feature",
      "properties": {
        "hierarchy": [
          "tgn:7494130",
          "tgn:1000004",
          "tgn:7492971",
          "tgn:1000141",
          "tgn:7029392"
        ],
        "placetype": [
          "aat:300008347"
        ],
        "id": 7494130,
        "name:xx": "Jiuxiongdi"
      }
    },
    {
      "geometry": {
        "type": "Point",
        "coordinates": [
          120.6485,
          22.902298
        ]
      },
      "type": "Feature",
      "properties": {
        "hierarchy": [
          "tgn:7494131",
          "tgn:7001004",
          "tgn:1000004",
          "tgn:1000141",
          "tgn:7029392"
        ],
        "placetype": [
          "aat:300008347"
        ],
        "id": 7494131,
        "name:xx": "Wangshanjiao"
      }
    },
    {
      "geometry": {
        "type": "Point",
        "coordinates": [
          120.643853,
          22.932358
        ]
      },
      "type": "Feature",
      "properties": {
        "hierarchy": [
          "tgn:7494132",
          "tgn:7001004",
          "tgn:1000004",
          "tgn:1000141",
          "tgn:7029392"
        ],
        "placetype": [
          "aat:300008347"
        ],
        "id": 7494132,
        "name:xx": "Yisui"
      }
    },
    {
      "geometry": {
        "type": "Point",
        "coordinates": [
          120.6158,
          22.771222
        ]
      },
      "type": "Feature",
      "properties": {
        "hierarchy": [
          "tgn:7494133",
          "tgn:1000004",
          "tgn:7492971",
          "tgn:1000141",
          "tgn:7029392"
        ],
        "placetype": [
          "aat:300008347"
        ],
        "id": 7494133,
        "name:xx": "Shangguangfu"
      }
    },
    {
      "geometry": {
        "type": "Point",
        "coordinates": [
          120.605138,
          22.771652
        ]
      },
      "type": "Feature",
      "properties": {
        "hierarchy": [
          "tgn:7494134",
          "tgn:1000004",
          "tgn:7492971",
          "tgn:1000141",
          "tgn:7029392"
        ],
        "placetype": [
          "aat:300008347"
        ],
        "id": 7494134,
        "name:xx": "Dakulang"
      }
    },
    {
      "geometry": {
        "type": "Point",
        "coordinates": [
          120.611469,
          22.791227
        ]
      },
      "type": "Feature",
      "properties": {
        "hierarchy": [
          "tgn:7494135",
          "tgn:1000004",
          "tgn:7492971",
          "tgn:1000141",
          "tgn:7029392"
        ],
        "placetype": [
          "aat:300008347"
        ],
        "id": 7494135,
        "name:xx": "Xizi"
      }
    },
    {
      "geometry": {
        "type": "Point",
        "coordinates": [
          120.593,
          22.839158
        ]
      },
      "type": "Feature",
      "properties": {
        "hierarchy": [
          "tgn:7494136",
          "tgn:1000004",
          "tgn:7492971",
          "tgn:1000141",
          "tgn:7029392"
        ],
        "placetype": [
          "aat:300008347"
        ],
        "id": 7494136,
        "name:xx": "Dabutou"
      }
    },
    {
      "geometry": {
        "type": "Point",
        "coordinates": [
          120.6058,
          22.850815
        ]
      },
      "type": "Feature",
      "properties": {
        "hierarchy": [
          "tgn:7494138",
          "tgn:1000004",
          "tgn:7492971",
          "tgn:1000141",
          "tgn:7029392"
        ],
        "placetype": [
          "aat:300008347"
        ],
        "id": 7494138,
        "name:xx": "Shangcailiao"
      }
    },
    {
      "geometry": {
        "type": "Point",
        "coordinates": [
          120.604272,
          22.883392
        ]
      },
      "type": "Feature",
      "properties": {
        "hierarchy": [
          "tgn:7494139",
          "tgn:1000004",
          "tgn:7492971",
          "tgn:1000141",
          "tgn:7029392"
        ],
        "placetype": [
          "aat:300008347"
        ],
        "id": 7494139,
        "name:xx": "Jizhaokeng"
      }
    }
  ]
}
