{
  "type": "FeatureCollection",
  "features": [
    {
      "geometry": {
        "type": "Point",
        "coordinates": [
          77.420527,
          29.547337
        ]
      },
      "type": "Feature",
      "properties": {
        "hierarchy": [
          "tgn:7569390",
          "tgn:1000004",
          "tgn:7000198",
          "tgn:7016722",
          "tgn:7029392"
        ],
        "placetype": [
          "aat:300008347"
        ],
        "name:en": "Panwār Khera",
        "id": 7569390
      }
    },
    {
      "geometry": {
        "type": "Point",
        "coordinates": [
          77.418173,
          29.552689
        ]
      },
      "type": "Feature",
      "properties": {
        "hierarchy": [
          "tgn:7569391",
          "tgn:1000004",
          "tgn:7000198",
          "tgn:7016722",
          "tgn:7029392"
        ],
        "placetype": [
          "aat:300008347"
        ],
        "name:en": "Tītārsi",
        "id": 7569391
      }
    },
    {
      "geometry": {
        "type": "Point",
        "coordinates": [
          77.48025,
          29.559877
        ]
      },
      "type": "Feature",
      "properties": {
        "hierarchy": [
          "tgn:7569392",
          "tgn:1000004",
          "tgn:7000198",
          "tgn:7016722",
          "tgn:7029392"
        ],
        "placetype": [
          "aat:300008347"
        ],
        "name:en": "Hirnāki",
        "id": 7569392
      }
    },
    {
      "geometry": {
        "type": "Point",
        "coordinates": [
          77.432747,
          29.558057
        ]
      },
      "type": "Feature",
      "properties": {
        "hierarchy": [
          "tgn:7569393",
          "tgn:1000004",
          "tgn:7000198",
          "tgn:7016722",
          "tgn:7029392"
        ],
        "placetype": [
          "aat:300008347"
        ],
        "name:en": "Jamālpur",
        "id": 7569393
      }
    },
    {
      "geometry": {
        "type": "Point",
        "coordinates": [
          77.44004,
          29.559149
        ]
      },
      "type": "Feature",
      "properties": {
        "hierarchy": [
          "tgn:7569394",
          "tgn:1000004",
          "tgn:7000198",
          "tgn:7016722",
          "tgn:7029392"
        ],
        "placetype": [
          "aat:300008347"
        ],
        "name:en": "Qutabgarh",
        "id": 7569394
      }
    },
    {
      "geometry": {
        "type": "Point",
        "coordinates": [
          77.462899,
          29.560992
        ]
      },
      "type": "Feature",
      "properties": {
        "hierarchy": [
          "tgn:7569395",
          "tgn:1000004",
          "tgn:7000198",
          "tgn:7016722",
          "tgn:7029392"
        ],
        "placetype": [
          "aat:300008347"
        ],
        "name:en": "Bhaisāni Islāmpur",
        "id": 7569395
      }
    },
    {
      "geometry": {
        "type": "Point",
        "coordinates": [
          77.416449,
          29.572417
        ]
      },
      "type": "Feature",
      "properties": {
        "hierarchy": [
          "tgn:7569396",
          "tgn:1000004",
          "tgn:7000198",
          "tgn:7016722",
          "tgn:7029392"
        ],
        "placetype": [
          "aat:300008347"
        ],
        "name:en": "Latifgarh",
        "id": 7569396
      }
    },
    {
      "geometry": {
        "type": "Point",
        "coordinates": [
          77.429871,
          29.57524
        ]
      },
      "type": "Feature",
      "properties": {
        "hierarchy": [
          "tgn:7569397",
          "tgn:1000004",
          "tgn:7000198",
          "tgn:7016722",
          "tgn:7029392"
        ],
        "placetype": [
          "aat:300008347"
        ],
        "name:en": "Mullāpur",
        "id": 7569397
      }
    },
    {
      "geometry": {
        "type": "Point",
        "coordinates": [
          86.281272,
          21.460565
        ]
      },
      "type": "Feature",
      "properties": {
        "hierarchy": [
          "tgn:7569398",
          "tgn:1000004",
          "tgn:7000198",
          "tgn:7016694",
          "tgn:7029392"
        ],
        "placetype": [
          "aat:300008777"
        ],
        "name:en": "Noto Pahār",
        "id": 7569398
      }
    },
    {
      "geometry": {
        "type": "Point",
        "coordinates": [
          86.294444,
          21.556389
        ]
      },
      "type": "Feature",
      "properties": {
        "hierarchy": [
          "tgn:7569399",
          "tgn:1000004",
          "tgn:7000198",
          "tgn:7016694",
          "tgn:7029392"
        ],
        "placetype": [
          "aat:300008777"
        ],
        "name:en": "Burhāgarā Huli",
        "id": 7569399
      }
    }
  ]
}
