{
  "type": "FeatureCollection",
  "features": [
    {
      "geometry": {
        "type": "Point",
        "coordinates": [
          -97.976944,
          17.673611
        ]
      },
      "type": "Feature",
      "properties": {
        "hierarchy": [
          "tgn:7414630",
          "tgn:1000001",
          "tgn:7005591",
          "tgn:7005560",
          "tgn:7029392"
        ],
        "placetype": [
          "aat:300008347"
        ],
        "id": 7414630,
        "name:es": "Santo Domingo Tonalá"
      }
    },
    {
      "geometry": {
        "type": "Point",
        "coordinates": [
          -97.8975,
          17.636389
        ]
      },
      "type": "Feature",
      "properties": {
        "hierarchy": [
          "tgn:7414631",
          "tgn:1000001",
          "tgn:7005591",
          "tgn:7005560",
          "tgn:7029392"
        ],
        "placetype": [
          "aat:300008347"
        ],
        "id": 7414631,
        "name:es": "Yucuñuti de Benito Juárez"
      }
    },
    {
      "geometry": {
        "type": "Point",
        "coordinates": [
          -98.011389,
          17.625
        ]
      },
      "type": "Feature",
      "properties": {
        "hierarchy": [
          "tgn:7414632",
          "tgn:1000001",
          "tgn:7005591",
          "tgn:7005560",
          "tgn:7029392"
        ],
        "placetype": [
          "aat:300008347"
        ],
        "id": 7414632,
        "name:es": "San Agustín Tenango"
      }
    },
    {
      "geometry": {
        "type": "Point",
        "coordinates": [
          -98.031111,
          17.656111
        ]
      },
      "type": "Feature",
      "properties": {
        "hierarchy": [
          "tgn:7414633",
          "tgn:1000001",
          "tgn:7005591",
          "tgn:7005560",
          "tgn:7029392"
        ],
        "placetype": [
          "aat:300008699"
        ],
        "id": 7414633,
        "name:es": "Mixteco, Río"
      }
    },
    {
      "geometry": {
        "type": "Point",
        "coordinates": [
          -97.993056,
          17.670278
        ]
      },
      "type": "Feature",
      "properties": {
        "hierarchy": [
          "tgn:7414634",
          "tgn:1000001",
          "tgn:7005591",
          "tgn:7005560",
          "tgn:7029392"
        ],
        "placetype": [
          "aat:300008347"
        ],
        "id": 7414634,
        "name:es": "Yetla de Juárez"
      }
    },
    {
      "geometry": {
        "type": "Point",
        "coordinates": [
          -98.100556,
          17.6875
        ]
      },
      "type": "Feature",
      "properties": {
        "hierarchy": [
          "tgn:7414635",
          "tgn:1000001",
          "tgn:7005591",
          "tgn:7005560",
          "tgn:7029392"
        ],
        "placetype": [
          "aat:300008347"
        ],
        "id": 7414635,
        "name:es": "Guadalupe Morelos"
      }
    },
    {
      "geometry": {
        "type": "Point",
        "coordinates": [
          -98.100833,
          17.673056
        ]
      },
      "type": "Feature",
      "properties": {
        "hierarchy": [
          "tgn:7414636",
          "tgn:1000001",
          "tgn:7005591",
          "tgn:7005560",
          "tgn:7029392"
        ],
        "placetype": [
          "aat:300008347"
        ],
        "id": 7414636,
        "name:es": "San Jorge Nuchita"
      }
    },
    {
      "geometry": {
        "type": "Point",
        "coordinates": [
          -98.093611,
          17.576667
        ]
      },
      "type": "Feature",
      "properties": {
        "hierarchy": [
          "tgn:7414637",
          "tgn:1000001",
          "tgn:7005591",
          "tgn:7005560",
          "tgn:7029392"
        ],
        "placetype": [
          "aat:300008347"
        ],
        "id": 7414637,
        "name:es": "San Jerónimo Nuchita"
      }
    },
    {
      "geometry": {
        "type": "Point",
        "coordinates": [
          -98.120833,
          17.670833
        ]
      },
      "type": "Feature",
      "properties": {
        "hierarchy": [
          "tgn:7414638",
          "tgn:1000001",
          "tgn:7005591",
          "tgn:7005560",
          "tgn:7029392"
        ],
        "placetype": [
          "aat:300008347"
        ],
        "id": 7414638,
        "name:es": "San Lorenzo Victoria"
      }
    },
    {
      "geometry": {
        "type": "Point",
        "coordinates": [
          -98.218611,
          17.670278
        ]
      },
      "type": "Feature",
      "properties": {
        "hierarchy": [
          "tgn:7414639",
          "tgn:1000001",
          "tgn:7005591",
          "tgn:7005560",
          "tgn:7029392"
        ],
        "placetype": [
          "aat:300008347"
        ],
        "id": 7414639,
        "name:es": "Santiago Tamazola"
      }
    }
  ]
}
