{
  "type": "FeatureCollection",
  "features": [
    {
      "geometry": {
        "type": "Point",
        "coordinates": [
          120.6208,
          23.7434
        ]
      },
      "type": "Feature",
      "properties": {
        "hierarchy": [
          "tgn:1085400",
          "tgn:1000004",
          "tgn:7001014",
          "tgn:1000141",
          "tgn:7029392"
        ],
        "placetype": [
          "aat:300008347",
          "aat:300387220"
        ],
        "id": 1085400,
        "name:xx": "Tou-liu"
      }
    },
    {
      "geometry": {
        "type": "Point",
        "coordinates": [
          120.478701,
          23.677368
        ]
      },
      "type": "Feature",
      "properties": {
        "hierarchy": [
          "tgn:1085401",
          "tgn:1000004",
          "tgn:7001014",
          "tgn:1000141",
          "tgn:7029392"
        ],
        "placetype": [
          "aat:300008347"
        ],
        "id": 1085401,
        "name:xx": "Tou-nan"
      }
    },
    {
      "geometry": {
        "type": "Point",
        "coordinates": [
          120.6841,
          23.979302
        ]
      },
      "type": "Feature",
      "properties": {
        "hierarchy": [
          "tgn:1085402",
          "tgn:7488858",
          "tgn:1000004",
          "tgn:1000141",
          "tgn:7029392"
        ],
        "placetype": [
          "aat:300008347"
        ],
        "id": 1085402,
        "name:xx": "Ts'ao-t'un"
      }
    },
    {
      "geometry": {
        "type": "Point",
        "coordinates": [
          120.293349,
          22.688617
        ]
      },
      "type": "Feature",
      "properties": {
        "hierarchy": [
          "tgn:1085403",
          "tgn:7001004",
          "tgn:1000004",
          "tgn:1000141",
          "tgn:7029392"
        ],
        "placetype": [
          "aat:300008347"
        ],
        "id": 1085403,
        "name:xx": "Tso-ying"
      }
    },
    {
      "geometry": {
        "type": "Point",
        "coordinates": [
          121.303611,
          22.968056
        ]
      },
      "type": "Feature",
      "properties": {
        "hierarchy": [
          "tgn:1085404",
          "tgn:1000004",
          "tgn:7491221",
          "tgn:1000141",
          "tgn:7029392"
        ],
        "placetype": [
          "aat:300008347"
        ],
        "id": 1085404,
        "name:xx": "Tung-ho"
      }
    },
    {
      "geometry": {
        "type": "Point",
        "coordinates": [
          120.449271,
          22.465146
        ]
      },
      "type": "Feature",
      "properties": {
        "hierarchy": [
          "tgn:1085405",
          "tgn:1000004",
          "tgn:7492971",
          "tgn:1000141",
          "tgn:7029392"
        ],
        "placetype": [
          "aat:300008347"
        ],
        "id": 1085405,
        "name:xx": "Tung-kang"
      }
    },
    {
      "geometry": {
        "type": "Point",
        "coordinates": [
          120.828682,
          24.258577
        ]
      },
      "type": "Feature",
      "properties": {
        "hierarchy": [
          "tgn:1085406",
          "tgn:1000004",
          "tgn:7001009",
          "tgn:1000141",
          "tgn:7029392"
        ],
        "placetype": [
          "aat:300008347"
        ],
        "id": 1085406,
        "name:xx": "Tung-shih"
      }
    },
    {
      "geometry": {
        "type": "Point",
        "coordinates": [
          121.689594,
          25.179331
        ]
      },
      "type": "Feature",
      "properties": {
        "hierarchy": [
          "tgn:1085407",
          "tgn:1000004",
          "tgn:1000454",
          "tgn:1000141",
          "tgn:7029392"
        ],
        "placetype": [
          "aat:300008347"
        ],
        "id": 1085407,
        "name:xx": "Wan-li"
      }
    },
    {
      "geometry": {
        "type": "Point",
        "coordinates": [
          120.534167,
          24.255278
        ]
      },
      "type": "Feature",
      "properties": {
        "hierarchy": [
          "tgn:1085408",
          "tgn:1000004",
          "tgn:7001009",
          "tgn:1000141",
          "tgn:7029392"
        ],
        "placetype": [
          "aat:300008347"
        ],
        "id": 1085408,
        "name:xx": "Wu-ch'i"
      }
    },
    {
      "geometry": {
        "type": "Point",
        "coordinates": [
          121.551331,
          24.86397
        ]
      },
      "type": "Feature",
      "properties": {
        "hierarchy": [
          "tgn:1085409",
          "tgn:1000004",
          "tgn:1000454",
          "tgn:1000141",
          "tgn:7029392"
        ],
        "placetype": [
          "aat:300008347"
        ],
        "id": 1085409,
        "name:xx": "Wu-lai"
      }
    }
  ]
}
