{
  "type": "FeatureCollection",
  "features": [
    {
      "geometry": {
        "type": "Point",
        "coordinates": [
          121.5125,
          22.663611
        ]
      },
      "type": "Feature",
      "properties": {
        "hierarchy": [
          "tgn:7479070",
          "tgn:1000004",
          "tgn:7491221",
          "tgn:1000141",
          "tgn:7029392"
        ],
        "placetype": [
          "aat:300008791"
        ],
        "id": 7479070,
        "name:xx": "Daoluan Yan"
      }
    },
    {
      "geometry": {
        "type": "Point",
        "coordinates": [
          121.511111,
          22.681667
        ]
      },
      "type": "Feature",
      "properties": {
        "hierarchy": [
          "tgn:7479071",
          "tgn:1000004",
          "tgn:7491221",
          "tgn:1000141",
          "tgn:7029392"
        ],
        "placetype": [
          "aat:300008791"
        ],
        "id": 7479071,
        "name:xx": "Qingyu Yu"
      }
    },
    {
      "geometry": {
        "type": "Point",
        "coordinates": [
          121.304444,
          24.381111
        ]
      },
      "type": "Feature",
      "properties": {
        "hierarchy": [
          "tgn:7479072",
          "tgn:1000004",
          "tgn:7001009",
          "tgn:1000141",
          "tgn:7029392"
        ],
        "placetype": [
          "aat:300008347"
        ],
        "id": 7479072,
        "name:xx": "Disiqu"
      }
    },
    {
      "geometry": {
        "type": "Point",
        "coordinates": [
          121.3075,
          24.386944
        ]
      },
      "type": "Feature",
      "properties": {
        "hierarchy": [
          "tgn:7479073",
          "tgn:1000004",
          "tgn:7001009",
          "tgn:1000141",
          "tgn:7029392"
        ],
        "placetype": [
          "aat:300008347"
        ],
        "id": 7479073,
        "name:xx": "Disanqu"
      }
    },
    {
      "geometry": {
        "type": "Point",
        "coordinates": [
          121.306944,
          24.389722
        ]
      },
      "type": "Feature",
      "properties": {
        "hierarchy": [
          "tgn:7479074",
          "tgn:1000004",
          "tgn:7001009",
          "tgn:1000141",
          "tgn:7029392"
        ],
        "placetype": [
          "aat:300008347"
        ],
        "id": 7479074,
        "name:xx": "Diliuqu"
      }
    },
    {
      "geometry": {
        "type": "Point",
        "coordinates": [
          121.3625,
          24.429722
        ]
      },
      "type": "Feature",
      "properties": {
        "hierarchy": [
          "tgn:7479075",
          "tgn:1000004",
          "tgn:7489179",
          "tgn:1000141",
          "tgn:7029392"
        ],
        "placetype": [
          "aat:300387503"
        ],
        "id": 7479075,
        "name:xx": "Nanshan Linwusuo"
      }
    },
    {
      "geometry": {
        "type": "Point",
        "coordinates": [
          121.375833,
          24.369444
        ]
      },
      "type": "Feature",
      "properties": {
        "hierarchy": [
          "tgn:7479076",
          "tgn:1000004",
          "tgn:7001009",
          "tgn:1000141",
          "tgn:7029392"
        ],
        "placetype": [
          "aat:300387033"
        ],
        "id": 7479076,
        "name:xx": "Shuili Sanjiaodian"
      }
    },
    {
      "geometry": {
        "type": "Point",
        "coordinates": [
          121.378889,
          24.439444
        ]
      },
      "type": "Feature",
      "properties": {
        "hierarchy": [
          "tgn:7479077",
          "tgn:1000004",
          "tgn:7489179",
          "tgn:1000141",
          "tgn:7029392"
        ],
        "placetype": [
          "aat:300008347"
        ],
        "id": 7479077,
        "name:xx": "Pinanxiang"
      }
    },
    {
      "geometry": {
        "type": "Point",
        "coordinates": [
          121.381111,
          24.441111
        ]
      },
      "type": "Feature",
      "properties": {
        "hierarchy": [
          "tgn:7479078",
          "tgn:1000004",
          "tgn:7489179",
          "tgn:1000141",
          "tgn:7029392"
        ],
        "placetype": [
          "aat:300008347"
        ],
        "id": 7479078,
        "name:xx": "Kaipixiang"
      }
    },
    {
      "geometry": {
        "type": "Point",
        "coordinates": [
          121.282222,
          24.322778
        ]
      },
      "type": "Feature",
      "properties": {
        "hierarchy": [
          "tgn:7479079",
          "tgn:1000004",
          "tgn:7001009",
          "tgn:1000141",
          "tgn:7029392"
        ],
        "placetype": [
          "aat:300000206"
        ],
        "id": 7479079,
        "name:xx": "Songbai Nongchang"
      }
    }
  ]
}
