{
  "type": "FeatureCollection",
  "features": [
    {
      "geometry": {
        "type": "Point",
        "coordinates": [
          120.5075,
          24.044444
        ]
      },
      "type": "Feature",
      "properties": {
        "hierarchy": [
          "tgn:7501290",
          "tgn:1000004",
          "tgn:7467799",
          "tgn:1000141",
          "tgn:7029392"
        ],
        "placetype": [
          "aat:300007836"
        ],
        "id": 7501290,
        "name:xx": "Xiushui Qiao"
      }
    },
    {
      "geometry": {
        "type": "Point",
        "coordinates": [
          120.776111,
          23.703333
        ]
      },
      "type": "Feature",
      "properties": {
        "hierarchy": [
          "tgn:7501291",
          "tgn:7488858",
          "tgn:1000004",
          "tgn:1000141",
          "tgn:7029392"
        ],
        "placetype": [
          "aat:300006495"
        ],
        "id": 7501291,
        "name:xx": "Heya Guoxiao"
      }
    },
    {
      "geometry": {
        "type": "Point",
        "coordinates": [
          120.778056,
          23.720833
        ]
      },
      "type": "Feature",
      "properties": {
        "hierarchy": [
          "tgn:7501292",
          "tgn:7488858",
          "tgn:1000004",
          "tgn:1000141",
          "tgn:7029392"
        ],
        "placetype": [
          "aat:300006495"
        ],
        "id": 7501292,
        "name:xx": "Neihu Guoxiao"
      }
    },
    {
      "geometry": {
        "type": "Point",
        "coordinates": [
          120.855833,
          23.7375
        ]
      },
      "type": "Feature",
      "properties": {
        "hierarchy": [
          "tgn:7501293",
          "tgn:7488858",
          "tgn:1000004",
          "tgn:1000141",
          "tgn:7029392"
        ],
        "placetype": [
          "aat:300006495"
        ],
        "id": 7501293,
        "name:xx": "Junkeng Guoxiao"
      }
    },
    {
      "geometry": {
        "type": "Point",
        "coordinates": [
          120.781111,
          23.741389
        ]
      },
      "type": "Feature",
      "properties": {
        "hierarchy": [
          "tgn:7501294",
          "tgn:7488858",
          "tgn:1000004",
          "tgn:1000141",
          "tgn:7029392"
        ],
        "placetype": [
          "aat:300006495"
        ],
        "id": 7501294,
        "name:xx": "Fenghuang Guoxiao"
      }
    },
    {
      "geometry": {
        "type": "Point",
        "coordinates": [
          120.765278,
          23.736111
        ]
      },
      "type": "Feature",
      "properties": {
        "hierarchy": [
          "tgn:7501295",
          "tgn:7488858",
          "tgn:1000004",
          "tgn:1000141",
          "tgn:7029392"
        ],
        "placetype": [
          "aat:300006495"
        ],
        "id": 7501295,
        "name:xx": "Guangxing Guoxiao"
      }
    },
    {
      "geometry": {
        "type": "Point",
        "coordinates": [
          120.760833,
          23.737778
        ]
      },
      "type": "Feature",
      "properties": {
        "hierarchy": [
          "tgn:7501296",
          "tgn:7488858",
          "tgn:1000004",
          "tgn:1000141",
          "tgn:7029392"
        ],
        "placetype": [
          "aat:300007836"
        ],
        "id": 7501296,
        "name:xx": "Guangxing Qiao"
      }
    },
    {
      "geometry": {
        "type": "Point",
        "coordinates": [
          120.759444,
          23.737778
        ]
      },
      "type": "Feature",
      "properties": {
        "hierarchy": [
          "tgn:7501297",
          "tgn:7488858",
          "tgn:1000004",
          "tgn:1000141",
          "tgn:7029392"
        ],
        "placetype": [
          "aat:300007836"
        ],
        "id": 7501297,
        "name:xx": "Guangyi Qiao"
      }
    },
    {
      "geometry": {
        "type": "Point",
        "coordinates": [
          120.922222,
          23.555
        ]
      },
      "type": "Feature",
      "properties": {
        "hierarchy": [
          "tgn:7501298",
          "tgn:7488858",
          "tgn:1000004",
          "tgn:1000141",
          "tgn:7029392"
        ],
        "placetype": [
          "aat:300007836"
        ],
        "id": 7501298,
        "name:xx": "Qingren Diaoqiao"
      }
    },
    {
      "geometry": {
        "type": "Point",
        "coordinates": [
          120.77,
          23.499722
        ]
      },
      "type": "Feature",
      "properties": {
        "hierarchy": [
          "tgn:7501299",
          "tgn:7468018",
          "tgn:1000004",
          "tgn:1000141",
          "tgn:7029392"
        ],
        "placetype": [
          "aat:300007836"
        ],
        "id": 7501299,
        "name:xx": "Wushi'erhao Qiao"
      }
    }
  ]
}
