{
  "type": "FeatureCollection",
  "features": [
    {
      "geometry": {
        "type": "Point",
        "coordinates": [
          75.5869,
          28.084
        ]
      },
      "type": "Feature",
      "properties": {
        "hierarchy": [
          "tgn:7582900",
          "tgn:1000004",
          "tgn:7000198",
          "tgn:7016788",
          "tgn:7029392"
        ],
        "placetype": [
          "aat:300008750"
        ],
        "name:en": "Kālti Bhar",
        "id": 7582900
      }
    },
    {
      "geometry": {
        "type": "Point",
        "coordinates": [
          75.50215,
          28.084284
        ]
      },
      "type": "Feature",
      "properties": {
        "hierarchy": [
          "tgn:7582901",
          "tgn:1000004",
          "tgn:7000198",
          "tgn:7016788",
          "tgn:7029392"
        ],
        "placetype": [
          "aat:300008347"
        ],
        "name:en": "Indāli",
        "id": 7582901
      }
    },
    {
      "geometry": {
        "type": "Point",
        "coordinates": [
          75.53498,
          28.092604
        ]
      },
      "type": "Feature",
      "properties": {
        "hierarchy": [
          "tgn:7582902",
          "tgn:1000004",
          "tgn:7000198",
          "tgn:7016788",
          "tgn:7029392"
        ],
        "placetype": [
          "aat:300008347"
        ],
        "name:en": "Brāhmonon Ki Dhāni",
        "id": 7582902
      }
    },
    {
      "geometry": {
        "type": "Point",
        "coordinates": [
          75.549918,
          28.092017
        ]
      },
      "type": "Feature",
      "properties": {
        "hierarchy": [
          "tgn:7582903",
          "tgn:1000004",
          "tgn:7000198",
          "tgn:7016788",
          "tgn:7029392"
        ],
        "placetype": [
          "aat:300008347"
        ],
        "name:en": "Bindāvan",
        "id": 7582903
      }
    },
    {
      "geometry": {
        "type": "Point",
        "coordinates": [
          75.585082,
          28.093292
        ]
      },
      "type": "Feature",
      "properties": {
        "hierarchy": [
          "tgn:7582904",
          "tgn:1000004",
          "tgn:7000198",
          "tgn:7016788",
          "tgn:7029392"
        ],
        "placetype": [
          "aat:300008347"
        ],
        "name:en": "Kāimpsar",
        "id": 7582904
      }
    },
    {
      "geometry": {
        "type": "Point",
        "coordinates": [
          75.604,
          28.089
        ]
      },
      "type": "Feature",
      "properties": {
        "hierarchy": [
          "tgn:7582905",
          "tgn:1000004",
          "tgn:7000198",
          "tgn:7016788",
          "tgn:7029392"
        ],
        "placetype": [
          "aat:300008688"
        ],
        "name:en": "Kaironwāla Johra",
        "id": 7582905
      }
    },
    {
      "geometry": {
        "type": "Point",
        "coordinates": [
          75.632628,
          28.086816
        ]
      },
      "type": "Feature",
      "properties": {
        "hierarchy": [
          "tgn:7582906",
          "tgn:1000004",
          "tgn:7000198",
          "tgn:7016788",
          "tgn:7029392"
        ],
        "placetype": [
          "aat:300008347"
        ],
        "name:en": "Shri Amarpura",
        "id": 7582906
      }
    },
    {
      "geometry": {
        "type": "Point",
        "coordinates": [
          75.6749,
          28.0912
        ]
      },
      "type": "Feature",
      "properties": {
        "hierarchy": [
          "tgn:7582907",
          "tgn:1000004",
          "tgn:7000198",
          "tgn:7016788",
          "tgn:7029392"
        ],
        "placetype": [
          "aat:300008347"
        ],
        "name:en": "Thicholi",
        "id": 7582907
      }
    },
    {
      "geometry": {
        "type": "Point",
        "coordinates": [
          75.6144,
          28.0982
        ]
      },
      "type": "Feature",
      "properties": {
        "hierarchy": [
          "tgn:7582908",
          "tgn:1000004",
          "tgn:7000198",
          "tgn:7016788",
          "tgn:7029392"
        ],
        "placetype": [
          "aat:300008347"
        ],
        "name:en": "Padampura",
        "id": 7582908
      }
    },
    {
      "geometry": {
        "type": "Point",
        "coordinates": [
          75.574895,
          28.103023
        ]
      },
      "type": "Feature",
      "properties": {
        "hierarchy": [
          "tgn:7582909",
          "tgn:1000004",
          "tgn:7000198",
          "tgn:7016788",
          "tgn:7029392"
        ],
        "placetype": [
          "aat:300008347"
        ],
        "name:en": "Matāna",
        "id": 7582909
      }
    }
  ]
}
