{
  "type": "FeatureCollection",
  "features": [
    {
      "geometry": {
        "type": "Point",
        "coordinates": [
          120.644732,
          22.711287
        ]
      },
      "type": "Feature",
      "properties": {
        "hierarchy": [
          "tgn:7481620",
          "tgn:1000004",
          "tgn:7492971",
          "tgn:1000141",
          "tgn:7029392"
        ],
        "placetype": [
          "aat:300007836"
        ],
        "id": 7481620,
        "name:xx": "Beimen Daqiao"
      }
    },
    {
      "geometry": {
        "type": "Point",
        "coordinates": [
          120.637084,
          22.685811
        ]
      },
      "type": "Feature",
      "properties": {
        "hierarchy": [
          "tgn:7481621",
          "tgn:1000004",
          "tgn:7492971",
          "tgn:1000141",
          "tgn:7029392"
        ],
        "placetype": [
          "aat:300007836"
        ],
        "id": 7481621,
        "name:xx": "Zhide Qiao"
      }
    },
    {
      "geometry": {
        "type": "Point",
        "coordinates": [
          120.655463,
          22.525528
        ]
      },
      "type": "Feature",
      "properties": {
        "hierarchy": [
          "tgn:7481622",
          "tgn:1000004",
          "tgn:7492971",
          "tgn:1000141",
          "tgn:7029392"
        ],
        "placetype": [
          "aat:300007836"
        ],
        "id": 7481622,
        "name:xx": "Laiyi Daqiao"
      }
    },
    {
      "geometry": {
        "type": "Point",
        "coordinates": [
          120.632025,
          22.520895
        ]
      },
      "type": "Feature",
      "properties": {
        "hierarchy": [
          "tgn:7481623",
          "tgn:1000004",
          "tgn:7492971",
          "tgn:1000141",
          "tgn:7029392"
        ],
        "placetype": [
          "aat:300007836"
        ],
        "id": 7481623,
        "name:xx": "Danlin Daqiao"
      }
    },
    {
      "geometry": {
        "type": "Point",
        "coordinates": [
          120.624277,
          22.529077
        ]
      },
      "type": "Feature",
      "properties": {
        "hierarchy": [
          "tgn:7481624",
          "tgn:1000004",
          "tgn:7492971",
          "tgn:1000141",
          "tgn:7029392"
        ],
        "placetype": [
          "aat:300007836"
        ],
        "id": 7481624,
        "name:xx": "Xinzhi Qiao"
      }
    },
    {
      "geometry": {
        "type": "Point",
        "coordinates": [
          120.620322,
          22.560707
        ]
      },
      "type": "Feature",
      "properties": {
        "hierarchy": [
          "tgn:7481625",
          "tgn:1000004",
          "tgn:7492971",
          "tgn:1000141",
          "tgn:7029392"
        ],
        "placetype": [
          "aat:300007836"
        ],
        "id": 7481625,
        "name:xx": "Nanshihu Qiao"
      }
    },
    {
      "geometry": {
        "type": "Point",
        "coordinates": [
          120.586236,
          22.560763
        ]
      },
      "type": "Feature",
      "properties": {
        "hierarchy": [
          "tgn:7481626",
          "tgn:1000004",
          "tgn:7492971",
          "tgn:1000141",
          "tgn:7029392"
        ],
        "placetype": [
          "aat:300007836"
        ],
        "id": 7481626,
        "name:xx": "Jianyue Qiao"
      }
    },
    {
      "geometry": {
        "type": "Point",
        "coordinates": [
          120.539706,
          22.564301
        ]
      },
      "type": "Feature",
      "properties": {
        "hierarchy": [
          "tgn:7481627",
          "tgn:1000004",
          "tgn:7492971",
          "tgn:1000141",
          "tgn:7029392"
        ],
        "placetype": [
          "aat:300007836"
        ],
        "id": 7481627,
        "name:xx": "Chaozhou Daqiao"
      }
    },
    {
      "geometry": {
        "type": "Point",
        "coordinates": [
          120.526817,
          22.565775
        ]
      },
      "type": "Feature",
      "properties": {
        "hierarchy": [
          "tgn:7481628",
          "tgn:1000004",
          "tgn:7492971",
          "tgn:1000141",
          "tgn:7029392"
        ],
        "placetype": [
          "aat:300007836"
        ],
        "id": 7481628,
        "name:xx": "Wukui Qiao"
      }
    },
    {
      "geometry": {
        "type": "Point",
        "coordinates": [
          120.544403,
          22.567688
        ]
      },
      "type": "Feature",
      "properties": {
        "hierarchy": [
          "tgn:7481629",
          "tgn:1000004",
          "tgn:7492971",
          "tgn:1000141",
          "tgn:7029392"
        ],
        "placetype": [
          "aat:300007836"
        ],
        "id": 7481629,
        "name:xx": "Xinchaozhou Daqiao"
      }
    }
  ]
}
