{
  "type": "FeatureCollection",
  "features": [
    {
      "geometry": {
        "type": "Point",
        "coordinates": [
          120.481944,
          24.141944
        ]
      },
      "type": "Feature",
      "properties": {
        "hierarchy": [
          "tgn:7501190",
          "tgn:1000004",
          "tgn:7467799",
          "tgn:1000141",
          "tgn:7029392"
        ],
        "placetype": [
          "aat:300008347"
        ],
        "id": 7501190,
        "name:xx": "Xiazhuang"
      }
    },
    {
      "geometry": {
        "type": "Point",
        "coordinates": [
          120.501667,
          24.140278
        ]
      },
      "type": "Feature",
      "properties": {
        "hierarchy": [
          "tgn:7501191",
          "tgn:1000004",
          "tgn:7467799",
          "tgn:1000141",
          "tgn:7029392"
        ],
        "placetype": [
          "aat:300008347"
        ],
        "id": 7501191,
        "name:xx": "Zhenxia"
      }
    },
    {
      "geometry": {
        "type": "Point",
        "coordinates": [
          120.503611,
          24.141944
        ]
      },
      "type": "Feature",
      "properties": {
        "hierarchy": [
          "tgn:7501192",
          "tgn:1000004",
          "tgn:7467799",
          "tgn:1000141",
          "tgn:7029392"
        ],
        "placetype": [
          "aat:300008347"
        ],
        "id": 7501192,
        "name:xx": "Dongzhuwei"
      }
    },
    {
      "geometry": {
        "type": "Point",
        "coordinates": [
          120.472778,
          24.146389
        ]
      },
      "type": "Feature",
      "properties": {
        "hierarchy": [
          "tgn:7501193",
          "tgn:1000004",
          "tgn:7467799",
          "tgn:1000141",
          "tgn:7029392"
        ],
        "placetype": [
          "aat:300008347"
        ],
        "id": 7501193,
        "name:xx": "Xikoucuo"
      }
    },
    {
      "geometry": {
        "type": "Point",
        "coordinates": [
          120.49,
          24.056111
        ]
      },
      "type": "Feature",
      "properties": {
        "hierarchy": [
          "tgn:7501194",
          "tgn:1000004",
          "tgn:7467799",
          "tgn:1000141",
          "tgn:7029392"
        ],
        "placetype": [
          "aat:300008347"
        ],
        "id": 7501194,
        "name:xx": "Shangzhuwei"
      }
    },
    {
      "geometry": {
        "type": "Point",
        "coordinates": [
          120.491667,
          24.051944
        ]
      },
      "type": "Feature",
      "properties": {
        "hierarchy": [
          "tgn:7501195",
          "tgn:1000004",
          "tgn:7467799",
          "tgn:1000141",
          "tgn:7029392"
        ],
        "placetype": [
          "aat:300008347"
        ],
        "id": 7501195,
        "name:xx": "Xiazhuwei"
      }
    },
    {
      "geometry": {
        "type": "Point",
        "coordinates": [
          120.468889,
          24.0625
        ]
      },
      "type": "Feature",
      "properties": {
        "hierarchy": [
          "tgn:7501196",
          "tgn:1000004",
          "tgn:7467799",
          "tgn:1000141",
          "tgn:7029392"
        ],
        "placetype": [
          "aat:300008347"
        ],
        "id": 7501196,
        "name:xx": "Shibeixiang"
      }
    },
    {
      "geometry": {
        "type": "Point",
        "coordinates": [
          120.489444,
          24.0775
        ]
      },
      "type": "Feature",
      "properties": {
        "hierarchy": [
          "tgn:7501197",
          "tgn:1000004",
          "tgn:7467799",
          "tgn:1000141",
          "tgn:7029392"
        ],
        "placetype": [
          "aat:300008347"
        ],
        "id": 7501197,
        "name:xx": "Gouwei"
      }
    },
    {
      "geometry": {
        "type": "Point",
        "coordinates": [
          120.447778,
          24.0525
        ]
      },
      "type": "Feature",
      "properties": {
        "hierarchy": [
          "tgn:7501198",
          "tgn:1000004",
          "tgn:7467799",
          "tgn:1000141",
          "tgn:7029392"
        ],
        "placetype": [
          "aat:300008347"
        ],
        "id": 7501198,
        "name:xx": "Houbu"
      }
    },
    {
      "geometry": {
        "type": "Point",
        "coordinates": [
          120.380556,
          24.024167
        ]
      },
      "type": "Feature",
      "properties": {
        "hierarchy": [
          "tgn:7501199",
          "tgn:1000004",
          "tgn:7467799",
          "tgn:1000141",
          "tgn:7029392"
        ],
        "placetype": [
          "aat:300008347"
        ],
        "id": 7501199,
        "name:xx": "Xiahanbao"
      }
    }
  ]
}
