{
  "type": "FeatureCollection",
  "features": [
    {
      "geometry": {
        "type": "Point",
        "coordinates": [
          12.119722,
          47.845278
        ]
      },
      "type": "Feature",
      "properties": {
        "hierarchy": [
          "tgn:7077290",
          "tgn:7003669",
          "tgn:1000003",
          "tgn:7000084",
          "tgn:7029392"
        ],
        "placetype": [
          "aat:300387198"
        ],
        "id": 7077290,
        "name:xx": "Landkreis Rosenheim"
      }
    },
    {
      "geometry": {
        "type": "Point",
        "coordinates": [
          11.642222,
          48.051389
        ]
      },
      "type": "Feature",
      "properties": {
        "hierarchy": [
          "tgn:7077292",
          "tgn:7003669",
          "tgn:1000003",
          "tgn:7000084",
          "tgn:7029392"
        ],
        "placetype": [
          "aat:300387198"
        ],
        "id": 7077292,
        "name:xx": "Landkreis M체nchen"
      }
    },
    {
      "geometry": {
        "type": "Point",
        "coordinates": [
          11.548056,
          48.153889
        ]
      },
      "type": "Feature",
      "properties": {
        "hierarchy": [
          "tgn:7077293",
          "tgn:7003669",
          "tgn:1000003",
          "tgn:7000084",
          "tgn:7029392"
        ],
        "placetype": [
          "aat:300387198"
        ],
        "id": 7077293,
        "name:xx": "Kreisfreie Stadt M체nchen"
      }
    },
    {
      "geometry": {
        "type": "Point",
        "coordinates": [
          12.412778,
          48.230278
        ]
      },
      "type": "Feature",
      "properties": {
        "hierarchy": [
          "tgn:7077294",
          "tgn:7003669",
          "tgn:1000003",
          "tgn:7000084",
          "tgn:7029392"
        ],
        "placetype": [
          "aat:300387198"
        ],
        "id": 7077294,
        "name:xx": "Landkreis M체hldorf am Inn"
      }
    },
    {
      "geometry": {
        "type": "Point",
        "coordinates": [
          11.816111,
          47.771667
        ]
      },
      "type": "Feature",
      "properties": {
        "hierarchy": [
          "tgn:7077295",
          "tgn:7003669",
          "tgn:1000003",
          "tgn:7000084",
          "tgn:7029392"
        ],
        "placetype": [
          "aat:300387198"
        ],
        "id": 7077295,
        "name:xx": "Landkreis Miesbach"
      }
    },
    {
      "geometry": {
        "type": "Point",
        "coordinates": [
          10.971389,
          48.038889
        ]
      },
      "type": "Feature",
      "properties": {
        "hierarchy": [
          "tgn:7077296",
          "tgn:7003669",
          "tgn:1000003",
          "tgn:7000084",
          "tgn:7029392"
        ],
        "placetype": [
          "aat:300387198"
        ],
        "id": 7077296,
        "name:xx": "Landkreis Landsberg am Lech"
      }
    },
    {
      "geometry": {
        "type": "Point",
        "coordinates": [
          11.408889,
          48.760278
        ]
      },
      "type": "Feature",
      "properties": {
        "hierarchy": [
          "tgn:7077297",
          "tgn:7003669",
          "tgn:1000003",
          "tgn:7000084",
          "tgn:7029392"
        ],
        "placetype": [
          "aat:300387198"
        ],
        "id": 7077297,
        "name:xx": "Kreisfreie Stadt Ingolstadt"
      }
    },
    {
      "geometry": {
        "type": "Point",
        "coordinates": [
          11.735,
          48.440833
        ]
      },
      "type": "Feature",
      "properties": {
        "hierarchy": [
          "tgn:7077298",
          "tgn:7003669",
          "tgn:1000003",
          "tgn:7000084",
          "tgn:7029392"
        ],
        "placetype": [
          "aat:300387198"
        ],
        "id": 7077298,
        "name:xx": "Landkreis Freising"
      }
    },
    {
      "geometry": {
        "type": "Point",
        "coordinates": [
          11.375278,
          48.909167
        ]
      },
      "type": "Feature",
      "properties": {
        "hierarchy": [
          "tgn:7077299",
          "tgn:7003669",
          "tgn:1000003",
          "tgn:7000084",
          "tgn:7029392"
        ],
        "placetype": [
          "aat:300387198"
        ],
        "id": 7077299,
        "name:xx": "Landkreis Eichst채tt"
      }
    }
  ]
}
