{
  "type": "FeatureCollection",
  "features": [
    {
      "geometry": {
        "type": "Point",
        "coordinates": [
          77.814522,
          30.095962
        ]
      },
      "type": "Feature",
      "properties": {
        "hierarchy": [
          "tgn:7592560",
          "tgn:1000004",
          "tgn:7000198",
          "tgn:7016722",
          "tgn:7029392"
        ],
        "placetype": [
          "aat:300008347"
        ],
        "name:en": "Dāmodarabād",
        "id": 7592560
      }
    },
    {
      "geometry": {
        "type": "Point",
        "coordinates": [
          77.80804,
          30.091354
        ]
      },
      "type": "Feature",
      "properties": {
        "hierarchy": [
          "tgn:7592561",
          "tgn:1000004",
          "tgn:7000198",
          "tgn:7016722",
          "tgn:7029392"
        ],
        "placetype": [
          "aat:300008347"
        ],
        "name:en": "Amānatgarh",
        "id": 7592561
      }
    },
    {
      "geometry": {
        "type": "Point",
        "coordinates": [
          77.778429,
          30.091131
        ]
      },
      "type": "Feature",
      "properties": {
        "hierarchy": [
          "tgn:7592562",
          "tgn:1000004",
          "tgn:7000198",
          "tgn:7016722",
          "tgn:7029392"
        ],
        "placetype": [
          "aat:300008347"
        ],
        "name:en": "Chānchak",
        "id": 7592562
      }
    },
    {
      "geometry": {
        "type": "Point",
        "coordinates": [
          77.756771,
          30.097314
        ]
      },
      "type": "Feature",
      "properties": {
        "hierarchy": [
          "tgn:7592563",
          "tgn:1000004",
          "tgn:7000198",
          "tgn:7016722",
          "tgn:7029392"
        ],
        "placetype": [
          "aat:300008347"
        ],
        "name:en": "Aurangābad",
        "id": 7592563
      }
    },
    {
      "geometry": {
        "type": "Point",
        "coordinates": [
          74.594023,
          28.19136
        ]
      },
      "type": "Feature",
      "properties": {
        "hierarchy": [
          "tgn:7592564",
          "tgn:1000004",
          "tgn:7000198",
          "tgn:7016788",
          "tgn:7029392"
        ],
        "placetype": [
          "aat:300008347"
        ],
        "name:en": "Chainpura",
        "id": 7592564
      }
    },
    {
      "geometry": {
        "type": "Point",
        "coordinates": [
          74.651766,
          28.132231
        ]
      },
      "type": "Feature",
      "properties": {
        "hierarchy": [
          "tgn:7592565",
          "tgn:1000004",
          "tgn:7000198",
          "tgn:7016788",
          "tgn:7029392"
        ],
        "placetype": [
          "aat:300008688"
        ],
        "name:en": "Tākarna Johri",
        "id": 7592565
      }
    },
    {
      "geometry": {
        "type": "Point",
        "coordinates": [
          74.703975,
          28.027592
        ]
      },
      "type": "Feature",
      "properties": {
        "hierarchy": [
          "tgn:7592566",
          "tgn:1000004",
          "tgn:7000198",
          "tgn:7016788",
          "tgn:7029392"
        ],
        "placetype": [
          "aat:300008688"
        ],
        "name:en": "Somānri ki Johri",
        "id": 7592566
      }
    },
    {
      "geometry": {
        "type": "Point",
        "coordinates": [
          74.680287,
          28.157952
        ]
      },
      "type": "Feature",
      "properties": {
        "hierarchy": [
          "tgn:7592567",
          "tgn:1000004",
          "tgn:7000198",
          "tgn:7016788",
          "tgn:7029392"
        ],
        "placetype": [
          "aat:300008688"
        ],
        "name:en": "Renāna Johri",
        "id": 7592567
      }
    },
    {
      "geometry": {
        "type": "Point",
        "coordinates": [
          74.637773,
          28.142024
        ]
      },
      "type": "Feature",
      "properties": {
        "hierarchy": [
          "tgn:7592568",
          "tgn:1000004",
          "tgn:7000198",
          "tgn:7016788",
          "tgn:7029392"
        ],
        "placetype": [
          "aat:300008688"
        ],
        "name:en": "Raina Johri",
        "id": 7592568
      }
    },
    {
      "geometry": {
        "type": "Point",
        "coordinates": [
          74.512621,
          28.043795
        ]
      },
      "type": "Feature",
      "properties": {
        "hierarchy": [
          "tgn:7592569",
          "tgn:1000004",
          "tgn:7000198",
          "tgn:7016788",
          "tgn:7029392"
        ],
        "placetype": [
          "aat:300008688"
        ],
        "name:en": "Rājāna Johri",
        "id": 7592569
      }
    }
  ]
}
