{
  "type": "FeatureCollection",
  "features": [
    {
      "geometry": {
        "type": "Point",
        "coordinates": [
          75.7237,
          26.8009
        ]
      },
      "type": "Feature",
      "properties": {
        "hierarchy": [
          "tgn:7560570",
          "tgn:1000004",
          "tgn:7000198",
          "tgn:7016788",
          "tgn:7029392"
        ],
        "placetype": [
          "aat:300008865"
        ],
        "name:en": "Muhāna Reserve Forest",
        "id": 7560570
      }
    },
    {
      "geometry": {
        "type": "Point",
        "coordinates": [
          75.722147,
          26.814885
        ]
      },
      "type": "Feature",
      "properties": {
        "hierarchy": [
          "tgn:7560571",
          "tgn:1000004",
          "tgn:7000198",
          "tgn:7016788",
          "tgn:7029392"
        ],
        "placetype": [
          "aat:300008347"
        ],
        "name:en": "Mandāu",
        "id": 7560571
      }
    },
    {
      "geometry": {
        "type": "Point",
        "coordinates": [
          75.682863,
          26.802412
        ]
      },
      "type": "Feature",
      "properties": {
        "hierarchy": [
          "tgn:7560572",
          "tgn:1000004",
          "tgn:7000198",
          "tgn:7016788",
          "tgn:7029392"
        ],
        "placetype": [
          "aat:300008680"
        ],
        "name:en": "Nevata Talāv",
        "id": 7560572
      }
    },
    {
      "geometry": {
        "type": "Point",
        "coordinates": [
          75.608954,
          26.797606
        ]
      },
      "type": "Feature",
      "properties": {
        "hierarchy": [
          "tgn:7560573",
          "tgn:1000004",
          "tgn:7000198",
          "tgn:7016788",
          "tgn:7029392"
        ],
        "placetype": [
          "aat:300008347"
        ],
        "name:en": "Dādiya",
        "id": 7560573
      }
    },
    {
      "geometry": {
        "type": "Point",
        "coordinates": [
          75.595763,
          26.79809
        ]
      },
      "type": "Feature",
      "properties": {
        "hierarchy": [
          "tgn:7560574",
          "tgn:1000004",
          "tgn:7000198",
          "tgn:7016788",
          "tgn:7029392"
        ],
        "placetype": [
          "aat:300008347"
        ],
        "name:en": "Pālri",
        "id": 7560574
      }
    },
    {
      "geometry": {
        "type": "Point",
        "coordinates": [
          75.51959,
          26.76473
        ]
      },
      "type": "Feature",
      "properties": {
        "hierarchy": [
          "tgn:7560575",
          "tgn:1000004",
          "tgn:7000198",
          "tgn:7016788",
          "tgn:7029392"
        ],
        "placetype": [
          "aat:300008347"
        ],
        "name:en": "Rāmpura",
        "id": 7560575
      }
    },
    {
      "geometry": {
        "type": "Point",
        "coordinates": [
          75.572779,
          26.798341
        ]
      },
      "type": "Feature",
      "properties": {
        "hierarchy": [
          "tgn:7560576",
          "tgn:1000004",
          "tgn:7000198",
          "tgn:7016788",
          "tgn:7029392"
        ],
        "placetype": [
          "aat:300008347"
        ],
        "name:en": "Chirota",
        "id": 7560576
      }
    },
    {
      "geometry": {
        "type": "Point",
        "coordinates": [
          79.184268,
          26.75733
        ]
      },
      "type": "Feature",
      "properties": {
        "hierarchy": [
          "tgn:7560577",
          "tgn:1000004",
          "tgn:7000198",
          "tgn:7016722",
          "tgn:7029392"
        ],
        "placetype": [
          "aat:300008347"
        ],
        "name:en": "Sīpura",
        "id": 7560577
      }
    },
    {
      "geometry": {
        "type": "Point",
        "coordinates": [
          79.207453,
          26.753242
        ]
      },
      "type": "Feature",
      "properties": {
        "hierarchy": [
          "tgn:7560578",
          "tgn:1000004",
          "tgn:7000198",
          "tgn:7016722",
          "tgn:7029392"
        ],
        "placetype": [
          "aat:300008347"
        ],
        "name:en": "Nagru ka Nagla",
        "id": 7560578
      }
    },
    {
      "geometry": {
        "type": "Point",
        "coordinates": [
          79.202151,
          26.75959
        ]
      },
      "type": "Feature",
      "properties": {
        "hierarchy": [
          "tgn:7560579",
          "tgn:1000004",
          "tgn:7000198",
          "tgn:7016722",
          "tgn:7029392"
        ],
        "placetype": [
          "aat:300008347"
        ],
        "name:en": "Rāja ka Nagla",
        "id": 7560579
      }
    }
  ]
}
