{
  "type": "FeatureCollection",
  "features": [
    {
      "geometry": {
        "type": "Point",
        "coordinates": [
          120.355283,
          23.753007
        ]
      },
      "type": "Feature",
      "properties": {
        "hierarchy": [
          "tgn:7488600",
          "tgn:1000004",
          "tgn:7001014",
          "tgn:1000141",
          "tgn:7029392"
        ],
        "placetype": [
          "aat:300008347"
        ],
        "id": 7488600,
        "name:xx": "Lunqiancuo"
      }
    },
    {
      "geometry": {
        "type": "Point",
        "coordinates": [
          120.3503,
          23.754396
        ]
      },
      "type": "Feature",
      "properties": {
        "hierarchy": [
          "tgn:7488601",
          "tgn:1000004",
          "tgn:7001014",
          "tgn:1000141",
          "tgn:7029392"
        ],
        "placetype": [
          "aat:300008347"
        ],
        "id": 7488601,
        "name:xx": "Lunqian"
      }
    },
    {
      "geometry": {
        "type": "Point",
        "coordinates": [
          121.162418,
          25.020137
        ]
      },
      "type": "Feature",
      "properties": {
        "hierarchy": [
          "tgn:7488602",
          "tgn:1000004",
          "tgn:7001013",
          "tgn:1000141",
          "tgn:7029392"
        ],
        "placetype": [
          "aat:300008347"
        ],
        "id": 7488602,
        "name:xx": "Lunjiao"
      }
    },
    {
      "geometry": {
        "type": "Point",
        "coordinates": [
          120.363397,
          23.969613
        ]
      },
      "type": "Feature",
      "properties": {
        "hierarchy": [
          "tgn:7488603",
          "tgn:1000004",
          "tgn:7467799",
          "tgn:1000141",
          "tgn:7029392"
        ],
        "placetype": [
          "aat:300008347"
        ],
        "id": 7488603,
        "name:xx": "Lunjiao"
      }
    },
    {
      "geometry": {
        "type": "Point",
        "coordinates": [
          120.496421,
          23.947522
        ]
      },
      "type": "Feature",
      "properties": {
        "hierarchy": [
          "tgn:7488604",
          "tgn:1000004",
          "tgn:7467799",
          "tgn:1000141",
          "tgn:7029392"
        ],
        "placetype": [
          "aat:300008347"
        ],
        "id": 7488604,
        "name:xx": "Lunzijiao"
      }
    },
    {
      "geometry": {
        "type": "Point",
        "coordinates": [
          120.3736,
          23.64438
        ]
      },
      "type": "Feature",
      "properties": {
        "hierarchy": [
          "tgn:7488605",
          "tgn:1000004",
          "tgn:7001014",
          "tgn:1000141",
          "tgn:7029392"
        ],
        "placetype": [
          "aat:300008347"
        ],
        "id": 7488605,
        "name:xx": "Luliao"
      }
    },
    {
      "geometry": {
        "type": "Point",
        "coordinates": [
          121.381714,
          23.479574
        ]
      },
      "type": "Feature",
      "properties": {
        "hierarchy": [
          "tgn:7488606",
          "tgn:7001010",
          "tgn:1000004",
          "tgn:1000141",
          "tgn:7029392"
        ],
        "placetype": [
          "aat:300008347"
        ],
        "id": 7488606,
        "name:xx": "Lumozi"
      }
    },
    {
      "geometry": {
        "type": "Point",
        "coordinates": [
          121.445556,
          24.523333
        ]
      },
      "type": "Feature",
      "properties": {
        "hierarchy": [
          "tgn:7488607",
          "tgn:1000004",
          "tgn:7489179",
          "tgn:1000141",
          "tgn:7029392"
        ],
        "placetype": [
          "aat:300008699"
        ],
        "id": 7488607,
        "name:xx": "Liumao'an Xi"
      }
    },
    {
      "geometry": {
        "type": "Point",
        "coordinates": [
          121.140278,
          24.851667
        ]
      },
      "type": "Feature",
      "properties": {
        "hierarchy": [
          "tgn:7488608",
          "tgn:1000004",
          "tgn:7471332",
          "tgn:1000141",
          "tgn:7029392"
        ],
        "placetype": [
          "aat:300008347"
        ],
        "id": 7488608,
        "name:xx": "Lumingkeng"
      }
    },
    {
      "geometry": {
        "type": "Point",
        "coordinates": [
          121.079722,
          24.885833
        ]
      },
      "type": "Feature",
      "properties": {
        "hierarchy": [
          "tgn:7488609",
          "tgn:1000004",
          "tgn:7471332",
          "tgn:1000141",
          "tgn:7029392"
        ],
        "placetype": [
          "aat:300007836"
        ],
        "id": 7488609,
        "name:xx": "Luming Qiao"
      }
    }
  ]
}
