{
  "type": "FeatureCollection",
  "features": [
    {
      "geometry": {
        "type": "Point",
        "coordinates": [
          78.853719,
          24.829365
        ]
      },
      "type": "Feature",
      "properties": {
        "hierarchy": [
          "tgn:7584360",
          "tgn:1000004",
          "tgn:7000198",
          "tgn:1001894",
          "tgn:7029392"
        ],
        "placetype": [
          "aat:300008347"
        ],
        "name:en": "Tapariyān",
        "id": 7584360
      }
    },
    {
      "geometry": {
        "type": "Point",
        "coordinates": [
          78.836432,
          24.833914
        ]
      },
      "type": "Feature",
      "properties": {
        "hierarchy": [
          "tgn:7584361",
          "tgn:1000004",
          "tgn:7000198",
          "tgn:1001894",
          "tgn:7029392"
        ],
        "placetype": [
          "aat:300008347"
        ],
        "name:en": "Bāweri",
        "id": 7584361
      }
    },
    {
      "geometry": {
        "type": "Point",
        "coordinates": [
          78.861855,
          24.81071
        ]
      },
      "type": "Feature",
      "properties": {
        "hierarchy": [
          "tgn:7584362",
          "tgn:1000004",
          "tgn:7000198",
          "tgn:1001894",
          "tgn:7029392"
        ],
        "placetype": [
          "aat:300008347"
        ],
        "name:en": "Gopālpur",
        "id": 7584362
      }
    },
    {
      "geometry": {
        "type": "Point",
        "coordinates": [
          78.855856,
          24.811077
        ]
      },
      "type": "Feature",
      "properties": {
        "hierarchy": [
          "tgn:7584363",
          "tgn:1000004",
          "tgn:7000198",
          "tgn:1001894",
          "tgn:7029392"
        ],
        "placetype": [
          "aat:300008347"
        ],
        "name:en": "Amarpur",
        "id": 7584363
      }
    },
    {
      "geometry": {
        "type": "Point",
        "coordinates": [
          78.843036,
          24.801413
        ]
      },
      "type": "Feature",
      "properties": {
        "hierarchy": [
          "tgn:7584364",
          "tgn:1000004",
          "tgn:7000198",
          "tgn:1001894",
          "tgn:7029392"
        ],
        "placetype": [
          "aat:300008347"
        ],
        "name:en": "Barāgaon Khurd",
        "id": 7584364
      }
    },
    {
      "geometry": {
        "type": "Point",
        "coordinates": [
          78.833698,
          24.786456
        ]
      },
      "type": "Feature",
      "properties": {
        "hierarchy": [
          "tgn:7584365",
          "tgn:1000004",
          "tgn:7000198",
          "tgn:1001894",
          "tgn:7029392"
        ],
        "placetype": [
          "aat:300008347"
        ],
        "name:en": "Anantpura",
        "id": 7584365
      }
    },
    {
      "geometry": {
        "type": "Point",
        "coordinates": [
          78.827748,
          24.790127
        ]
      },
      "type": "Feature",
      "properties": {
        "hierarchy": [
          "tgn:7584366",
          "tgn:1000004",
          "tgn:7000198",
          "tgn:1001894",
          "tgn:7029392"
        ],
        "placetype": [
          "aat:300008347"
        ],
        "name:en": "Takha",
        "id": 7584366
      }
    },
    {
      "geometry": {
        "type": "Point",
        "coordinates": [
          78.821664,
          24.812284
        ]
      },
      "type": "Feature",
      "properties": {
        "hierarchy": [
          "tgn:7584367",
          "tgn:1000004",
          "tgn:7000198",
          "tgn:1001894",
          "tgn:7029392"
        ],
        "placetype": [
          "aat:300008347"
        ],
        "name:en": "Pahāri Khurd",
        "id": 7584367
      }
    },
    {
      "geometry": {
        "type": "Point",
        "coordinates": [
          78.827107,
          24.832557
        ]
      },
      "type": "Feature",
      "properties": {
        "hierarchy": [
          "tgn:7584368",
          "tgn:1000004",
          "tgn:7000198",
          "tgn:1001894",
          "tgn:7029392"
        ],
        "placetype": [
          "aat:300008347"
        ],
        "name:en": "Hīrānagar",
        "id": 7584368
      }
    },
    {
      "geometry": {
        "type": "Point",
        "coordinates": [
          78.790147,
          24.810636
        ]
      },
      "type": "Feature",
      "properties": {
        "hierarchy": [
          "tgn:7584369",
          "tgn:1000004",
          "tgn:7000198",
          "tgn:1001894",
          "tgn:7029392"
        ],
        "placetype": [
          "aat:300008699"
        ],
        "name:en": "Banbayār Nāla",
        "id": 7584369
      }
    }
  ]
}
