{
  "type": "FeatureCollection",
  "features": [
    {
      "geometry": {
        "type": "Point",
        "coordinates": [
          120.705556,
          23.710278
        ]
      },
      "type": "Feature",
      "properties": {
        "hierarchy": [
          "tgn:7485490",
          "tgn:7488858",
          "tgn:1000004",
          "tgn:1000141",
          "tgn:7029392"
        ],
        "placetype": [
          "aat:300008347"
        ],
        "id": 7485490,
        "name:xx": "Lingjiao"
      }
    },
    {
      "geometry": {
        "type": "Point",
        "coordinates": [
          120.721944,
          23.679722
        ]
      },
      "type": "Feature",
      "properties": {
        "hierarchy": [
          "tgn:7485491",
          "tgn:7488858",
          "tgn:1000004",
          "tgn:1000141",
          "tgn:7029392"
        ],
        "placetype": [
          "aat:300008798"
        ],
        "id": 7485491,
        "name:xx": "Tianzi Shan"
      }
    },
    {
      "geometry": {
        "type": "Point",
        "coordinates": [
          120.728611,
          23.684722
        ]
      },
      "type": "Feature",
      "properties": {
        "hierarchy": [
          "tgn:7485492",
          "tgn:7488858",
          "tgn:1000004",
          "tgn:1000141",
          "tgn:7029392"
        ],
        "placetype": [
          "aat:300008347"
        ],
        "id": 7485492,
        "name:xx": "Longwei"
      }
    },
    {
      "geometry": {
        "type": "Point",
        "coordinates": [
          120.7425,
          23.679167
        ]
      },
      "type": "Feature",
      "properties": {
        "hierarchy": [
          "tgn:7485493",
          "tgn:7488858",
          "tgn:1000004",
          "tgn:1000141",
          "tgn:7029392"
        ],
        "placetype": [
          "aat:300008347"
        ],
        "id": 7485493,
        "name:xx": "Shiganghu"
      }
    },
    {
      "geometry": {
        "type": "Point",
        "coordinates": [
          120.753889,
          23.678056
        ]
      },
      "type": "Feature",
      "properties": {
        "hierarchy": [
          "tgn:7485494",
          "tgn:7488858",
          "tgn:1000004",
          "tgn:1000141",
          "tgn:7029392"
        ],
        "placetype": [
          "aat:300008347"
        ],
        "id": 7485494,
        "name:xx": "Minzhongping"
      }
    },
    {
      "geometry": {
        "type": "Point",
        "coordinates": [
          120.753611,
          23.698611
        ]
      },
      "type": "Feature",
      "properties": {
        "hierarchy": [
          "tgn:7485495",
          "tgn:7488858",
          "tgn:1000004",
          "tgn:1000141",
          "tgn:7029392"
        ],
        "placetype": [
          "aat:300007836"
        ],
        "id": 7485495,
        "name:xx": "Zhuxing Qiao"
      }
    },
    {
      "geometry": {
        "type": "Point",
        "coordinates": [
          120.723333,
          23.708611
        ]
      },
      "type": "Feature",
      "properties": {
        "hierarchy": [
          "tgn:7485496",
          "tgn:7488858",
          "tgn:1000004",
          "tgn:1000141",
          "tgn:7029392"
        ],
        "placetype": [
          "aat:300008347"
        ],
        "id": 7485496,
        "name:xx": "Bengshanping"
      }
    },
    {
      "geometry": {
        "type": "Point",
        "coordinates": [
          120.723611,
          23.714444
        ]
      },
      "type": "Feature",
      "properties": {
        "hierarchy": [
          "tgn:7485497",
          "tgn:7488858",
          "tgn:1000004",
          "tgn:1000141",
          "tgn:7029392"
        ],
        "placetype": [
          "aat:300008347"
        ],
        "id": 7485497,
        "name:xx": "Routonghu"
      }
    },
    {
      "geometry": {
        "type": "Point",
        "coordinates": [
          120.743889,
          23.718889
        ]
      },
      "type": "Feature",
      "properties": {
        "hierarchy": [
          "tgn:7485498",
          "tgn:7488858",
          "tgn:1000004",
          "tgn:1000141",
          "tgn:7029392"
        ],
        "placetype": [
          "aat:300008347"
        ],
        "id": 7485498,
        "name:xx": "Henglu"
      }
    },
    {
      "geometry": {
        "type": "Point",
        "coordinates": [
          120.718333,
          23.735
        ]
      },
      "type": "Feature",
      "properties": {
        "hierarchy": [
          "tgn:7485499",
          "tgn:7488858",
          "tgn:1000004",
          "tgn:1000141",
          "tgn:7029392"
        ],
        "placetype": [
          "aat:300008798"
        ],
        "id": 7485499,
        "name:xx": "Sunzilin Shan"
      }
    }
  ]
}
