{
  "type": "FeatureCollection",
  "features": [
    {
      "geometry": {
        "type": "Point",
        "coordinates": [
          79.01369,
          24.601164
        ]
      },
      "type": "Feature",
      "properties": {
        "hierarchy": [
          "tgn:7566060",
          "tgn:1000004",
          "tgn:7000198",
          "tgn:1001894",
          "tgn:7029392"
        ],
        "placetype": [
          "aat:300008347"
        ],
        "name:en": "Bhadora",
        "id": 7566060
      }
    },
    {
      "geometry": {
        "type": "Point",
        "coordinates": [
          79.061251,
          24.608142
        ]
      },
      "type": "Feature",
      "properties": {
        "hierarchy": [
          "tgn:7566061",
          "tgn:1000004",
          "tgn:7000198",
          "tgn:1001894",
          "tgn:7029392"
        ],
        "placetype": [
          "aat:300266554",
          "aat:300008699"
        ],
        "name:en": "Narosa Nāla",
        "id": 7566061
      }
    },
    {
      "geometry": {
        "type": "Point",
        "coordinates": [
          79.017391,
          24.623084
        ]
      },
      "type": "Feature",
      "properties": {
        "hierarchy": [
          "tgn:7566062",
          "tgn:1000004",
          "tgn:7000198",
          "tgn:1001894",
          "tgn:7029392"
        ],
        "placetype": [
          "aat:300008347"
        ],
        "name:en": "Parākhās",
        "id": 7566062
      }
    },
    {
      "geometry": {
        "type": "Point",
        "coordinates": [
          79.021888,
          24.620784
        ]
      },
      "type": "Feature",
      "properties": {
        "hierarchy": [
          "tgn:7566063",
          "tgn:1000004",
          "tgn:7000198",
          "tgn:1001894",
          "tgn:7029392"
        ],
        "placetype": [
          "aat:300008795"
        ],
        "name:en": "Dargawa",
        "id": 7566063
      }
    },
    {
      "geometry": {
        "type": "Point",
        "coordinates": [
          79.036294,
          24.621593
        ]
      },
      "type": "Feature",
      "properties": {
        "hierarchy": [
          "tgn:7566064",
          "tgn:1000004",
          "tgn:7000198",
          "tgn:1001894",
          "tgn:7029392"
        ],
        "placetype": [
          "aat:300008347"
        ],
        "name:en": "Dundāthora",
        "id": 7566064
      }
    },
    {
      "geometry": {
        "type": "Point",
        "coordinates": [
          79.048888,
          24.615864
        ]
      },
      "type": "Feature",
      "properties": {
        "hierarchy": [
          "tgn:7566065",
          "tgn:1000004",
          "tgn:7000198",
          "tgn:1001894",
          "tgn:7029392"
        ],
        "placetype": [
          "aat:300008347"
        ],
        "name:en": "Magrākhera",
        "id": 7566065
      }
    },
    {
      "geometry": {
        "type": "Point",
        "coordinates": [
          79.075181,
          24.60272
        ]
      },
      "type": "Feature",
      "properties": {
        "hierarchy": [
          "tgn:7566066",
          "tgn:1000004",
          "tgn:7000198",
          "tgn:1001894",
          "tgn:7029392"
        ],
        "placetype": [
          "aat:300008865"
        ],
        "name:en": "Sorkhi Reserved Forest",
        "id": 7566066
      }
    },
    {
      "geometry": {
        "type": "Point",
        "coordinates": [
          79.074596,
          24.61644
        ]
      },
      "type": "Feature",
      "properties": {
        "hierarchy": [
          "tgn:7566067",
          "tgn:1000004",
          "tgn:7000198",
          "tgn:1001894",
          "tgn:7029392"
        ],
        "placetype": [
          "aat:300008347"
        ],
        "name:en": "Pachran ka Khera",
        "id": 7566067
      }
    },
    {
      "geometry": {
        "type": "Point",
        "coordinates": [
          79.081761,
          24.617353
        ]
      },
      "type": "Feature",
      "properties": {
        "hierarchy": [
          "tgn:7566068",
          "tgn:1000004",
          "tgn:7000198",
          "tgn:1001894",
          "tgn:7029392"
        ],
        "placetype": [
          "aat:300008347"
        ],
        "name:en": "Dhondiyākhera",
        "id": 7566068
      }
    },
    {
      "geometry": {
        "type": "Point",
        "coordinates": [
          79.087172,
          24.621651
        ]
      },
      "type": "Feature",
      "properties": {
        "hierarchy": [
          "tgn:7566069",
          "tgn:1000004",
          "tgn:7000198",
          "tgn:1001894",
          "tgn:7029392"
        ],
        "placetype": [
          "aat:300008347"
        ],
        "name:en": "Nātankhera",
        "id": 7566069
      }
    }
  ]
}
