{
  "type": "FeatureCollection",
  "features": [
    {
      "geometry": {
        "type": "Point",
        "coordinates": [
          72.810438,
          27.647818
        ]
      },
      "type": "Feature",
      "properties": {
        "hierarchy": [
          "tgn:7583190",
          "tgn:1000004",
          "tgn:7000198",
          "tgn:7016788",
          "tgn:7029392"
        ],
        "placetype": [
          "aat:300008347"
        ],
        "name:en": "Thūmli",
        "id": 7583190
      }
    },
    {
      "geometry": {
        "type": "Point",
        "coordinates": [
          72.774345,
          27.639241
        ]
      },
      "type": "Feature",
      "properties": {
        "hierarchy": [
          "tgn:7583191",
          "tgn:1000004",
          "tgn:7000198",
          "tgn:7016788",
          "tgn:7029392"
        ],
        "placetype": [
          "aat:300008347"
        ],
        "name:en": "Hemsingh ki Dhāni",
        "id": 7583191
      }
    },
    {
      "geometry": {
        "type": "Point",
        "coordinates": [
          72.791037,
          27.656761
        ]
      },
      "type": "Feature",
      "properties": {
        "hierarchy": [
          "tgn:7583192",
          "tgn:1000004",
          "tgn:7000198",
          "tgn:7016788",
          "tgn:7029392"
        ],
        "placetype": [
          "aat:300008347"
        ],
        "name:en": "Nāharsingh ki Dhāni",
        "id": 7583192
      }
    },
    {
      "geometry": {
        "type": "Point",
        "coordinates": [
          72.812241,
          27.677409
        ]
      },
      "type": "Feature",
      "properties": {
        "hierarchy": [
          "tgn:7583193",
          "tgn:1000004",
          "tgn:7000198",
          "tgn:7016788",
          "tgn:7029392"
        ],
        "placetype": [
          "aat:300008347"
        ],
        "name:en": "Hamīrsingh ki Dhāni",
        "id": 7583193
      }
    },
    {
      "geometry": {
        "type": "Point",
        "coordinates": [
          72.801623,
          27.675229
        ]
      },
      "type": "Feature",
      "properties": {
        "hierarchy": [
          "tgn:7583194",
          "tgn:1000004",
          "tgn:7000198",
          "tgn:7016788",
          "tgn:7029392"
        ],
        "placetype": [
          "aat:300008347"
        ],
        "name:en": "Jānājāt ki Dhāni",
        "id": 7583194
      }
    },
    {
      "geometry": {
        "type": "Point",
        "coordinates": [
          74.273359,
          18.477194
        ]
      },
      "type": "Feature",
      "properties": {
        "hierarchy": [
          "tgn:7583197",
          "tgn:1000004",
          "tgn:7000198",
          "tgn:1001895",
          "tgn:7029392"
        ],
        "placetype": [
          "aat:300008347"
        ],
        "name:en": "Yavat",
        "id": 7583197
      }
    },
    {
      "geometry": {
        "type": "Point",
        "coordinates": [
          78.516,
          24.671148
        ]
      },
      "type": "Feature",
      "properties": {
        "hierarchy": [
          "tgn:7583198",
          "tgn:1000004",
          "tgn:7000198",
          "tgn:7016722",
          "tgn:7029392"
        ],
        "placetype": [
          "aat:300008347"
        ],
        "name:en": "Hansāra",
        "id": 7583198
      }
    },
    {
      "geometry": {
        "type": "Point",
        "coordinates": [
          78.518292,
          24.690893
        ]
      },
      "type": "Feature",
      "properties": {
        "hierarchy": [
          "tgn:7583199",
          "tgn:1000004",
          "tgn:7000198",
          "tgn:7016722",
          "tgn:7029392"
        ],
        "placetype": [
          "aat:300008347"
        ],
        "name:en": "Harpura",
        "id": 7583199
      }
    }
  ]
}
