{
  "type": "FeatureCollection",
  "features": [
    {
      "geometry": {
        "type": "Point",
        "coordinates": [
          79.537678,
          26.809142
        ]
      },
      "type": "Feature",
      "properties": {
        "hierarchy": [
          "tgn:7565590",
          "tgn:1000004",
          "tgn:7000198",
          "tgn:7016722",
          "tgn:7029392"
        ],
        "placetype": [
          "aat:300008347"
        ],
        "name:en": "Kharagpur",
        "id": 7565590
      }
    },
    {
      "geometry": {
        "type": "Point",
        "coordinates": [
          79.536803,
          26.804095
        ]
      },
      "type": "Feature",
      "properties": {
        "hierarchy": [
          "tgn:7565591",
          "tgn:1000004",
          "tgn:7000198",
          "tgn:7016722",
          "tgn:7029392"
        ],
        "placetype": [
          "aat:300008347"
        ],
        "name:en": "Pasauli",
        "id": 7565591
      }
    },
    {
      "geometry": {
        "type": "Point",
        "coordinates": [
          79.528342,
          26.799559
        ]
      },
      "type": "Feature",
      "properties": {
        "hierarchy": [
          "tgn:7565592",
          "tgn:1000004",
          "tgn:7000198",
          "tgn:7016722",
          "tgn:7029392"
        ],
        "placetype": [
          "aat:300008347"
        ],
        "name:en": "Narāyanpur Bhānūpur",
        "id": 7565592
      }
    },
    {
      "geometry": {
        "type": "Point",
        "coordinates": [
          79.530482,
          26.803692
        ]
      },
      "type": "Feature",
      "properties": {
        "hierarchy": [
          "tgn:7565593",
          "tgn:1000004",
          "tgn:7000198",
          "tgn:7016722",
          "tgn:7029392"
        ],
        "placetype": [
          "aat:300008347"
        ],
        "name:en": "Bhānūpur",
        "id": 7565593
      }
    },
    {
      "geometry": {
        "type": "Point",
        "coordinates": [
          71.72368,
          27.184544
        ]
      },
      "type": "Feature",
      "properties": {
        "hierarchy": [
          "tgn:7565594",
          "tgn:1000004",
          "tgn:7000198",
          "tgn:7016788",
          "tgn:7029392"
        ],
        "placetype": [
          "aat:300008347"
        ],
        "name:en": "Bardhāna",
        "id": 7565594
      }
    },
    {
      "geometry": {
        "type": "Point",
        "coordinates": [
          71.717242,
          27.20447
        ]
      },
      "type": "Feature",
      "properties": {
        "hierarchy": [
          "tgn:7565595",
          "tgn:1000004",
          "tgn:7000198",
          "tgn:7016788",
          "tgn:7029392"
        ],
        "placetype": [
          "aat:300008347"
        ],
        "name:en": "Chandsar",
        "id": 7565595
      }
    },
    {
      "geometry": {
        "type": "Point",
        "coordinates": [
          71.722477,
          27.240731
        ]
      },
      "type": "Feature",
      "properties": {
        "hierarchy": [
          "tgn:7565596",
          "tgn:1000004",
          "tgn:7000198",
          "tgn:7016788",
          "tgn:7029392"
        ],
        "placetype": [
          "aat:300008347"
        ],
        "name:en": "Bāda",
        "id": 7565596
      }
    },
    {
      "geometry": {
        "type": "Point",
        "coordinates": [
          71.71847,
          27.292257
        ]
      },
      "type": "Feature",
      "properties": {
        "hierarchy": [
          "tgn:7565597",
          "tgn:1000004",
          "tgn:7000198",
          "tgn:7016788",
          "tgn:7029392"
        ],
        "placetype": [
          "aat:300008347"
        ],
        "name:en": "Anāri ki Dahar",
        "id": 7565597
      }
    },
    {
      "geometry": {
        "type": "Point",
        "coordinates": [
          71.662022,
          27.308275
        ]
      },
      "type": "Feature",
      "properties": {
        "hierarchy": [
          "tgn:7565598",
          "tgn:1000004",
          "tgn:7000198",
          "tgn:7016788",
          "tgn:7029392"
        ],
        "placetype": [
          "aat:300008347"
        ],
        "name:en": "Chhila Nādi",
        "id": 7565598
      }
    },
    {
      "geometry": {
        "type": "Point",
        "coordinates": [
          71.74688,
          27.368937
        ]
      },
      "type": "Feature",
      "properties": {
        "hierarchy": [
          "tgn:7565599",
          "tgn:1000004",
          "tgn:7000198",
          "tgn:7016788",
          "tgn:7029392"
        ],
        "placetype": [
          "aat:300008347"
        ],
        "name:en": "Āskandra",
        "id": 7565599
      }
    }
  ]
}
