{
  "type": "FeatureCollection",
  "features": [
    {
      "geometry": {
        "type": "Point",
        "coordinates": [
          120.491944,
          24.181111
        ]
      },
      "type": "Feature",
      "properties": {
        "hierarchy": [
          "tgn:7471760",
          "tgn:1000004",
          "tgn:7467799",
          "tgn:1000141",
          "tgn:7029392"
        ],
        "placetype": [
          "aat:300387173"
        ],
        "id": 7471760,
        "name:xx": "Quanxing Cun"
      }
    },
    {
      "geometry": {
        "type": "Point",
        "coordinates": [
          120.985271,
          24.25636
        ]
      },
      "type": "Feature",
      "properties": {
        "hierarchy": [
          "tgn:7471761",
          "tgn:1000004",
          "tgn:7001009",
          "tgn:1000141",
          "tgn:7029392"
        ],
        "placetype": [
          "aat:300008798"
        ],
        "id": 7471761,
        "name:xx": "Chuanxing Shan"
      }
    },
    {
      "geometry": {
        "type": "Point",
        "coordinates": [
          119.513611,
          23.395833
        ]
      },
      "type": "Feature",
      "properties": {
        "hierarchy": [
          "tgn:7471762",
          "tgn:1000004",
          "tgn:7004300",
          "tgn:1000141",
          "tgn:7029392"
        ],
        "placetype": [
          "aat:300008791"
        ],
        "id": 7471762,
        "name:xx": "Chuanhou Jiao"
      }
    },
    {
      "geometry": {
        "type": "Point",
        "coordinates": [
          120.366667,
          23.983333
        ]
      },
      "type": "Feature",
      "properties": {
        "hierarchy": [
          "tgn:7471763",
          "tgn:1000004",
          "tgn:7467799",
          "tgn:1000141",
          "tgn:7029392"
        ],
        "placetype": [
          "aat:300008347"
        ],
        "id": 7471763,
        "name:xx": "Chuanhe"
      }
    },
    {
      "geometry": {
        "type": "Point",
        "coordinates": [
          120.83211,
          24.34996
        ]
      },
      "type": "Feature",
      "properties": {
        "hierarchy": [
          "tgn:7471764",
          "tgn:7487020",
          "tgn:1000004",
          "tgn:1000141",
          "tgn:7029392"
        ],
        "placetype": [
          "aat:300008347"
        ],
        "id": 7471764,
        "name:xx": "Xinkai"
      }
    },
    {
      "geometry": {
        "type": "Point",
        "coordinates": [
          120.677778,
          23.055833
        ]
      },
      "type": "Feature",
      "properties": {
        "hierarchy": [
          "tgn:7471765",
          "tgn:7001004",
          "tgn:1000004",
          "tgn:1000141",
          "tgn:7029392"
        ],
        "placetype": [
          "aat:300008347"
        ],
        "id": 7471765,
        "name:xx": "Shangxinkai"
      }
    },
    {
      "geometry": {
        "type": "Point",
        "coordinates": [
          120.618333,
          22.408056
        ]
      },
      "type": "Feature",
      "properties": {
        "hierarchy": [
          "tgn:7471766",
          "tgn:1000004",
          "tgn:7492971",
          "tgn:1000141",
          "tgn:7029392"
        ],
        "placetype": [
          "aat:300008347"
        ],
        "id": 7471766,
        "name:xx": "Xinkai"
      }
    },
    {
      "geometry": {
        "type": "Point",
        "coordinates": [
          121.453078,
          23.542731
        ]
      },
      "type": "Feature",
      "properties": {
        "hierarchy": [
          "tgn:7471767",
          "tgn:7001010",
          "tgn:1000004",
          "tgn:1000141",
          "tgn:7029392"
        ],
        "placetype": [
          "aat:300008798"
        ],
        "id": 7471767,
        "name:xx": "Xinrui Shan"
      }
    },
    {
      "geometry": {
        "type": "Point",
        "coordinates": [
          121.216667,
          24.116667
        ]
      },
      "type": "Feature",
      "properties": {
        "hierarchy": [
          "tgn:7471768",
          "tgn:7488858",
          "tgn:1000004",
          "tgn:1000141",
          "tgn:7029392"
        ],
        "placetype": [
          "aat:300266640"
        ],
        "id": 7471768,
        "name:xx": "Xinren Gang"
      }
    },
    {
      "geometry": {
        "type": "Point",
        "coordinates": [
          119.964167,
          25.973333
        ]
      },
      "type": "Feature",
      "properties": {
        "hierarchy": [
          "tgn:7471769",
          "tgn:7498210",
          "tgn:1000004",
          "tgn:1000141",
          "tgn:7029392"
        ],
        "placetype": [
          "aat:300011692"
        ],
        "id": 7471769,
        "name:xx": "Xiniu Yu"
      }
    }
  ]
}
