{
  "type": "FeatureCollection",
  "features": [
    {
      "geometry": {
        "type": "Point",
        "coordinates": [
          76.682778,
          12.119722
        ]
      },
      "type": "Feature",
      "properties": {
        "hierarchy": [
          "tgn:1076370",
          "tgn:1000004",
          "tgn:7000198",
          "tgn:1001882",
          "tgn:7029392"
        ],
        "placetype": [
          "aat:300008347"
        ],
        "id": 1076370,
        "name:xx": "Nanjangud"
      }
    },
    {
      "geometry": {
        "type": "Point",
        "coordinates": [
          73.0833,
          18.9333
        ]
      },
      "type": "Feature",
      "properties": {
        "hierarchy": [
          "tgn:1076371",
          "tgn:1000004",
          "tgn:7000198",
          "tgn:1001895",
          "tgn:7029392"
        ],
        "placetype": [
          "aat:300008347"
        ],
        "id": 1076371,
        "name:xx": "Nanoshi"
      }
    },
    {
      "geometry": {
        "type": "Point",
        "coordinates": [
          88.45,
          22.4667
        ]
      },
      "type": "Feature",
      "properties": {
        "hierarchy": [
          "tgn:1076372",
          "tgn:1000004",
          "tgn:7000198",
          "tgn:1001977",
          "tgn:7029392"
        ],
        "placetype": [
          "aat:300008347"
        ],
        "id": 1076372,
        "name:xx": "Naoābād"
      }
    },
    {
      "geometry": {
        "type": "Point",
        "coordinates": [
          88.2667,
          22.9167
        ]
      },
      "type": "Feature",
      "properties": {
        "hierarchy": [
          "tgn:1076373",
          "tgn:1000004",
          "tgn:7000198",
          "tgn:1001977",
          "tgn:7029392"
        ],
        "placetype": [
          "aat:300008347"
        ],
        "id": 1076373,
        "name:xx": "Naopukuria"
      }
    },
    {
      "geometry": {
        "type": "Point",
        "coordinates": [
          80.474995,
          25.190325
        ]
      },
      "type": "Feature",
      "properties": {
        "hierarchy": [
          "tgn:1076374",
          "tgn:1000004",
          "tgn:7000198",
          "tgn:1001894",
          "tgn:7029392"
        ],
        "placetype": [
          "aat:300008347"
        ],
        "name:en": "Naraini",
        "id": 1076374
      }
    },
    {
      "geometry": {
        "type": "Point",
        "coordinates": [
          86.614612,
          24.044166
        ]
      },
      "type": "Feature",
      "properties": {
        "hierarchy": [
          "tgn:1076375",
          "tgn:1000004",
          "tgn:7000198",
          "tgn:7031783",
          "tgn:7029392"
        ],
        "placetype": [
          "aat:300008347"
        ],
        "name:en": "Narainpur",
        "id": 1076375
      }
    },
    {
      "geometry": {
        "type": "Point",
        "coordinates": [
          84.044,
          18.414
        ]
      },
      "type": "Feature",
      "properties": {
        "hierarchy": [
          "tgn:1076376",
          "tgn:1001828",
          "tgn:1000004",
          "tgn:7000198",
          "tgn:7029392"
        ],
        "placetype": [
          "aat:300008347"
        ],
        "name:en": "Narasannapeta",
        "id": 1076376
      }
    },
    {
      "geometry": {
        "type": "Point",
        "coordinates": [
          81.666667,
          16.45
        ]
      },
      "type": "Feature",
      "properties": {
        "hierarchy": [
          "tgn:1076377",
          "tgn:1001828",
          "tgn:1000004",
          "tgn:7000198",
          "tgn:7029392"
        ],
        "placetype": [
          "aat:300008347"
        ],
        "name:en": "Narasapur",
        "id": 1076377
      }
    },
    {
      "geometry": {
        "type": "Point",
        "coordinates": [
          80.066667,
          16.25
        ]
      },
      "type": "Feature",
      "properties": {
        "hierarchy": [
          "tgn:1076378",
          "tgn:1001828",
          "tgn:1000004",
          "tgn:7000198",
          "tgn:7029392"
        ],
        "placetype": [
          "aat:300008347"
        ],
        "name:en": "Narasaraopet",
        "id": 1076378
      }
    },
    {
      "geometry": {
        "type": "Point",
        "coordinates": [
          78.287121,
          30.161733
        ]
      },
      "type": "Feature",
      "properties": {
        "hierarchy": [
          "tgn:1076379",
          "tgn:1000004",
          "tgn:7000198",
          "tgn:7031786",
          "tgn:7029392"
        ],
        "placetype": [
          "aat:300008347"
        ],
        "name:en": "Narendranagar",
        "id": 1076379
      }
    }
  ]
}
