{
  "type": "FeatureCollection",
  "features": [
    {
      "geometry": {
        "type": "Point",
        "coordinates": [
          120.414028,
          23.617443
        ]
      },
      "type": "Feature",
      "properties": {
        "hierarchy": [
          "tgn:7467910",
          "tgn:7468018",
          "tgn:1000004",
          "tgn:1000141",
          "tgn:7029392"
        ],
        "placetype": [
          "aat:300008347"
        ],
        "id": 7467910,
        "name:xx": "Chenjingliao"
      }
    },
    {
      "geometry": {
        "type": "Point",
        "coordinates": [
          120.475278,
          24.101111
        ]
      },
      "type": "Feature",
      "properties": {
        "hierarchy": [
          "tgn:7467911",
          "tgn:1000004",
          "tgn:7467799",
          "tgn:1000141",
          "tgn:7029392"
        ],
        "placetype": [
          "aat:300008347"
        ],
        "id": 7467911,
        "name:xx": "Kanqiao"
      }
    },
    {
      "geometry": {
        "type": "Point",
        "coordinates": [
          121.35,
          23.083333
        ]
      },
      "type": "Feature",
      "properties": {
        "hierarchy": [
          "tgn:7467912",
          "tgn:1000004",
          "tgn:7491221",
          "tgn:1000141",
          "tgn:7029392"
        ],
        "placetype": [
          "aat:300007836"
        ],
        "id": 7467912,
        "name:xx": "Zhen Qiao"
      }
    },
    {
      "geometry": {
        "type": "Point",
        "coordinates": [
          120.510948,
          22.45858
        ]
      },
      "type": "Feature",
      "properties": {
        "hierarchy": [
          "tgn:7467913",
          "tgn:1000004",
          "tgn:7492971",
          "tgn:1000141",
          "tgn:7029392"
        ],
        "placetype": [
          "aat:300007783"
        ],
        "id": 7467913,
        "name:xx": "Zhen'an Chezhan"
      }
    },
    {
      "geometry": {
        "type": "Point",
        "coordinates": [
          121.806667,
          24.795833
        ]
      },
      "type": "Feature",
      "properties": {
        "hierarchy": [
          "tgn:7467914",
          "tgn:1000004",
          "tgn:7489179",
          "tgn:1000141",
          "tgn:7029392"
        ],
        "placetype": [
          "aat:300008347"
        ],
        "id": 7467914,
        "name:xx": "Chelutou"
      }
    },
    {
      "geometry": {
        "type": "Point",
        "coordinates": [
          120.750233,
          24.103183
        ]
      },
      "type": "Feature",
      "properties": {
        "hierarchy": [
          "tgn:7467915",
          "tgn:1000004",
          "tgn:7001009",
          "tgn:1000141",
          "tgn:7029392"
        ],
        "placetype": [
          "aat:300008795"
        ],
        "id": 7467915,
        "name:xx": "Chelong Shan"
      }
    },
    {
      "geometry": {
        "type": "Point",
        "coordinates": [
          120.5147,
          22.4767
        ]
      },
      "type": "Feature",
      "properties": {
        "hierarchy": [
          "tgn:7467916",
          "tgn:1000004",
          "tgn:7492971",
          "tgn:1000141",
          "tgn:7029392"
        ],
        "placetype": [
          "aat:300008347"
        ],
        "id": 7467916,
        "name:xx": "Wanhua"
      }
    },
    {
      "geometry": {
        "type": "Point",
        "coordinates": [
          120.4725,
          23.282778
        ]
      },
      "type": "Feature",
      "properties": {
        "hierarchy": [
          "tgn:7467917",
          "tgn:1000004",
          "tgn:7490934",
          "tgn:1000141",
          "tgn:7029392"
        ],
        "placetype": [
          "aat:300008347"
        ],
        "id": 7467917,
        "name:xx": "Cheguanliao"
      }
    },
    {
      "geometry": {
        "type": "Point",
        "coordinates": [
          120.769609,
          23.743555
        ]
      },
      "type": "Feature",
      "properties": {
        "hierarchy": [
          "tgn:7467918",
          "tgn:7488858",
          "tgn:1000004",
          "tgn:1000141",
          "tgn:7029392"
        ],
        "placetype": [
          "aat:300008347"
        ],
        "id": 7467918,
        "name:xx": "Cheguangliao"
      }
    },
    {
      "geometry": {
        "type": "Point",
        "coordinates": [
          120.390278,
          22.796944
        ]
      },
      "type": "Feature",
      "properties": {
        "hierarchy": [
          "tgn:7467919",
          "tgn:7001004",
          "tgn:1000004",
          "tgn:1000141",
          "tgn:7029392"
        ],
        "placetype": [
          "aat:300008347"
        ],
        "id": 7467919,
        "name:xx": "Chegualin"
      }
    }
  ]
}
