{
  "type": "FeatureCollection",
  "features": [
    {
      "geometry": {
        "type": "Point",
        "coordinates": [
          120.70327,
          24.200584
        ]
      },
      "type": "Feature",
      "properties": {
        "hierarchy": [
          "tgn:7499120",
          "tgn:1000004",
          "tgn:7001009",
          "tgn:1000141",
          "tgn:7029392"
        ],
        "placetype": [
          "aat:300007836"
        ],
        "id": 7499120,
        "name:xx": "Toujiacuo Qiao"
      }
    },
    {
      "geometry": {
        "type": "Point",
        "coordinates": [
          120.648307,
          24.218395
        ]
      },
      "type": "Feature",
      "properties": {
        "hierarchy": [
          "tgn:7499121",
          "tgn:1000004",
          "tgn:7001009",
          "tgn:1000141",
          "tgn:7029392"
        ],
        "placetype": [
          "aat:300007836"
        ],
        "id": 7499121,
        "name:xx": "Daya Qiao"
      }
    },
    {
      "geometry": {
        "type": "Point",
        "coordinates": [
          120.648807,
          24.221471
        ]
      },
      "type": "Feature",
      "properties": {
        "hierarchy": [
          "tgn:7499122",
          "tgn:1000004",
          "tgn:7001009",
          "tgn:1000141",
          "tgn:7029392"
        ],
        "placetype": [
          "aat:300007836"
        ],
        "id": 7499122,
        "name:xx": "Yaqing Qiao"
      }
    },
    {
      "geometry": {
        "type": "Point",
        "coordinates": [
          120.53725,
          24.000763
        ]
      },
      "type": "Feature",
      "properties": {
        "hierarchy": [
          "tgn:7499124",
          "tgn:1000004",
          "tgn:7467799",
          "tgn:1000141",
          "tgn:7029392"
        ],
        "placetype": [
          "aat:300007836"
        ],
        "id": 7499124,
        "name:xx": "Songkuai Qiao"
      }
    },
    {
      "geometry": {
        "type": "Point",
        "coordinates": [
          120.52982,
          24.003555
        ]
      },
      "type": "Feature",
      "properties": {
        "hierarchy": [
          "tgn:7499125",
          "tgn:1000004",
          "tgn:7467799",
          "tgn:1000141",
          "tgn:7029392"
        ],
        "placetype": [
          "aat:300007836"
        ],
        "id": 7499125,
        "name:xx": "Linong Qiao"
      }
    },
    {
      "geometry": {
        "type": "Point",
        "coordinates": [
          120.538978,
          24.029217
        ]
      },
      "type": "Feature",
      "properties": {
        "hierarchy": [
          "tgn:7499126",
          "tgn:1000004",
          "tgn:7467799",
          "tgn:1000141",
          "tgn:7029392"
        ],
        "placetype": [
          "aat:300007836"
        ],
        "id": 7499126,
        "name:xx": "Disan Kouzhuang Qiao"
      }
    },
    {
      "geometry": {
        "type": "Point",
        "coordinates": [
          120.701795,
          24.223266
        ]
      },
      "type": "Feature",
      "properties": {
        "hierarchy": [
          "tgn:7499127",
          "tgn:1000004",
          "tgn:7001009",
          "tgn:1000141",
          "tgn:7029392"
        ],
        "placetype": [
          "aat:300007836"
        ],
        "id": 7499127,
        "name:xx": "Fengheng Qiao"
      }
    },
    {
      "geometry": {
        "type": "Point",
        "coordinates": [
          120.644956,
          24.226648
        ]
      },
      "type": "Feature",
      "properties": {
        "hierarchy": [
          "tgn:7499128",
          "tgn:1000004",
          "tgn:7001009",
          "tgn:1000141",
          "tgn:7029392"
        ],
        "placetype": [
          "aat:300007836"
        ],
        "id": 7499128,
        "name:xx": "Di'er Daya Qiao"
      }
    },
    {
      "geometry": {
        "type": "Point",
        "coordinates": [
          120.569334,
          24.220767
        ]
      },
      "type": "Feature",
      "properties": {
        "hierarchy": [
          "tgn:7499129",
          "tgn:1000004",
          "tgn:7001009",
          "tgn:1000141",
          "tgn:7029392"
        ],
        "placetype": [
          "aat:300007836"
        ],
        "id": 7499129,
        "name:xx": "Fuxing Qiao"
      }
    }
  ]
}
