{
  "type": "FeatureCollection",
  "features": [
    {
      "geometry": {
        "type": "Point",
        "coordinates": [
          -92.266667,
          17.779167
        ]
      },
      "type": "Feature",
      "properties": {
        "hierarchy": [
          "tgn:7411190",
          "tgn:1000001",
          "tgn:7005596",
          "tgn:7005560",
          "tgn:7029392"
        ],
        "placetype": [
          "aat:300008347"
        ],
        "id": 7411190,
        "name:es": "Rovirosa"
      }
    },
    {
      "geometry": {
        "type": "Point",
        "coordinates": [
          -92.345833,
          17.779167
        ]
      },
      "type": "Feature",
      "properties": {
        "hierarchy": [
          "tgn:7411191",
          "tgn:1000001",
          "tgn:7005596",
          "tgn:7005560",
          "tgn:7029392"
        ],
        "placetype": [
          "aat:300008347"
        ],
        "id": 7411191,
        "name:es": "Clemente Reyes Primera Sección"
      }
    },
    {
      "geometry": {
        "type": "Point",
        "coordinates": [
          -92.454167,
          17.779167
        ]
      },
      "type": "Feature",
      "properties": {
        "hierarchy": [
          "tgn:7411192",
          "tgn:1000001",
          "tgn:7005596",
          "tgn:7005560",
          "tgn:7029392"
        ],
        "placetype": [
          "aat:300008347"
        ],
        "id": 7411192,
        "name:es": "El Triunfo Segunda Sección"
      }
    },
    {
      "geometry": {
        "type": "Point",
        "coordinates": [
          -92.370833,
          17.779167
        ]
      },
      "type": "Feature",
      "properties": {
        "hierarchy": [
          "tgn:7411193",
          "tgn:1000001",
          "tgn:7005596",
          "tgn:7005560",
          "tgn:7029392"
        ],
        "placetype": [
          "aat:300008347"
        ],
        "id": 7411193,
        "name:es": "Clemente Reyes Segunda Sección"
      }
    },
    {
      "geometry": {
        "type": "Point",
        "coordinates": [
          -92.254167,
          17.816667
        ]
      },
      "type": "Feature",
      "properties": {
        "hierarchy": [
          "tgn:7411194",
          "tgn:1000001",
          "tgn:7005596",
          "tgn:7005560",
          "tgn:7029392"
        ],
        "placetype": [
          "aat:300008347"
        ],
        "id": 7411194,
        "name:es": "Ramón Grande"
      }
    },
    {
      "geometry": {
        "type": "Point",
        "coordinates": [
          -92.275,
          17.8125
        ]
      },
      "type": "Feature",
      "properties": {
        "hierarchy": [
          "tgn:7411195",
          "tgn:1000001",
          "tgn:7005596",
          "tgn:7005560",
          "tgn:7029392"
        ],
        "placetype": [
          "aat:300008347"
        ],
        "id": 7411195,
        "name:es": "Vicente Guerrero"
      }
    },
    {
      "geometry": {
        "type": "Point",
        "coordinates": [
          -92.320833,
          17.804167
        ]
      },
      "type": "Feature",
      "properties": {
        "hierarchy": [
          "tgn:7411196",
          "tgn:1000001",
          "tgn:7005596",
          "tgn:7005560",
          "tgn:7029392"
        ],
        "placetype": [
          "aat:300008347"
        ],
        "id": 7411196,
        "name:es": "Maluco Primera Sección"
      }
    },
    {
      "geometry": {
        "type": "Point",
        "coordinates": [
          -92.404167,
          17.816667
        ]
      },
      "type": "Feature",
      "properties": {
        "hierarchy": [
          "tgn:7411197",
          "tgn:1000001",
          "tgn:7005596",
          "tgn:7005560",
          "tgn:7029392"
        ],
        "placetype": [
          "aat:300008347"
        ],
        "id": 7411197,
        "name:es": "Chiguihuite"
      }
    },
    {
      "geometry": {
        "type": "Point",
        "coordinates": [
          -92.45,
          17.825
        ]
      },
      "type": "Feature",
      "properties": {
        "hierarchy": [
          "tgn:7411198",
          "tgn:1000001",
          "tgn:7005596",
          "tgn:7005560",
          "tgn:7029392"
        ],
        "placetype": [
          "aat:300008347"
        ],
        "id": 7411198,
        "name:es": "La Isla Segunda Sección"
      }
    },
    {
      "geometry": {
        "type": "Point",
        "coordinates": [
          -92.4375,
          17.820833
        ]
      },
      "type": "Feature",
      "properties": {
        "hierarchy": [
          "tgn:7411199",
          "tgn:1000001",
          "tgn:7005596",
          "tgn:7005560",
          "tgn:7029392"
        ],
        "placetype": [
          "aat:300008347"
        ],
        "id": 7411199,
        "name:es": "El Congo"
      }
    }
  ]
}
