{
  "type": "FeatureCollection",
  "features": [
    {
      "geometry": {
        "type": "Point",
        "coordinates": [
          120.771944,
          24.038889
        ]
      },
      "type": "Feature",
      "properties": {
        "hierarchy": [
          "tgn:7491010",
          "tgn:1000004",
          "tgn:7001009",
          "tgn:1000141",
          "tgn:7029392"
        ],
        "placetype": [
          "aat:300008347"
        ],
        "id": 7491010,
        "name:xx": "Beikengzi"
      }
    },
    {
      "geometry": {
        "type": "Point",
        "coordinates": [
          121.0225,
          22.655556
        ]
      },
      "type": "Feature",
      "properties": {
        "hierarchy": [
          "tgn:7491012",
          "tgn:1000004",
          "tgn:7491221",
          "tgn:1000141",
          "tgn:7029392"
        ],
        "placetype": [
          "aat:300008347"
        ],
        "id": 7491012,
        "name:xx": "Beikeng"
      }
    },
    {
      "geometry": {
        "type": "Point",
        "coordinates": [
          120.000834,
          26.222151
        ]
      },
      "type": "Feature",
      "properties": {
        "hierarchy": [
          "tgn:7491013",
          "tgn:7498210",
          "tgn:1000004",
          "tgn:1000141",
          "tgn:7029392"
        ],
        "placetype": [
          "aat:300007928"
        ],
        "id": 7491013,
        "name:xx": "Beigandao Matou"
      }
    },
    {
      "geometry": {
        "type": "Point",
        "coordinates": [
          120.193777,
          23.342183
        ]
      },
      "type": "Feature",
      "properties": {
        "hierarchy": [
          "tgn:7491015",
          "tgn:7468018",
          "tgn:1000004",
          "tgn:1000141",
          "tgn:7029392"
        ],
        "placetype": [
          "aat:300008347"
        ],
        "id": 7491015,
        "name:xx": "Beigangzi"
      }
    },
    {
      "geometry": {
        "type": "Point",
        "coordinates": [
          120.917363,
          24.055409
        ]
      },
      "type": "Feature",
      "properties": {
        "hierarchy": [
          "tgn:7491016",
          "tgn:7488858",
          "tgn:1000004",
          "tgn:1000141",
          "tgn:7029392"
        ],
        "placetype": [
          "aat:300387173"
        ],
        "id": 7491016,
        "name:xx": "Beigang Cun"
      }
    },
    {
      "geometry": {
        "type": "Point",
        "coordinates": [
          119.516667,
          23.683333
        ]
      },
      "type": "Feature",
      "properties": {
        "hierarchy": [
          "tgn:7491017",
          "tgn:1000004",
          "tgn:7004300",
          "tgn:1000141",
          "tgn:7029392"
        ],
        "placetype": [
          "aat:300387026"
        ],
        "id": 7491017,
        "name:xx": "Bei Gangdao"
      }
    },
    {
      "geometry": {
        "type": "Point",
        "coordinates": [
          120.141749,
          23.280901
        ]
      },
      "type": "Feature",
      "properties": {
        "hierarchy": [
          "tgn:7491018",
          "tgn:1000004",
          "tgn:7490934",
          "tgn:1000141",
          "tgn:7029392"
        ],
        "placetype": [
          "aat:300008347"
        ],
        "id": 7491018,
        "name:xx": "Beikanglang"
      }
    },
    {
      "geometry": {
        "type": "Point",
        "coordinates": [
          121.649149,
          25.081079
        ]
      },
      "type": "Feature",
      "properties": {
        "hierarchy": [
          "tgn:7491019",
          "tgn:1000004",
          "tgn:1000454",
          "tgn:1000141",
          "tgn:7029392"
        ],
        "placetype": [
          "aat:300008347"
        ],
        "id": 7491019,
        "name:xx": "Chuankou"
      }
    }
  ]
}
