{
  "type": "FeatureCollection",
  "features": [
    {
      "geometry": {
        "type": "Point",
        "coordinates": [
          120.454722,
          22.966944
        ]
      },
      "type": "Feature",
      "properties": {
        "hierarchy": [
          "tgn:7503480",
          "tgn:7001004",
          "tgn:1000004",
          "tgn:1000141",
          "tgn:7029392"
        ],
        "placetype": [
          "aat:300008347"
        ],
        "id": 7503480,
        "name:xx": "Huashangyuan"
      }
    },
    {
      "geometry": {
        "type": "Point",
        "coordinates": [
          120.464722,
          22.974444
        ]
      },
      "type": "Feature",
      "properties": {
        "hierarchy": [
          "tgn:7503481",
          "tgn:7001004",
          "tgn:1000004",
          "tgn:1000141",
          "tgn:7029392"
        ],
        "placetype": [
          "aat:300008347"
        ],
        "id": 7503481,
        "name:xx": "Changliaobu"
      }
    },
    {
      "geometry": {
        "type": "Point",
        "coordinates": [
          120.443056,
          22.973333
        ]
      },
      "type": "Feature",
      "properties": {
        "hierarchy": [
          "tgn:7503482",
          "tgn:7001004",
          "tgn:1000004",
          "tgn:1000141",
          "tgn:7029392"
        ],
        "placetype": [
          "aat:300008347"
        ],
        "id": 7503482,
        "name:xx": "Sanwan"
      }
    },
    {
      "geometry": {
        "type": "Point",
        "coordinates": [
          120.435556,
          22.982222
        ]
      },
      "type": "Feature",
      "properties": {
        "hierarchy": [
          "tgn:7503483",
          "tgn:7001004",
          "tgn:1000004",
          "tgn:1000141",
          "tgn:7029392"
        ],
        "placetype": [
          "aat:300008347"
        ],
        "id": 7503483,
        "name:xx": "Xidi"
      }
    },
    {
      "geometry": {
        "type": "Point",
        "coordinates": [
          120.433889,
          22.985
        ]
      },
      "type": "Feature",
      "properties": {
        "hierarchy": [
          "tgn:7503484",
          "tgn:7001004",
          "tgn:1000004",
          "tgn:1000141",
          "tgn:7029392"
        ],
        "placetype": [
          "aat:300008347"
        ],
        "id": 7503484,
        "name:xx": "Checuo"
      }
    },
    {
      "geometry": {
        "type": "Point",
        "coordinates": [
          120.445278,
          22.990833
        ]
      },
      "type": "Feature",
      "properties": {
        "hierarchy": [
          "tgn:7503485",
          "tgn:7001004",
          "tgn:1000004",
          "tgn:1000141",
          "tgn:7029392"
        ],
        "placetype": [
          "aat:300008347"
        ],
        "id": 7503485,
        "name:xx": "Qinggualiao"
      }
    },
    {
      "geometry": {
        "type": "Point",
        "coordinates": [
          120.760556,
          24.265
        ]
      },
      "type": "Feature",
      "properties": {
        "hierarchy": [
          "tgn:7503489",
          "tgn:1000004",
          "tgn:7001009",
          "tgn:1000141",
          "tgn:7029392"
        ],
        "placetype": [
          "aat:300008347"
        ],
        "id": 7503489,
        "name:xx": "Beibu"
      }
    }
  ]
}
