{
  "type": "FeatureCollection",
  "features": [
    {
      "geometry": {
        "type": "Point",
        "coordinates": [
          76.894174,
          31.597053
        ]
      },
      "type": "Feature",
      "properties": {
        "hierarchy": [
          "tgn:7555000",
          "tgn:1000004",
          "tgn:7000198",
          "tgn:1001996",
          "tgn:7029392"
        ],
        "placetype": [
          "aat:300008347"
        ],
        "name:en": "Malther",
        "id": 7555000
      }
    },
    {
      "geometry": {
        "type": "Point",
        "coordinates": [
          83.245639,
          22.426374
        ]
      },
      "type": "Feature",
      "properties": {
        "hierarchy": [
          "tgn:7555002",
          "tgn:1000004",
          "tgn:7031781",
          "tgn:7000198",
          "tgn:7029392"
        ],
        "placetype": [
          "aat:300008347"
        ],
        "name:en": "Ongna",
        "id": 7555002
      }
    },
    {
      "geometry": {
        "type": "Point",
        "coordinates": [
          77.930877,
          24.301566
        ]
      },
      "type": "Feature",
      "properties": {
        "hierarchy": [
          "tgn:7555003",
          "tgn:1000004",
          "tgn:7000198",
          "tgn:1001894",
          "tgn:7029392"
        ],
        "placetype": [
          "aat:300008347"
        ],
        "name:en": "Onder",
        "id": 7555003
      }
    },
    {
      "geometry": {
        "type": "Point",
        "coordinates": [
          78.066667,
          11.733333
        ]
      },
      "type": "Feature",
      "properties": {
        "hierarchy": [
          "tgn:7555005",
          "tgn:1000004",
          "tgn:7000198",
          "tgn:7001797",
          "tgn:7029392"
        ],
        "placetype": [
          "aat:300008347"
        ],
        "name:en": "Omal큰r",
        "id": 7555005
      }
    },
    {
      "geometry": {
        "type": "Point",
        "coordinates": [
          72.75,
          21.333333
        ]
      },
      "type": "Feature",
      "properties": {
        "hierarchy": [
          "tgn:7555006",
          "tgn:1000004",
          "tgn:1001869",
          "tgn:7000198",
          "tgn:7029392"
        ],
        "placetype": [
          "aat:300008347"
        ],
        "name:en": "Olp훮d",
        "id": 7555006
      }
    },
    {
      "geometry": {
        "type": "Point",
        "coordinates": [
          79.733333,
          13.516667
        ]
      },
      "type": "Feature",
      "properties": {
        "hierarchy": [
          "tgn:7555007",
          "tgn:1001828",
          "tgn:1000004",
          "tgn:7000198",
          "tgn:7029392"
        ],
        "placetype": [
          "aat:300008347"
        ],
        "name:en": "Oll큰ru",
        "id": 7555007
      }
    },
    {
      "geometry": {
        "type": "Point",
        "coordinates": [
          76.233333,
          10.466667
        ]
      },
      "type": "Feature",
      "properties": {
        "hierarchy": [
          "tgn:7555008",
          "tgn:1000004",
          "tgn:7000198",
          "tgn:1001886",
          "tgn:7029392"
        ],
        "placetype": [
          "aat:300008347"
        ],
        "name:en": "Oll큰r",
        "id": 7555008
      }
    },
    {
      "geometry": {
        "type": "Point",
        "coordinates": [
          93.45,
          7.933333
        ]
      },
      "type": "Feature",
      "properties": {
        "hierarchy": [
          "tgn:7555009",
          "tgn:7016678",
          "tgn:7000204",
          "tgn:1000004",
          "tgn:1007654",
          "tgn:7000198",
          "tgn:7029392"
        ],
        "placetype": [
          "aat:300008347"
        ],
        "name:en": "Olenchi",
        "id": 7555009
      }
    }
  ]
}
