{
  "type": "FeatureCollection",
  "features": [
    {
      "geometry": {
        "type": "Point",
        "coordinates": [
          75.5942,
          28.8108
        ]
      },
      "type": "Feature",
      "properties": {
        "hierarchy": [
          "tgn:7582030",
          "tgn:1000004",
          "tgn:1001871",
          "tgn:7000198",
          "tgn:7029392"
        ],
        "placetype": [
          "aat:300006075"
        ],
        "name:en": "Gudha Minor",
        "id": 7582030
      }
    },
    {
      "geometry": {
        "type": "Point",
        "coordinates": [
          75.504737,
          28.825572
        ]
      },
      "type": "Feature",
      "properties": {
        "hierarchy": [
          "tgn:7582031",
          "tgn:1000004",
          "tgn:7000198",
          "tgn:7016788",
          "tgn:7029392"
        ],
        "placetype": [
          "aat:300008688"
        ],
        "name:en": "Kabrāna Johra",
        "id": 7582031
      }
    },
    {
      "geometry": {
        "type": "Point",
        "coordinates": [
          75.610871,
          28.84015
        ]
      },
      "type": "Feature",
      "properties": {
        "hierarchy": [
          "tgn:7582032",
          "tgn:1000004",
          "tgn:1001871",
          "tgn:7000198",
          "tgn:7029392"
        ],
        "placetype": [
          "aat:300008688"
        ],
        "name:en": "Gammāwāla Johra",
        "id": 7582032
      }
    },
    {
      "geometry": {
        "type": "Point",
        "coordinates": [
          75.519025,
          28.763181
        ]
      },
      "type": "Feature",
      "properties": {
        "hierarchy": [
          "tgn:7582033",
          "tgn:1000004",
          "tgn:7000198",
          "tgn:7016788",
          "tgn:7029392"
        ],
        "placetype": [
          "aat:300008347"
        ],
        "name:en": "Gothān Kalān",
        "id": 7582033
      }
    },
    {
      "geometry": {
        "type": "Point",
        "coordinates": [
          75.514193,
          28.766525
        ]
      },
      "type": "Feature",
      "properties": {
        "hierarchy": [
          "tgn:7582034",
          "tgn:1000004",
          "tgn:7000198",
          "tgn:7016788",
          "tgn:7029392"
        ],
        "placetype": [
          "aat:300007783"
        ],
        "name:en": "Jumpa Railroad Station",
        "id": 7582034
      }
    },
    {
      "geometry": {
        "type": "Point",
        "coordinates": [
          75.525538,
          28.766145
        ]
      },
      "type": "Feature",
      "properties": {
        "hierarchy": [
          "tgn:7582035",
          "tgn:1000004",
          "tgn:1001871",
          "tgn:7000198",
          "tgn:7029392"
        ],
        "placetype": [
          "aat:300008347"
        ],
        "name:en": "Mādopura",
        "id": 7582035
      }
    },
    {
      "geometry": {
        "type": "Point",
        "coordinates": [
          75.563191,
          28.765458
        ]
      },
      "type": "Feature",
      "properties": {
        "hierarchy": [
          "tgn:7582036",
          "tgn:1000004",
          "tgn:1001871",
          "tgn:7000198",
          "tgn:7029392"
        ],
        "placetype": [
          "aat:300008347"
        ],
        "name:en": "Dhāni Bhākrān",
        "id": 7582036
      }
    },
    {
      "geometry": {
        "type": "Point",
        "coordinates": [
          75.603592,
          28.760546
        ]
      },
      "type": "Feature",
      "properties": {
        "hierarchy": [
          "tgn:7582037",
          "tgn:1000004",
          "tgn:1001871",
          "tgn:7000198",
          "tgn:7029392"
        ],
        "placetype": [
          "aat:300008347"
        ],
        "name:en": "Bidhawān",
        "id": 7582037
      }
    },
    {
      "geometry": {
        "type": "Point",
        "coordinates": [
          75.590274,
          28.79901
        ]
      },
      "type": "Feature",
      "properties": {
        "hierarchy": [
          "tgn:7582038",
          "tgn:1000004",
          "tgn:1001871",
          "tgn:7000198",
          "tgn:7029392"
        ],
        "placetype": [
          "aat:300008347"
        ],
        "name:en": "Ghanghāla",
        "id": 7582038
      }
    },
    {
      "geometry": {
        "type": "Point",
        "coordinates": [
          75.50772,
          28.804593
        ]
      },
      "type": "Feature",
      "properties": {
        "hierarchy": [
          "tgn:7582039",
          "tgn:1000004",
          "tgn:7000198",
          "tgn:7016788",
          "tgn:7029392"
        ],
        "placetype": [
          "aat:300008777"
        ],
        "name:en": "Satkosiya Tibba",
        "id": 7582039
      }
    }
  ]
}
