{
  "type": "FeatureCollection",
  "features": [
    {
      "geometry": {
        "type": "Point",
        "coordinates": [
          120.735556,
          21.982778
        ]
      },
      "type": "Feature",
      "properties": {
        "hierarchy": [
          "tgn:7501970",
          "tgn:1000004",
          "tgn:7492971",
          "tgn:1000141",
          "tgn:7029392"
        ],
        "placetype": [
          "aat:300006075"
        ],
        "id": 7501970,
        "name:xx": "Longluan Tan Paishuigou"
      }
    },
    {
      "geometry": {
        "type": "Point",
        "coordinates": [
          120.73,
          21.981111
        ]
      },
      "type": "Feature",
      "properties": {
        "hierarchy": [
          "tgn:7501971",
          "tgn:1000004",
          "tgn:7492971",
          "tgn:1000141",
          "tgn:7029392"
        ],
        "placetype": [
          "aat:300008347"
        ],
        "id": 7501971,
        "name:xx": "Longshui"
      }
    },
    {
      "geometry": {
        "type": "Point",
        "coordinates": [
          120.73,
          21.960556
        ]
      },
      "type": "Feature",
      "properties": {
        "hierarchy": [
          "tgn:7501972",
          "tgn:1000004",
          "tgn:7492971",
          "tgn:1000141",
          "tgn:7029392"
        ],
        "placetype": [
          "aat:300008347"
        ],
        "id": 7501972,
        "name:xx": "Wangjiazhuang"
      }
    },
    {
      "geometry": {
        "type": "Point",
        "coordinates": [
          120.711667,
          21.985556
        ]
      },
      "type": "Feature",
      "properties": {
        "hierarchy": [
          "tgn:7501973",
          "tgn:1000004",
          "tgn:7492971",
          "tgn:1000141",
          "tgn:7029392"
        ],
        "placetype": [
          "aat:300008678"
        ],
        "id": 7501973,
        "name:xx": "Shanhai Yugang"
      }
    },
    {
      "geometry": {
        "type": "Point",
        "coordinates": [
          120.715,
          21.984167
        ]
      },
      "type": "Feature",
      "properties": {
        "hierarchy": [
          "tgn:7501974",
          "tgn:1000004",
          "tgn:7492971",
          "tgn:1000141",
          "tgn:7029392"
        ],
        "placetype": [
          "aat:300006495"
        ],
        "id": 7501974,
        "name:xx": "Shanhai Guoxiao"
      }
    },
    {
      "geometry": {
        "type": "Point",
        "coordinates": [
          120.730833,
          21.978333
        ]
      },
      "type": "Feature",
      "properties": {
        "hierarchy": [
          "tgn:7501975",
          "tgn:1000004",
          "tgn:7492971",
          "tgn:1000141",
          "tgn:7029392"
        ],
        "placetype": [
          "aat:300007595"
        ],
        "id": 7501975,
        "name:xx": "Baoling Gong"
      }
    },
    {
      "geometry": {
        "type": "Point",
        "coordinates": [
          120.73,
          21.973611
        ]
      },
      "type": "Feature",
      "properties": {
        "hierarchy": [
          "tgn:7501976",
          "tgn:1000004",
          "tgn:7492971",
          "tgn:1000141",
          "tgn:7029392"
        ],
        "placetype": [
          "aat:300007595"
        ],
        "id": 7501976,
        "name:xx": "Bao'an Gong"
      }
    },
    {
      "geometry": {
        "type": "Point",
        "coordinates": [
          120.719722,
          21.963056
        ]
      },
      "type": "Feature",
      "properties": {
        "hierarchy": [
          "tgn:7501977",
          "tgn:1000004",
          "tgn:7492971",
          "tgn:1000141",
          "tgn:7029392"
        ],
        "placetype": [
          "aat:300007595"
        ],
        "id": 7501977,
        "name:xx": "Gaoshanyan Fude Gong"
      }
    },
    {
      "geometry": {
        "type": "Point",
        "coordinates": [
          120.714444,
          21.944444
        ]
      },
      "type": "Feature",
      "properties": {
        "hierarchy": [
          "tgn:7501978",
          "tgn:1000004",
          "tgn:7492971",
          "tgn:1000141",
          "tgn:7029392"
        ],
        "placetype": [
          "aat:300008347"
        ],
        "id": 7501978,
        "name:xx": "Dingbaisha"
      }
    },
    {
      "geometry": {
        "type": "Point",
        "coordinates": [
          120.717222,
          21.974722
        ]
      },
      "type": "Feature",
      "properties": {
        "hierarchy": [
          "tgn:7501979",
          "tgn:1000004",
          "tgn:7492971",
          "tgn:1000141",
          "tgn:7029392"
        ],
        "placetype": [
          "aat:300008347"
        ],
        "id": 7501979,
        "name:xx": "Shuikengzi"
      }
    }
  ]
}
