{
  "type": "FeatureCollection",
  "features": [
    {
      "geometry": {
        "type": "Point",
        "coordinates": [
          119.495833,
          23.370278
        ]
      },
      "type": "Feature",
      "properties": {
        "hierarchy": [
          "tgn:7485830",
          "tgn:1000004",
          "tgn:7004300",
          "tgn:1000141",
          "tgn:7029392"
        ],
        "placetype": [
          "aat:300008347"
        ],
        "id": 7485830,
        "name:xx": "Huazhaiping"
      }
    },
    {
      "geometry": {
        "type": "Point",
        "coordinates": [
          119.503611,
          23.377778
        ]
      },
      "type": "Feature",
      "properties": {
        "hierarchy": [
          "tgn:7485831",
          "tgn:1000004",
          "tgn:7004300",
          "tgn:1000141",
          "tgn:7029392"
        ],
        "placetype": [
          "aat:300008347"
        ],
        "id": 7485831,
        "name:xx": "Xidongwei"
      }
    },
    {
      "geometry": {
        "type": "Point",
        "coordinates": [
          119.500556,
          23.389167
        ]
      },
      "type": "Feature",
      "properties": {
        "hierarchy": [
          "tgn:7485832",
          "tgn:1000004",
          "tgn:7004300",
          "tgn:1000141",
          "tgn:7029392"
        ],
        "placetype": [
          "aat:300007595"
        ],
        "id": 7485832,
        "name:xx": "Shui'an Gong"
      }
    },
    {
      "geometry": {
        "type": "Point",
        "coordinates": [
          119.496111,
          23.372778
        ]
      },
      "type": "Feature",
      "properties": {
        "hierarchy": [
          "tgn:7485833",
          "tgn:1000004",
          "tgn:7004300",
          "tgn:1000141",
          "tgn:7029392"
        ],
        "placetype": [
          "aat:300008347"
        ],
        "id": 7485833,
        "name:xx": "Zhongshe"
      }
    },
    {
      "geometry": {
        "type": "Point",
        "coordinates": [
          119.496944,
          23.358889
        ]
      },
      "type": "Feature",
      "properties": {
        "hierarchy": [
          "tgn:7485834",
          "tgn:1000004",
          "tgn:7004300",
          "tgn:1000141",
          "tgn:7029392"
        ],
        "placetype": [
          "aat:300000745"
        ],
        "id": 7485834,
        "name:xx": "Xibu"
      }
    },
    {
      "geometry": {
        "type": "Point",
        "coordinates": [
          119.317222,
          23.397778
        ]
      },
      "type": "Feature",
      "properties": {
        "hierarchy": [
          "tgn:7485835",
          "tgn:1000004",
          "tgn:7004300",
          "tgn:1000141",
          "tgn:7029392"
        ],
        "placetype": [
          "aat:300008678"
        ],
        "id": 7485835,
        "name:xx": "Hua Yu Xingang"
      }
    },
    {
      "geometry": {
        "type": "Point",
        "coordinates": [
          119.322222,
          23.399167
        ]
      },
      "type": "Feature",
      "properties": {
        "hierarchy": [
          "tgn:7485836",
          "tgn:1000004",
          "tgn:7004300",
          "tgn:1000141",
          "tgn:7029392"
        ],
        "placetype": [
          "aat:300008678"
        ],
        "id": 7485836,
        "name:xx": "Hua Yu Gang"
      }
    },
    {
      "geometry": {
        "type": "Point",
        "coordinates": [
          119.32,
          23.408333
        ]
      },
      "type": "Feature",
      "properties": {
        "hierarchy": [
          "tgn:7485837",
          "tgn:1000004",
          "tgn:7004300",
          "tgn:1000141",
          "tgn:7029392"
        ],
        "placetype": [
          "aat:300008347"
        ],
        "id": 7485837,
        "name:xx": "Houshan"
      }
    },
    {
      "geometry": {
        "type": "Point",
        "coordinates": [
          119.316389,
          23.4025
        ]
      },
      "type": "Feature",
      "properties": {
        "hierarchy": [
          "tgn:7485838",
          "tgn:1000004",
          "tgn:7004300",
          "tgn:1000141",
          "tgn:7029392"
        ],
        "placetype": [
          "aat:300007741"
        ],
        "id": 7485838,
        "name:xx": "Hua Yu Dengta"
      }
    },
    {
      "geometry": {
        "type": "Point",
        "coordinates": [
          119.3275,
          23.407222
        ]
      },
      "type": "Feature",
      "properties": {
        "hierarchy": [
          "tgn:7485839",
          "tgn:1000004",
          "tgn:7004300",
          "tgn:1000141",
          "tgn:7029392"
        ],
        "placetype": [
          "aat:300386846"
        ],
        "id": 7485839,
        "name:xx": "Chai'anzi"
      }
    }
  ]
}
