{
  "type": "FeatureCollection",
  "features": [
    {
      "geometry": {
        "type": "Point",
        "coordinates": [
          78.763856,
          25.223291
        ]
      },
      "type": "Feature",
      "properties": {
        "hierarchy": [
          "tgn:7583620",
          "tgn:1000004",
          "tgn:7000198",
          "tgn:1001894",
          "tgn:7029392"
        ],
        "placetype": [
          "aat:300008347"
        ],
        "name:en": "Rautela",
        "id": 7583620
      }
    },
    {
      "geometry": {
        "type": "Point",
        "coordinates": [
          76.248449,
          30.523709
        ]
      },
      "type": "Feature",
      "properties": {
        "hierarchy": [
          "tgn:7583621",
          "tgn:1000004",
          "tgn:7000198",
          "tgn:7016883",
          "tgn:7029392"
        ],
        "placetype": [
          "aat:300008347"
        ],
        "name:en": "Rāmgarh",
        "id": 7583621
      }
    },
    {
      "geometry": {
        "type": "Point",
        "coordinates": [
          76.218497,
          30.515922
        ]
      },
      "type": "Feature",
      "properties": {
        "hierarchy": [
          "tgn:7583622",
          "tgn:1000004",
          "tgn:7000198",
          "tgn:7016883",
          "tgn:7029392"
        ],
        "placetype": [
          "aat:300008865"
        ],
        "name:en": "Bhādson Bīr Protected Forest",
        "id": 7583622
      }
    },
    {
      "geometry": {
        "type": "Point",
        "coordinates": [
          76.182386,
          30.514604
        ]
      },
      "type": "Feature",
      "properties": {
        "hierarchy": [
          "tgn:7583623",
          "tgn:1000004",
          "tgn:7000198",
          "tgn:7016883",
          "tgn:7029392"
        ],
        "placetype": [
          "aat:300008347"
        ],
        "name:en": "Raisal",
        "id": 7583623
      }
    },
    {
      "geometry": {
        "type": "Point",
        "coordinates": [
          76.145991,
          30.52303
        ]
      },
      "type": "Feature",
      "properties": {
        "hierarchy": [
          "tgn:7583624",
          "tgn:1000004",
          "tgn:7000198",
          "tgn:7016883",
          "tgn:7029392"
        ],
        "placetype": [
          "aat:300008347"
        ],
        "name:en": "Fatehpur",
        "id": 7583624
      }
    },
    {
      "geometry": {
        "type": "Point",
        "coordinates": [
          76.191473,
          30.521644
        ]
      },
      "type": "Feature",
      "properties": {
        "hierarchy": [
          "tgn:7583625",
          "tgn:1000004",
          "tgn:7000198",
          "tgn:7016883",
          "tgn:7029392"
        ],
        "placetype": [
          "aat:300008347"
        ],
        "name:en": "Sīrīnagar",
        "id": 7583625
      }
    },
    {
      "geometry": {
        "type": "Point",
        "coordinates": [
          76.19569,
          30.535115
        ]
      },
      "type": "Feature",
      "properties": {
        "hierarchy": [
          "tgn:7583626",
          "tgn:1000004",
          "tgn:7000198",
          "tgn:7016883",
          "tgn:7029392"
        ],
        "placetype": [
          "aat:300008347"
        ],
        "name:en": "Khanaura",
        "id": 7583626
      }
    },
    {
      "geometry": {
        "type": "Point",
        "coordinates": [
          76.151185,
          30.514307
        ]
      },
      "type": "Feature",
      "properties": {
        "hierarchy": [
          "tgn:7583627",
          "tgn:1000004",
          "tgn:7000198",
          "tgn:7016883",
          "tgn:7029392"
        ],
        "placetype": [
          "aat:300006075"
        ],
        "name:en": "Khanaura Sub Minor",
        "id": 7583627
      }
    },
    {
      "geometry": {
        "type": "Point",
        "coordinates": [
          76.169437,
          30.527281
        ]
      },
      "type": "Feature",
      "properties": {
        "hierarchy": [
          "tgn:7583628",
          "tgn:1000004",
          "tgn:7000198",
          "tgn:7016883",
          "tgn:7029392"
        ],
        "placetype": [
          "aat:300008347"
        ],
        "name:en": "Jassu Mazra",
        "id": 7583628
      }
    },
    {
      "geometry": {
        "type": "Point",
        "coordinates": [
          76.155662,
          30.537507
        ]
      },
      "type": "Feature",
      "properties": {
        "hierarchy": [
          "tgn:7583629",
          "tgn:1000004",
          "tgn:7000198",
          "tgn:7016883",
          "tgn:7029392"
        ],
        "placetype": [
          "aat:300008347"
        ],
        "name:en": "Hala",
        "id": 7583629
      }
    }
  ]
}
