{
  "type": "FeatureCollection",
  "features": [
    {
      "geometry": {
        "type": "Point",
        "coordinates": [
          121.285316,
          24.797004
        ]
      },
      "type": "Feature",
      "properties": {
        "hierarchy": [
          "tgn:7495400",
          "tgn:1000004",
          "tgn:7001013",
          "tgn:1000141",
          "tgn:7029392"
        ],
        "placetype": [
          "aat:300007836"
        ],
        "id": 7495400,
        "name:xx": "Gaorao Erhao Qiao"
      }
    },
    {
      "geometry": {
        "type": "Point",
        "coordinates": [
          121.279809,
          24.795109
        ]
      },
      "type": "Feature",
      "properties": {
        "hierarchy": [
          "tgn:7495401",
          "tgn:1000004",
          "tgn:7001013",
          "tgn:1000141",
          "tgn:7029392"
        ],
        "placetype": [
          "aat:300007836"
        ],
        "id": 7495401,
        "name:xx": "Gaorao Yihao Qiao"
      }
    },
    {
      "geometry": {
        "type": "Point",
        "coordinates": [
          121.2773,
          24.789516
        ]
      },
      "type": "Feature",
      "properties": {
        "hierarchy": [
          "tgn:7495402",
          "tgn:1000004",
          "tgn:7001013",
          "tgn:1000141",
          "tgn:7029392"
        ],
        "placetype": [
          "aat:300007836"
        ],
        "id": 7495402,
        "name:xx": "Xilong Qiao"
      }
    },
    {
      "geometry": {
        "type": "Point",
        "coordinates": [
          120.572948,
          23.248592
        ]
      },
      "type": "Feature",
      "properties": {
        "hierarchy": [
          "tgn:7495403",
          "tgn:7468018",
          "tgn:1000004",
          "tgn:1000141",
          "tgn:7029392"
        ],
        "placetype": [
          "aat:300008347"
        ],
        "id": 7495403,
        "name:xx": "Niusheziping"
      }
    },
    {
      "geometry": {
        "type": "Point",
        "coordinates": [
          120.56425,
          23.409385
        ]
      },
      "type": "Feature",
      "properties": {
        "hierarchy": [
          "tgn:7495404",
          "tgn:7468018",
          "tgn:1000004",
          "tgn:1000141",
          "tgn:7029392"
        ],
        "placetype": [
          "aat:300008798"
        ],
        "id": 7495404,
        "name:xx": "Yingge Shan"
      }
    },
    {
      "geometry": {
        "type": "Point",
        "coordinates": [
          120.568594,
          23.400924
        ]
      },
      "type": "Feature",
      "properties": {
        "hierarchy": [
          "tgn:7495405",
          "tgn:7468018",
          "tgn:1000004",
          "tgn:1000141",
          "tgn:7029392"
        ],
        "placetype": [
          "aat:300008347"
        ],
        "id": 7495405,
        "name:xx": "Bengliaotian"
      }
    },
    {
      "geometry": {
        "type": "Point",
        "coordinates": [
          120.546718,
          23.373083
        ]
      },
      "type": "Feature",
      "properties": {
        "hierarchy": [
          "tgn:7495406",
          "tgn:7468018",
          "tgn:1000004",
          "tgn:1000141",
          "tgn:7029392"
        ],
        "placetype": [
          "aat:300008798"
        ],
        "id": 7495406,
        "name:xx": "Xiwujian Shan"
      }
    },
    {
      "geometry": {
        "type": "Point",
        "coordinates": [
          120.551278,
          23.371902
        ]
      },
      "type": "Feature",
      "properties": {
        "hierarchy": [
          "tgn:7495407",
          "tgn:7468018",
          "tgn:1000004",
          "tgn:1000141",
          "tgn:7029392"
        ],
        "placetype": [
          "aat:300008798"
        ],
        "id": 7495407,
        "name:xx": "Niaozui Shan"
      }
    }
  ]
}
