{
  "type": "FeatureCollection",
  "features": [
    {
      "geometry": {
        "type": "Point",
        "coordinates": [
          12.612222,
          45.9075
        ]
      },
      "type": "Feature",
      "properties": {
        "hierarchy": [
          "tgn:7035080",
          "tgn:1003488",
          "tgn:1000003",
          "tgn:7002993",
          "tgn:1000080",
          "tgn:7029392"
        ],
        "placetype": [
          "aat:300008699"
        ],
        "id": 7035080,
        "name:xx": "Noncello"
      }
    },
    {
      "geometry": {
        "type": "Point",
        "coordinates": [
          13.251389,
          46.035
        ]
      },
      "type": "Feature",
      "properties": {
        "hierarchy": [
          "tgn:7035081",
          "tgn:1003506",
          "tgn:1000003",
          "tgn:7002993",
          "tgn:1000080",
          "tgn:7029392"
        ],
        "placetype": [
          "aat:300008347"
        ],
        "id": 7035081,
        "name:xx": "Cussignacco"
      }
    },
    {
      "geometry": {
        "type": "Point",
        "coordinates": [
          13.324167,
          46.006944
        ]
      },
      "type": "Feature",
      "properties": {
        "hierarchy": [
          "tgn:7035083",
          "tgn:1003506",
          "tgn:1000003",
          "tgn:7002993",
          "tgn:1000080",
          "tgn:7029392"
        ],
        "placetype": [
          "aat:300008347"
        ],
        "id": 7035083,
        "name:xx": "Caminetto"
      }
    },
    {
      "geometry": {
        "type": "Point",
        "coordinates": [
          13.304722,
          46.016111
        ]
      },
      "type": "Feature",
      "properties": {
        "hierarchy": [
          "tgn:7035084",
          "tgn:1003506",
          "tgn:1000003",
          "tgn:7002993",
          "tgn:1000080",
          "tgn:7029392"
        ],
        "placetype": [
          "aat:300008347"
        ],
        "id": 7035084,
        "name:xx": "Lovarie"
      }
    },
    {
      "geometry": {
        "type": "Point",
        "coordinates": [
          13.333611,
          46.02
        ]
      },
      "type": "Feature",
      "properties": {
        "hierarchy": [
          "tgn:7035085",
          "tgn:1003506",
          "tgn:1000003",
          "tgn:7002993",
          "tgn:1000080",
          "tgn:7029392"
        ],
        "placetype": [
          "aat:300008347"
        ],
        "id": 7035085,
        "name:xx": "Vicinale"
      }
    },
    {
      "geometry": {
        "type": "Point",
        "coordinates": [
          13.305833,
          46.033611
        ]
      },
      "type": "Feature",
      "properties": {
        "hierarchy": [
          "tgn:7035086",
          "tgn:1003506",
          "tgn:1000003",
          "tgn:7002993",
          "tgn:1000080",
          "tgn:7029392"
        ],
        "placetype": [
          "aat:300008347"
        ],
        "id": 7035086,
        "name:xx": "Pradamano"
      }
    },
    {
      "geometry": {
        "type": "Point",
        "coordinates": [
          13.310833,
          46.053889
        ]
      },
      "type": "Feature",
      "properties": {
        "hierarchy": [
          "tgn:7035087",
          "tgn:1003506",
          "tgn:1000003",
          "tgn:7002993",
          "tgn:1000080",
          "tgn:7029392"
        ],
        "placetype": [
          "aat:300008347"
        ],
        "id": 7035087,
        "name:xx": "Cerneglons"
      }
    },
    {
      "geometry": {
        "type": "Point",
        "coordinates": [
          13.322778,
          46.071111
        ]
      },
      "type": "Feature",
      "properties": {
        "hierarchy": [
          "tgn:7035088",
          "tgn:1003506",
          "tgn:1000003",
          "tgn:7002993",
          "tgn:1000080",
          "tgn:7029392"
        ],
        "placetype": [
          "aat:300008347"
        ],
        "id": 7035088,
        "name:xx": "Selvis"
      }
    },
    {
      "geometry": {
        "type": "Point",
        "coordinates": [
          13.344444,
          46.072778
        ]
      },
      "type": "Feature",
      "properties": {
        "hierarchy": [
          "tgn:7035089",
          "tgn:1003506",
          "tgn:1000003",
          "tgn:7002993",
          "tgn:1000080",
          "tgn:7029392"
        ],
        "placetype": [
          "aat:300008347"
        ],
        "id": 7035089,
        "name:xx": "Borgo"
      }
    }
  ]
}
