{
  "type": "FeatureCollection",
  "features": [
    {
      "geometry": {
        "type": "Point",
        "coordinates": [
          -67.0833,
          -6.75
        ]
      },
      "type": "Feature",
      "properties": {
        "hierarchy": [
          "tgn:1130150",
          "tgn:1001826",
          "tgn:1000047",
          "tgn:7002456",
          "tgn:1000002",
          "tgn:7029392"
        ],
        "placetype": [
          "aat:300008707"
        ],
        "id": 1130150,
        "name:xx": "Sol, Rio do"
      }
    },
    {
      "geometry": {
        "type": "Point",
        "coordinates": [
          2.7167,
          48.0333
        ]
      },
      "type": "Feature",
      "properties": {
        "hierarchy": [
          "tgn:1130152",
          "tgn:1000003",
          "tgn:7002877",
          "tgn:1000070",
          "tgn:7029392"
        ],
        "placetype": [
          "aat:300008707"
        ],
        "id": 1130152,
        "name:xx": "Solin, Ruisseau le"
      }
    },
    {
      "geometry": {
        "type": "Point",
        "coordinates": [
          -98.4167,
          39.4667
        ]
      },
      "type": "Feature",
      "properties": {
        "hierarchy": [
          "tgn:1130154",
          "tgn:1000001",
          "tgn:7012149",
          "tgn:7007254",
          "tgn:7029392"
        ],
        "placetype": [
          "aat:300008707"
        ],
        "id": 1130154,
        "name:xx": "Solomon"
      }
    },
    {
      "geometry": {
        "type": "Point",
        "coordinates": [
          -5.2833,
          51.8667
        ]
      },
      "type": "Feature",
      "properties": {
        "hierarchy": [
          "tgn:1130157",
          "tgn:7002443",
          "tgn:1000003",
          "tgn:7018993",
          "tgn:7008591",
          "tgn:7029392"
        ],
        "placetype": [
          "aat:300008707",
          "aat:300008699"
        ],
        "id": 1130157,
        "name:xx": "Solva"
      }
    },
    {
      "geometry": {
        "type": "Point",
        "coordinates": [
          23.366,
          46.733
        ]
      },
      "type": "Feature",
      "properties": {
        "hierarchy": [
          "tgn:1130159",
          "tgn:1000003",
          "tgn:1000091",
          "tgn:7029392"
        ],
        "placetype": [
          "aat:300008707"
        ],
        "id": 1130159,
        "name:xx": "Some»ôul Cald"
      }
    }
  ]
}
