{
  "type": "FeatureCollection",
  "features": [
    {
      "geometry": {
        "type": "Point",
        "coordinates": [
          121.814933,
          24.685367
        ]
      },
      "type": "Feature",
      "properties": {
        "hierarchy": [
          "tgn:7478490",
          "tgn:1000004",
          "tgn:7489179",
          "tgn:1000141",
          "tgn:7029392"
        ],
        "placetype": [
          "aat:300007595"
        ],
        "id": 7478490,
        "name:xx": "Xin'an Gong"
      }
    },
    {
      "geometry": {
        "type": "Point",
        "coordinates": [
          121.8066,
          24.6857
        ]
      },
      "type": "Feature",
      "properties": {
        "hierarchy": [
          "tgn:7478491",
          "tgn:1000004",
          "tgn:7489179",
          "tgn:1000141",
          "tgn:7029392"
        ],
        "placetype": [
          "aat:300387033"
        ],
        "id": 7478491,
        "name:xx": "Hongguo"
      }
    },
    {
      "geometry": {
        "type": "Point",
        "coordinates": [
          121.799191,
          24.68802
        ]
      },
      "type": "Feature",
      "properties": {
        "hierarchy": [
          "tgn:7478492",
          "tgn:1000004",
          "tgn:7489179",
          "tgn:1000141",
          "tgn:7029392"
        ],
        "placetype": [
          "aat:300006495"
        ],
        "id": 7478492,
        "name:xx": "Wujie Guoxiao"
      }
    },
    {
      "geometry": {
        "type": "Point",
        "coordinates": [
          121.794718,
          24.688118
        ]
      },
      "type": "Feature",
      "properties": {
        "hierarchy": [
          "tgn:7478493",
          "tgn:1000004",
          "tgn:7489179",
          "tgn:1000141",
          "tgn:7029392"
        ],
        "placetype": [
          "aat:300007836"
        ],
        "id": 7478493,
        "name:xx": "Guomin Qiao"
      }
    },
    {
      "geometry": {
        "type": "Point",
        "coordinates": [
          121.771039,
          24.686085
        ]
      },
      "type": "Feature",
      "properties": {
        "hierarchy": [
          "tgn:7478494",
          "tgn:1000004",
          "tgn:7489179",
          "tgn:1000141",
          "tgn:7029392"
        ],
        "placetype": [
          "aat:300007836"
        ],
        "id": 7478494,
        "name:xx": "Dazhulin Qiao"
      }
    },
    {
      "geometry": {
        "type": "Point",
        "coordinates": [
          121.766775,
          24.681524
        ]
      },
      "type": "Feature",
      "properties": {
        "hierarchy": [
          "tgn:7478495",
          "tgn:1000004",
          "tgn:7489179",
          "tgn:1000141",
          "tgn:7029392"
        ],
        "placetype": [
          "aat:300006495"
        ],
        "id": 7478495,
        "name:xx": "Luodong Guozhong"
      }
    },
    {
      "geometry": {
        "type": "Point",
        "coordinates": [
          121.766992,
          24.688552
        ]
      },
      "type": "Feature",
      "properties": {
        "hierarchy": [
          "tgn:7478496",
          "tgn:1000004",
          "tgn:7489179",
          "tgn:1000141",
          "tgn:7029392"
        ],
        "placetype": [
          "aat:300006495"
        ],
        "id": 7478496,
        "name:xx": "Zhulin Guoxiao"
      }
    },
    {
      "geometry": {
        "type": "Point",
        "coordinates": [
          121.77241,
          24.691668
        ]
      },
      "type": "Feature",
      "properties": {
        "hierarchy": [
          "tgn:7478497",
          "tgn:1000004",
          "tgn:7489179",
          "tgn:1000141",
          "tgn:7029392"
        ],
        "placetype": [
          "aat:300006495"
        ],
        "id": 7478497,
        "name:xx": "Zhongxing Guoxiao"
      }
    },
    {
      "geometry": {
        "type": "Point",
        "coordinates": [
          121.771263,
          24.699193
        ]
      },
      "type": "Feature",
      "properties": {
        "hierarchy": [
          "tgn:7478498",
          "tgn:1000004",
          "tgn:7489179",
          "tgn:1000141",
          "tgn:7029392"
        ],
        "placetype": [
          "aat:300006495"
        ],
        "id": 7478498,
        "name:xx": "Xingzhong Guoxiao"
      }
    },
    {
      "geometry": {
        "type": "Point",
        "coordinates": [
          121.7805,
          24.6954
        ]
      },
      "type": "Feature",
      "properties": {
        "hierarchy": [
          "tgn:7478499",
          "tgn:1000004",
          "tgn:7489179",
          "tgn:1000141",
          "tgn:7029392"
        ],
        "placetype": [
          "aat:300007836"
        ],
        "id": 7478499,
        "name:xx": "Sanjie Qiao"
      }
    }
  ]
}
