{
  "type": "FeatureCollection",
  "features": [
    {
      "geometry": {
        "type": "Point",
        "coordinates": [
          84.867234,
          25.834403
        ]
      },
      "type": "Feature",
      "properties": {
        "hierarchy": [
          "tgn:7573960",
          "tgn:1000004",
          "tgn:1001842",
          "tgn:7000198",
          "tgn:7029392"
        ],
        "placetype": [
          "aat:300008347"
        ],
        "name:en": "Garkha",
        "id": 7573960
      }
    },
    {
      "geometry": {
        "type": "Point",
        "coordinates": [
          79.145491,
          29.481684
        ]
      },
      "type": "Feature",
      "properties": {
        "hierarchy": [
          "tgn:7573961",
          "tgn:1000004",
          "tgn:7000198",
          "tgn:7031786",
          "tgn:7029392"
        ],
        "placetype": [
          "aat:300008347"
        ],
        "name:en": "Garjia",
        "id": 7573961
      }
    },
    {
      "geometry": {
        "type": "Point",
        "coordinates": [
          83.55,
          18.283333
        ]
      },
      "type": "Feature",
      "properties": {
        "hierarchy": [
          "tgn:7573962",
          "tgn:1001828",
          "tgn:1000004",
          "tgn:7000198",
          "tgn:7029392"
        ],
        "placetype": [
          "aat:300007783"
        ],
        "name:en": "Garividi",
        "id": 7573962
      }
    },
    {
      "geometry": {
        "type": "Point",
        "coordinates": [
          79.466667,
          14.366667
        ]
      },
      "type": "Feature",
      "properties": {
        "hierarchy": [
          "tgn:7573963",
          "tgn:1001828",
          "tgn:1000004",
          "tgn:7000198",
          "tgn:7029392"
        ],
        "placetype": [
          "aat:300008347"
        ],
        "name:en": "Garimenapenta",
        "id": 7573963
      }
    },
    {
      "geometry": {
        "type": "Point",
        "coordinates": [
          88.436287,
          22.920163
        ]
      },
      "type": "Feature",
      "properties": {
        "hierarchy": [
          "tgn:7573964",
          "tgn:1000004",
          "tgn:7000198",
          "tgn:1001977",
          "tgn:7029392"
        ],
        "placetype": [
          "aat:300007783"
        ],
        "name:en": "Garifa",
        "id": 7573964
      }
    },
    {
      "geometry": {
        "type": "Point",
        "coordinates": [
          73.283333,
          16.966667
        ]
      },
      "type": "Feature",
      "properties": {
        "hierarchy": [
          "tgn:7573966",
          "tgn:1000004",
          "tgn:7000198",
          "tgn:1001895",
          "tgn:7029392"
        ],
        "placetype": [
          "aat:300008699"
        ],
        "name:en": "KƒÅjvi River",
        "id": 7573966
      }
    },
    {
      "geometry": {
        "type": "Point",
        "coordinates": [
          74.194039,
          24.190937
        ]
      },
      "type": "Feature",
      "properties": {
        "hierarchy": [
          "tgn:7573967",
          "tgn:1000004",
          "tgn:7000198",
          "tgn:7016788",
          "tgn:7029392"
        ],
        "placetype": [
          "aat:300008347"
        ],
        "name:en": "Khajuri",
        "id": 7573967
      }
    },
    {
      "geometry": {
        "type": "Point",
        "coordinates": [
          86.261667,
          25.181747
        ]
      },
      "type": "Feature",
      "properties": {
        "hierarchy": [
          "tgn:7573968",
          "tgn:1000004",
          "tgn:1001842",
          "tgn:7000198",
          "tgn:7029392"
        ],
        "placetype": [
          "aat:300007783"
        ],
        "name:en": "Kajra",
        "id": 7573968
      }
    },
    {
      "geometry": {
        "type": "Point",
        "coordinates": [
          74.465612,
          22.943335
        ]
      },
      "type": "Feature",
      "properties": {
        "hierarchy": [
          "tgn:7573969",
          "tgn:1000004",
          "tgn:7000198",
          "tgn:1001894",
          "tgn:7029392"
        ],
        "placetype": [
          "aat:300008347"
        ],
        "name:en": "Kajlidong",
        "id": 7573969
      }
    }
  ]
}
