{
  "type": "FeatureCollection",
  "features": [
    {
      "geometry": {
        "type": "Point",
        "coordinates": [
          73.852778,
          28.008333
        ]
      },
      "type": "Feature",
      "properties": {
        "hierarchy": [
          "tgn:7592840",
          "tgn:1000004",
          "tgn:7000198",
          "tgn:7016788",
          "tgn:7029392"
        ],
        "placetype": [
          "aat:300008347"
        ],
        "name:en": "Pyāu",
        "id": 7592840
      }
    },
    {
      "geometry": {
        "type": "Point",
        "coordinates": [
          73.933333,
          28.009722
        ]
      },
      "type": "Feature",
      "properties": {
        "hierarchy": [
          "tgn:7592841",
          "tgn:1000004",
          "tgn:7000198",
          "tgn:7016788",
          "tgn:7029392"
        ],
        "placetype": [
          "aat:300008347"
        ],
        "name:en": "Pyāu",
        "id": 7592841
      }
    },
    {
      "geometry": {
        "type": "Point",
        "coordinates": [
          73.997222,
          28.022222
        ]
      },
      "type": "Feature",
      "properties": {
        "hierarchy": [
          "tgn:7592842",
          "tgn:1000004",
          "tgn:7000198",
          "tgn:7016788",
          "tgn:7029392"
        ],
        "placetype": [
          "aat:300008750"
        ],
        "name:en": "Lodiya Dhora",
        "id": 7592842
      }
    },
    {
      "geometry": {
        "type": "Point",
        "coordinates": [
          73.894076,
          28.067069
        ]
      },
      "type": "Feature",
      "properties": {
        "hierarchy": [
          "tgn:7592843",
          "tgn:1000004",
          "tgn:7000198",
          "tgn:7016788",
          "tgn:7029392"
        ],
        "placetype": [
          "aat:300007783"
        ],
        "name:en": "Benisar Railroad Station",
        "id": 7592843
      }
    },
    {
      "geometry": {
        "type": "Point",
        "coordinates": [
          73.85,
          28.022222
        ]
      },
      "type": "Feature",
      "properties": {
        "hierarchy": [
          "tgn:7592844",
          "tgn:1000004",
          "tgn:7000198",
          "tgn:7016788",
          "tgn:7029392"
        ],
        "placetype": [
          "aat:300008347"
        ],
        "name:en": "Bāsi Maiyān",
        "id": 7592844
      }
    },
    {
      "geometry": {
        "type": "Point",
        "coordinates": [
          73.784396,
          28.025855
        ]
      },
      "type": "Feature",
      "properties": {
        "hierarchy": [
          "tgn:7592845",
          "tgn:1000004",
          "tgn:7000198",
          "tgn:7016788",
          "tgn:7029392"
        ],
        "placetype": [
          "aat:300008347"
        ],
        "name:en": "Gopālsar",
        "id": 7592845
      }
    },
    {
      "geometry": {
        "type": "Point",
        "coordinates": [
          73.786111,
          28.005556
        ]
      },
      "type": "Feature",
      "properties": {
        "hierarchy": [
          "tgn:7592846",
          "tgn:1000004",
          "tgn:7000198",
          "tgn:7016788",
          "tgn:7029392"
        ],
        "placetype": [
          "aat:300008347"
        ],
        "name:en": "Neprāna Talāv",
        "id": 7592846
      }
    },
    {
      "geometry": {
        "type": "Point",
        "coordinates": [
          73.769002,
          28.027056
        ]
      },
      "type": "Feature",
      "properties": {
        "hierarchy": [
          "tgn:7592847",
          "tgn:1000004",
          "tgn:7000198",
          "tgn:7016788",
          "tgn:7029392"
        ],
        "placetype": [
          "aat:300008347"
        ],
        "name:en": "Derājsar",
        "id": 7592847
      }
    },
    {
      "geometry": {
        "type": "Point",
        "coordinates": [
          74.030955,
          28.111265
        ]
      },
      "type": "Feature",
      "properties": {
        "hierarchy": [
          "tgn:7592848",
          "tgn:1000004",
          "tgn:7000198",
          "tgn:7016788",
          "tgn:7029392"
        ],
        "placetype": [
          "aat:300008347"
        ],
        "name:en": "Piāo",
        "id": 7592848
      }
    },
    {
      "geometry": {
        "type": "Point",
        "coordinates": [
          73.986111,
          28.136111
        ]
      },
      "type": "Feature",
      "properties": {
        "hierarchy": [
          "tgn:7592849",
          "tgn:1000004",
          "tgn:7000198",
          "tgn:7016788",
          "tgn:7029392"
        ],
        "placetype": [
          "aat:300008750"
        ],
        "name:en": "Jodha Ka Dhora",
        "id": 7592849
      }
    }
  ]
}
