{
  "type": "FeatureCollection",
  "features": [
    {
      "geometry": {
        "type": "Point",
        "coordinates": [
          120.684167,
          23.738889
        ]
      },
      "type": "Feature",
      "properties": {
        "hierarchy": [
          "tgn:7491390",
          "tgn:7488858",
          "tgn:1000004",
          "tgn:1000141",
          "tgn:7029392"
        ],
        "placetype": [
          "aat:300008347"
        ],
        "id": 7491390,
        "name:xx": "Dakeng"
      }
    },
    {
      "geometry": {
        "type": "Point",
        "coordinates": [
          121.720132,
          25.150278
        ]
      },
      "type": "Feature",
      "properties": {
        "hierarchy": [
          "tgn:7491395",
          "tgn:1000957",
          "tgn:1000004",
          "tgn:1000141",
          "tgn:7029392"
        ],
        "placetype": [
          "aat:300008347"
        ],
        "id": 7491395,
        "name:xx": "Daganlin"
      }
    },
    {
      "geometry": {
        "type": "Point",
        "coordinates": [
          120.345,
          22.841111
        ]
      },
      "type": "Feature",
      "properties": {
        "hierarchy": [
          "tgn:7491396",
          "tgn:7001004",
          "tgn:1000004",
          "tgn:1000141",
          "tgn:7029392"
        ],
        "placetype": [
          "aat:300008795"
        ],
        "id": 7491396,
        "name:xx": "Dagang Shan"
      }
    },
    {
      "geometry": {
        "type": "Point",
        "coordinates": [
          120.294891,
          22.613591
        ]
      },
      "type": "Feature",
      "properties": {
        "hierarchy": [
          "tgn:7491397",
          "tgn:7001004",
          "tgn:1000004",
          "tgn:1000141",
          "tgn:7029392"
        ],
        "placetype": [
          "aat:300000745"
        ],
        "id": 7491397,
        "name:xx": "Dagangbu"
      }
    },
    {
      "geometry": {
        "type": "Point",
        "coordinates": [
          121.497481,
          23.46936
        ]
      },
      "type": "Feature",
      "properties": {
        "hierarchy": [
          "tgn:7491398",
          "tgn:7001010",
          "tgn:1000004",
          "tgn:1000141",
          "tgn:7029392"
        ],
        "placetype": [
          "aat:300008347"
        ],
        "id": 7491398,
        "name:xx": "Dagangkou"
      }
    },
    {
      "geometry": {
        "type": "Point",
        "coordinates": [
          121.848966,
          25.099321
        ]
      },
      "type": "Feature",
      "properties": {
        "hierarchy": [
          "tgn:7491399",
          "tgn:1000004",
          "tgn:1000454",
          "tgn:1000141",
          "tgn:7029392"
        ],
        "placetype": [
          "aat:300008347"
        ],
        "id": 7491399,
        "name:xx": "Dacukeng"
      }
    }
  ]
}
