{
  "type": "FeatureCollection",
  "features": [
    {
      "geometry": {
        "type": "Point",
        "coordinates": [
          120.690414,
          23.980373
        ]
      },
      "type": "Feature",
      "properties": {
        "hierarchy": [
          "tgn:7475730",
          "tgn:7488858",
          "tgn:1000004",
          "tgn:1000141",
          "tgn:7029392"
        ],
        "placetype": [
          "aat:300006610"
        ],
        "id": 7475730,
        "name:xx": "Caotun Shanggong"
      }
    },
    {
      "geometry": {
        "type": "Point",
        "coordinates": [
          120.702,
          23.9792
        ]
      },
      "type": "Feature",
      "properties": {
        "hierarchy": [
          "tgn:7475731",
          "tgn:7488858",
          "tgn:1000004",
          "tgn:1000141",
          "tgn:7029392"
        ],
        "placetype": [
          "aat:300008347"
        ],
        "id": 7475731,
        "name:xx": "Sanmuzhuzi"
      }
    },
    {
      "geometry": {
        "type": "Point",
        "coordinates": [
          120.697,
          23.9799
        ]
      },
      "type": "Feature",
      "properties": {
        "hierarchy": [
          "tgn:7475732",
          "tgn:7488858",
          "tgn:1000004",
          "tgn:1000141",
          "tgn:7029392"
        ],
        "placetype": [
          "aat:300006610"
        ],
        "id": 7475732,
        "name:xx": "Nankai Jishu Xueyuan"
      }
    },
    {
      "geometry": {
        "type": "Point",
        "coordinates": [
          120.6987,
          23.9797
        ]
      },
      "type": "Feature",
      "properties": {
        "hierarchy": [
          "tgn:7475733",
          "tgn:7488858",
          "tgn:1000004",
          "tgn:1000141",
          "tgn:7029392"
        ],
        "placetype": [
          "aat:300006495"
        ],
        "id": 7475733,
        "name:xx": "Fugong Guoxiao"
      }
    },
    {
      "geometry": {
        "type": "Point",
        "coordinates": [
          120.6922,
          23.9835
        ]
      },
      "type": "Feature",
      "properties": {
        "hierarchy": [
          "tgn:7475734",
          "tgn:7488858",
          "tgn:1000004",
          "tgn:1000141",
          "tgn:7029392"
        ],
        "placetype": [
          "aat:300007836"
        ],
        "id": 7475734,
        "name:xx": "Xuguang Qiao"
      }
    },
    {
      "geometry": {
        "type": "Point",
        "coordinates": [
          120.6942,
          23.9811
        ]
      },
      "type": "Feature",
      "properties": {
        "hierarchy": [
          "tgn:7475735",
          "tgn:7488858",
          "tgn:1000004",
          "tgn:1000141",
          "tgn:7029392"
        ],
        "placetype": [
          "aat:300006495"
        ],
        "id": 7475735,
        "name:xx": "Xuguang Guoxiao"
      }
    },
    {
      "geometry": {
        "type": "Point",
        "coordinates": [
          120.7065,
          23.988414
        ]
      },
      "type": "Feature",
      "properties": {
        "hierarchy": [
          "tgn:7475736",
          "tgn:7488858",
          "tgn:1000004",
          "tgn:1000141",
          "tgn:7029392"
        ],
        "placetype": [
          "aat:300008347"
        ],
        "id": 7475736,
        "name:xx": "Shuangchagang"
      }
    },
    {
      "geometry": {
        "type": "Point",
        "coordinates": [
          120.740851,
          23.929057
        ]
      },
      "type": "Feature",
      "properties": {
        "hierarchy": [
          "tgn:7475737",
          "tgn:7488858",
          "tgn:1000004",
          "tgn:1000141",
          "tgn:7029392"
        ],
        "placetype": [
          "aat:300008347"
        ],
        "id": 7475737,
        "name:xx": "Zhuweizi"
      }
    },
    {
      "geometry": {
        "type": "Point",
        "coordinates": [
          120.7203,
          23.9775
        ]
      },
      "type": "Feature",
      "properties": {
        "hierarchy": [
          "tgn:7475738",
          "tgn:7488858",
          "tgn:1000004",
          "tgn:1000141",
          "tgn:7029392"
        ],
        "placetype": [
          "aat:300008347"
        ],
        "id": 7475738,
        "name:xx": "Dingjiaocuo"
      }
    },
    {
      "geometry": {
        "type": "Point",
        "coordinates": [
          120.722985,
          23.980192
        ]
      },
      "type": "Feature",
      "properties": {
        "hierarchy": [
          "tgn:7475739",
          "tgn:7488858",
          "tgn:1000004",
          "tgn:1000141",
          "tgn:7029392"
        ],
        "placetype": [
          "aat:300008347"
        ],
        "id": 7475739,
        "name:xx": "Tianzhongyang"
      }
    }
  ]
}
