{
  "type": "FeatureCollection",
  "features": [
    {
      "geometry": {
        "type": "Point",
        "coordinates": [
          74.108162,
          34.301294
        ]
      },
      "type": "Feature",
      "properties": {
        "hierarchy": [
          "tgn:7586250",
          "tgn:1000004",
          "tgn:7000198",
          "tgn:7000799",
          "tgn:7029392"
        ],
        "placetype": [
          "aat:300008347"
        ],
        "name:en": "Kotpathar",
        "id": 7586250
      }
    },
    {
      "geometry": {
        "type": "Point",
        "coordinates": [
          74.203799,
          34.343717
        ]
      },
      "type": "Feature",
      "properties": {
        "hierarchy": [
          "tgn:7586251",
          "tgn:1000004",
          "tgn:7000198",
          "tgn:7000799",
          "tgn:7029392"
        ],
        "placetype": [
          "aat:300008347"
        ],
        "name:en": "Kotlari",
        "id": 7586251
      }
    },
    {
      "geometry": {
        "type": "Point",
        "coordinates": [
          74.227109,
          34.292688
        ]
      },
      "type": "Feature",
      "properties": {
        "hierarchy": [
          "tgn:7586252",
          "tgn:1000004",
          "tgn:7000198",
          "tgn:7000799",
          "tgn:7029392"
        ],
        "placetype": [
          "aat:300008347"
        ],
        "name:en": "Kitardaij",
        "id": 7586252
      }
    },
    {
      "geometry": {
        "type": "Point",
        "coordinates": [
          74.129481,
          34.458378
        ]
      },
      "type": "Feature",
      "properties": {
        "hierarchy": [
          "tgn:7586253",
          "tgn:1000004",
          "tgn:7000198",
          "tgn:7000799",
          "tgn:7029392"
        ],
        "placetype": [
          "aat:300008347"
        ],
        "name:en": "Kinyal",
        "id": 7586253
      }
    },
    {
      "geometry": {
        "type": "Point",
        "coordinates": [
          74.0589,
          34.335148
        ]
      },
      "type": "Feature",
      "properties": {
        "hierarchy": [
          "tgn:7586254",
          "tgn:1000004",
          "tgn:7000198",
          "tgn:7000799",
          "tgn:7029392"
        ],
        "placetype": [
          "aat:300008347"
        ],
        "name:en": "Khudriwāla",
        "id": 7586254
      }
    },
    {
      "geometry": {
        "type": "Point",
        "coordinates": [
          74.194894,
          34.33783
        ]
      },
      "type": "Feature",
      "properties": {
        "hierarchy": [
          "tgn:7586255",
          "tgn:1000004",
          "tgn:7000198",
          "tgn:7000799",
          "tgn:7029392"
        ],
        "placetype": [
          "aat:300008347"
        ],
        "name:en": "Khori",
        "id": 7586255
      }
    },
    {
      "geometry": {
        "type": "Point",
        "coordinates": [
          74.081944,
          34.322222
        ]
      },
      "type": "Feature",
      "properties": {
        "hierarchy": [
          "tgn:7586256",
          "tgn:1000004",
          "tgn:7000198",
          "tgn:7000799",
          "tgn:7029392"
        ],
        "placetype": [
          "aat:300008347"
        ],
        "name:en": "Khappi",
        "id": 7586256
      }
    },
    {
      "geometry": {
        "type": "Point",
        "coordinates": [
          74.024282,
          34.47938
        ]
      },
      "type": "Feature",
      "properties": {
        "hierarchy": [
          "tgn:7586257",
          "tgn:1000004",
          "tgn:7000198",
          "tgn:7000799",
          "tgn:7029392"
        ],
        "placetype": [
          "aat:300008347"
        ],
        "name:en": "Khanbal",
        "id": 7586257
      }
    },
    {
      "geometry": {
        "type": "Point",
        "coordinates": [
          74.208928,
          34.420722
        ]
      },
      "type": "Feature",
      "properties": {
        "hierarchy": [
          "tgn:7586258",
          "tgn:1000004",
          "tgn:7000198",
          "tgn:7000799",
          "tgn:7029392"
        ],
        "placetype": [
          "aat:300008347"
        ],
        "name:en": "Khaipur",
        "id": 7586258
      }
    },
    {
      "geometry": {
        "type": "Point",
        "coordinates": [
          74.081212,
          34.32079
        ]
      },
      "type": "Feature",
      "properties": {
        "hierarchy": [
          "tgn:7586259",
          "tgn:1000004",
          "tgn:7000198",
          "tgn:7000799",
          "tgn:7029392"
        ],
        "placetype": [
          "aat:300008347"
        ],
        "name:en": "Kashtwār",
        "id": 7586259
      }
    }
  ]
}
