{
  "type": "FeatureCollection",
  "features": [
    {
      "geometry": {
        "type": "Point",
        "coordinates": [
          121.349358,
          24.850347
        ]
      },
      "type": "Feature",
      "properties": {
        "hierarchy": [
          "tgn:7494120",
          "tgn:1000004",
          "tgn:1000454",
          "tgn:1000141",
          "tgn:7029392"
        ],
        "placetype": [
          "aat:300008347"
        ],
        "id": 7494120,
        "name:xx": "Xiangtianpo"
      }
    },
    {
      "geometry": {
        "type": "Point",
        "coordinates": [
          121.284142,
          24.858956
        ]
      },
      "type": "Feature",
      "properties": {
        "hierarchy": [
          "tgn:7494121",
          "tgn:1000004",
          "tgn:7001013",
          "tgn:1000141",
          "tgn:7029392"
        ],
        "placetype": [
          "aat:300008347"
        ],
        "id": 7494121,
        "name:xx": "Dongneizha"
      }
    },
    {
      "geometry": {
        "type": "Point",
        "coordinates": [
          121.280246,
          24.857237
        ]
      },
      "type": "Feature",
      "properties": {
        "hierarchy": [
          "tgn:7494122",
          "tgn:1000004",
          "tgn:7001013",
          "tgn:1000141",
          "tgn:7029392"
        ],
        "placetype": [
          "aat:300008347"
        ],
        "id": 7494122,
        "name:xx": "Xineizha"
      }
    },
    {
      "geometry": {
        "type": "Point",
        "coordinates": [
          120.628412,
          22.8474
        ]
      },
      "type": "Feature",
      "properties": {
        "hierarchy": [
          "tgn:7494123",
          "tgn:1000004",
          "tgn:7492971",
          "tgn:1000141",
          "tgn:7029392"
        ],
        "placetype": [
          "aat:300008347"
        ],
        "id": 7494123,
        "name:xx": "Guaizishou"
      }
    },
    {
      "geometry": {
        "type": "Point",
        "coordinates": [
          120.639632,
          22.855235
        ]
      },
      "type": "Feature",
      "properties": {
        "hierarchy": [
          "tgn:7494124",
          "tgn:1000004",
          "tgn:7492971",
          "tgn:1000141",
          "tgn:7029392"
        ],
        "placetype": [
          "aat:300008347"
        ],
        "id": 7494124,
        "name:xx": "Zhuanziyao"
      }
    },
    {
      "geometry": {
        "type": "Point",
        "coordinates": [
          120.631173,
          22.863067
        ]
      },
      "type": "Feature",
      "properties": {
        "hierarchy": [
          "tgn:7494125",
          "tgn:1000004",
          "tgn:7492971",
          "tgn:1000141",
          "tgn:7029392"
        ],
        "placetype": [
          "aat:300008347"
        ],
        "id": 7494125,
        "name:xx": "Niuliao"
      }
    },
    {
      "geometry": {
        "type": "Point",
        "coordinates": [
          120.63592,
          22.861899
        ]
      },
      "type": "Feature",
      "properties": {
        "hierarchy": [
          "tgn:7494126",
          "tgn:1000004",
          "tgn:7492971",
          "tgn:1000141",
          "tgn:7029392"
        ],
        "placetype": [
          "aat:300008347"
        ],
        "id": 7494126,
        "name:xx": "Dashanliao"
      }
    },
    {
      "geometry": {
        "type": "Point",
        "coordinates": [
          120.64025,
          22.867031
        ]
      },
      "type": "Feature",
      "properties": {
        "hierarchy": [
          "tgn:7494127",
          "tgn:1000004",
          "tgn:7492971",
          "tgn:1000141",
          "tgn:7029392"
        ],
        "placetype": [
          "aat:300008347"
        ],
        "id": 7494127,
        "name:xx": "Yixingzhuang"
      }
    },
    {
      "geometry": {
        "type": "Point",
        "coordinates": [
          120.642717,
          22.870131
        ]
      },
      "type": "Feature",
      "properties": {
        "hierarchy": [
          "tgn:7494128",
          "tgn:1000004",
          "tgn:7492971",
          "tgn:1000141",
          "tgn:7029392"
        ],
        "placetype": [
          "aat:300008347"
        ],
        "id": 7494128,
        "name:xx": "Wahu"
      }
    },
    {
      "geometry": {
        "type": "Point",
        "coordinates": [
          120.622561,
          22.865781
        ]
      },
      "type": "Feature",
      "properties": {
        "hierarchy": [
          "tgn:7494129",
          "tgn:1000004",
          "tgn:7492971",
          "tgn:1000141",
          "tgn:7029392"
        ],
        "placetype": [
          "aat:300008347"
        ],
        "id": 7494129,
        "name:xx": "Liaozi"
      }
    }
  ]
}
