{
  "type": "FeatureCollection",
  "features": [
    {
      "geometry": {
        "type": "Point",
        "coordinates": [
          120.266667,
          23.35
        ]
      },
      "type": "Feature",
      "properties": {
        "hierarchy": [
          "tgn:7489232",
          "tgn:1000004",
          "tgn:7490934",
          "tgn:1000141",
          "tgn:7029392"
        ],
        "placetype": [
          "aat:300008347"
        ],
        "id": 7489232,
        "name:xx": "Lunzi"
      }
    },
    {
      "geometry": {
        "type": "Point",
        "coordinates": [
          120.532396,
          22.583376
        ]
      },
      "type": "Feature",
      "properties": {
        "hierarchy": [
          "tgn:7489233",
          "tgn:1000004",
          "tgn:7492971",
          "tgn:1000141",
          "tgn:7029392"
        ],
        "placetype": [
          "aat:300008347"
        ],
        "id": 7489233,
        "name:xx": "Lunzi"
      }
    },
    {
      "geometry": {
        "type": "Point",
        "coordinates": [
          120.573766,
          22.520022
        ]
      },
      "type": "Feature",
      "properties": {
        "hierarchy": [
          "tgn:7489234",
          "tgn:1000004",
          "tgn:7492971",
          "tgn:1000141",
          "tgn:7029392"
        ],
        "placetype": [
          "aat:300000498"
        ],
        "id": 7489234,
        "name:xx": "Lundong Shequ"
      }
    },
    {
      "geometry": {
        "type": "Point",
        "coordinates": [
          120.55623,
          22.534155
        ]
      },
      "type": "Feature",
      "properties": {
        "hierarchy": [
          "tgn:7489235",
          "tgn:1000004",
          "tgn:7492971",
          "tgn:1000141",
          "tgn:7029392"
        ],
        "placetype": [
          "aat:300008347"
        ],
        "id": 7489235,
        "name:xx": "Lunziding"
      }
    },
    {
      "geometry": {
        "type": "Point",
        "coordinates": [
          120.460843,
          22.582372
        ]
      },
      "type": "Feature",
      "properties": {
        "hierarchy": [
          "tgn:7489236",
          "tgn:1000004",
          "tgn:7492971",
          "tgn:1000141",
          "tgn:7029392"
        ],
        "placetype": [
          "aat:300008347"
        ],
        "id": 7489236,
        "name:xx": "Lundingwei"
      }
    },
    {
      "geometry": {
        "type": "Point",
        "coordinates": [
          120.088611,
          23.189722
        ]
      },
      "type": "Feature",
      "properties": {
        "hierarchy": [
          "tgn:7489238",
          "tgn:1000004",
          "tgn:7490934",
          "tgn:1000141",
          "tgn:7029392"
        ],
        "placetype": [
          "aat:300008347"
        ],
        "id": 7489238,
        "name:xx": "Qingkunshen"
      }
    },
    {
      "geometry": {
        "type": "Point",
        "coordinates": [
          121.073333,
          23.794444
        ]
      },
      "type": "Feature",
      "properties": {
        "hierarchy": [
          "tgn:7489239",
          "tgn:7488858",
          "tgn:1000004",
          "tgn:1000141",
          "tgn:7029392"
        ],
        "placetype": [
          "aat:300008347"
        ],
        "id": 7489239,
        "name:xx": "Kunuoha"
      }
    }
  ]
}
