{
  "type": "FeatureCollection",
  "features": [
    {
      "geometry": {
        "type": "Point",
        "coordinates": [
          -98.75,
          17.183333
        ]
      },
      "type": "Feature",
      "properties": {
        "hierarchy": [
          "tgn:7406570",
          "tgn:7005585",
          "tgn:1000001",
          "tgn:7005560",
          "tgn:7029392"
        ],
        "placetype": [
          "aat:300008699"
        ],
        "id": 7406570,
        "name:xx": "Malinaltepec, Río"
      }
    },
    {
      "geometry": {
        "type": "Point",
        "coordinates": [
          -98.683333,
          17.283333
        ]
      },
      "type": "Feature",
      "properties": {
        "hierarchy": [
          "tgn:7406571",
          "tgn:7005585",
          "tgn:1000001",
          "tgn:7005560",
          "tgn:7029392"
        ],
        "placetype": [
          "aat:300008347"
        ],
        "id": 7406571,
        "name:xx": "San Miguel"
      }
    },
    {
      "geometry": {
        "type": "Point",
        "coordinates": [
          -98.633333,
          17.291667
        ]
      },
      "type": "Feature",
      "properties": {
        "hierarchy": [
          "tgn:7406572",
          "tgn:7005585",
          "tgn:1000001",
          "tgn:7005560",
          "tgn:7029392"
        ],
        "placetype": [
          "aat:300008347"
        ],
        "id": 7406572,
        "name:xx": "Alacatlazala"
      }
    },
    {
      "geometry": {
        "type": "Point",
        "coordinates": [
          -98.466667,
          17.35
        ]
      },
      "type": "Feature",
      "properties": {
        "hierarchy": [
          "tgn:7406573",
          "tgn:7005585",
          "tgn:1000001",
          "tgn:7005560",
          "tgn:7029392"
        ],
        "placetype": [
          "aat:300008347"
        ],
        "id": 7406573,
        "name:xx": "Vincente Guerrero"
      }
    },
    {
      "geometry": {
        "type": "Point",
        "coordinates": [
          -98.433333,
          17.283333
        ]
      },
      "type": "Feature",
      "properties": {
        "hierarchy": [
          "tgn:7406574",
          "tgn:7005585",
          "tgn:1000001",
          "tgn:7005560",
          "tgn:7029392"
        ],
        "placetype": [
          "aat:300008699"
        ],
        "id": 7406574,
        "name:xx": "Grande, Río"
      }
    },
    {
      "geometry": {
        "type": "Point",
        "coordinates": [
          -98.466667,
          17.3125
        ]
      },
      "type": "Feature",
      "properties": {
        "hierarchy": [
          "tgn:7406575",
          "tgn:7005585",
          "tgn:1000001",
          "tgn:7005560",
          "tgn:7029392"
        ],
        "placetype": [
          "aat:300008347"
        ],
        "id": 7406575,
        "name:xx": "Lagunilla Yucutuni"
      }
    },
    {
      "geometry": {
        "type": "Point",
        "coordinates": [
          -98.433333,
          17.308333
        ]
      },
      "type": "Feature",
      "properties": {
        "hierarchy": [
          "tgn:7406576",
          "tgn:7005585",
          "tgn:1000001",
          "tgn:7005560",
          "tgn:7029392"
        ],
        "placetype": [
          "aat:300008347"
        ],
        "id": 7406576,
        "name:xx": "Cocuilotlazala"
      }
    },
    {
      "geometry": {
        "type": "Point",
        "coordinates": [
          -98.380556,
          17.366667
        ]
      },
      "type": "Feature",
      "properties": {
        "hierarchy": [
          "tgn:7406577",
          "tgn:7005585",
          "tgn:1000001",
          "tgn:7005560",
          "tgn:7029392"
        ],
        "placetype": [
          "aat:300008795"
        ],
        "id": 7406577,
        "name:xx": "Piedra Gris, Cerro"
      }
    },
    {
      "geometry": {
        "type": "Point",
        "coordinates": [
          -98.45,
          17.383333
        ]
      },
      "type": "Feature",
      "properties": {
        "hierarchy": [
          "tgn:7406578",
          "tgn:7005585",
          "tgn:1000001",
          "tgn:7005560",
          "tgn:7029392"
        ],
        "placetype": [
          "aat:300008347"
        ],
        "id": 7406578,
        "name:xx": "Xochapa"
      }
    },
    {
      "geometry": {
        "type": "Point",
        "coordinates": [
          -98.058333,
          17.35
        ]
      },
      "type": "Feature",
      "properties": {
        "hierarchy": [
          "tgn:7406579",
          "tgn:7005585",
          "tgn:1000001",
          "tgn:7005560",
          "tgn:7029392"
        ],
        "placetype": [
          "aat:300008347"
        ],
        "id": 7406579,
        "name:xx": "Tlaxco"
      }
    }
  ]
}
