{
  "type": "FeatureCollection",
  "features": [
    {
      "geometry": {
        "type": "Point",
        "coordinates": [
          24.963366,
          31.361352
        ]
      },
      "type": "Feature",
      "properties": {
        "hierarchy": [
          "tgn:7535720",
          "tgn:7001242",
          "tgn:7016833",
          "tgn:1001418",
          "tgn:7029392"
        ],
        "placetype": [
          "aat:300055621"
        ],
        "name:en": "Ghôt el Luûlu",
        "id": 7535720
      }
    },
    {
      "geometry": {
        "type": "Point",
        "coordinates": [
          26.366667,
          30.95
        ]
      },
      "type": "Feature",
      "properties": {
        "hierarchy": [
          "tgn:7535721",
          "tgn:7001242",
          "tgn:7016833",
          "tgn:1001418",
          "tgn:7029392"
        ],
        "placetype": [
          "aat:300055621"
        ],
        "name:en": "Ghôṭ el Shafshâf",
        "id": 7535721
      }
    },
    {
      "geometry": {
        "type": "Point",
        "coordinates": [
          26.366667,
          30.85
        ]
      },
      "type": "Feature",
      "properties": {
        "hierarchy": [
          "tgn:7535722",
          "tgn:7001242",
          "tgn:7016833",
          "tgn:1001418",
          "tgn:7029392"
        ],
        "placetype": [
          "aat:300055621"
        ],
        "name:en": "Ghôṭ el Qatrâni",
        "id": 7535722
      }
    },
    {
      "geometry": {
        "type": "Point",
        "coordinates": [
          24.872547,
          31.338965
        ]
      },
      "type": "Feature",
      "properties": {
        "hierarchy": [
          "tgn:7535723",
          "tgn:7001242",
          "tgn:7016833",
          "tgn:1001418",
          "tgn:7029392"
        ],
        "placetype": [
          "aat:300008777"
        ],
        "name:en": "Ghôt el Matiatta",
        "id": 7535723
      }
    },
    {
      "geometry": {
        "type": "Point",
        "coordinates": [
          24.962189,
          31.10565
        ]
      },
      "type": "Feature",
      "properties": {
        "hierarchy": [
          "tgn:7535724",
          "tgn:7001242",
          "tgn:7016833",
          "tgn:1001418",
          "tgn:7029392"
        ],
        "placetype": [
          "aat:300055621"
        ],
        "name:en": "Ghôt el Kaliala",
        "id": 7535724
      }
    },
    {
      "geometry": {
        "type": "Point",
        "coordinates": [
          24.943067,
          31.322171
        ]
      },
      "type": "Feature",
      "properties": {
        "hierarchy": [
          "tgn:7535725",
          "tgn:7001242",
          "tgn:7016833",
          "tgn:1001418",
          "tgn:7029392"
        ],
        "placetype": [
          "aat:300008777"
        ],
        "name:en": "Ghôt el Hazar",
        "id": 7535725
      }
    },
    {
      "geometry": {
        "type": "Point",
        "coordinates": [
          24.977769,
          31.474356
        ]
      },
      "type": "Feature",
      "properties": {
        "hierarchy": [
          "tgn:7535726",
          "tgn:7001242",
          "tgn:7016833",
          "tgn:1001418",
          "tgn:7029392"
        ],
        "placetype": [
          "aat:300008777"
        ],
        "name:en": "Ghôt Adhidîba",
        "id": 7535726
      }
    },
    {
      "geometry": {
        "type": "Point",
        "coordinates": [
          31.743116,
          30.616387
        ]
      },
      "type": "Feature",
      "properties": {
        "hierarchy": [
          "tgn:7535727",
          "tgn:7001242",
          "tgn:7016833",
          "tgn:1001113",
          "tgn:7029392"
        ],
        "placetype": [
          "aat:300008347"
        ],
        "id": 7535727,
        "name:xx": "Kafr al Laţā'ifah"
      }
    },
    {
      "geometry": {
        "type": "Point",
        "coordinates": [
          31.73,
          31.143409
        ]
      },
      "type": "Feature",
      "properties": {
        "hierarchy": [
          "tgn:7535728",
          "tgn:7001242",
          "tgn:1001059",
          "tgn:7016833",
          "tgn:7029392"
        ],
        "placetype": [
          "aat:300008347"
        ],
        "name:en": "Kafr 'Allâm",
        "id": 7535728
      }
    },
    {
      "geometry": {
        "type": "Point",
        "coordinates": [
          31.765014,
          31.167243
        ]
      },
      "type": "Feature",
      "properties": {
        "hierarchy": [
          "tgn:7535729",
          "tgn:7001242",
          "tgn:1001059",
          "tgn:7016833",
          "tgn:7029392"
        ],
        "placetype": [
          "aat:300008347"
        ],
        "name:en": "Kafr al Kurdī",
        "id": 7535729
      }
    }
  ]
}
