{
  "type": "FeatureCollection",
  "features": [
    {
      "geometry": {
        "type": "Point",
        "coordinates": [
          29.407621,
          30.583944
        ]
      },
      "type": "Feature",
      "properties": {
        "hierarchy": [
          "tgn:7526640",
          "tgn:7001242",
          "tgn:7016833",
          "tgn:1001418",
          "tgn:7029392"
        ],
        "placetype": [
          "aat:300008777"
        ],
        "name:en": "Ţibn, Tallat aţ",
        "id": 7526640
      }
    },
    {
      "geometry": {
        "type": "Point",
        "coordinates": [
          30.25,
          30.95
        ]
      },
      "type": "Feature",
      "properties": {
        "hierarchy": [
          "tgn:7526641",
          "tgn:7001242",
          "tgn:1001075",
          "tgn:7016833",
          "tgn:7029392"
        ],
        "placetype": [
          "aat:300008777"
        ],
        "name:en": "Tibn, Kawm at",
        "id": 7526641
      }
    },
    {
      "geometry": {
        "type": "Point",
        "coordinates": [
          29.53673,
          30.49031
        ]
      },
      "type": "Feature",
      "properties": {
        "hierarchy": [
          "tgn:7526642",
          "tgn:7001242",
          "tgn:7016833",
          "tgn:1001418",
          "tgn:7029392"
        ],
        "placetype": [
          "aat:300008777"
        ],
        "name:en": "Ţībah, Qārat aţ",
        "id": 7526642
      }
    },
    {
      "geometry": {
        "type": "Point",
        "coordinates": [
          34.561111,
          27.940278
        ]
      },
      "type": "Feature",
      "properties": {
        "hierarchy": [
          "tgn:7526643",
          "tgn:7001242",
          "tgn:7016833",
          "tgn:7029392"
        ],
        "placetype": [
          "aat:300008791"
        ],
        "name:en": "Tīrān, Jazīrat",
        "id": 7526643
      }
    },
    {
      "geometry": {
        "type": "Point",
        "coordinates": [
          30.446913,
          30.472954
        ]
      },
      "type": "Feature",
      "properties": {
        "hierarchy": [
          "tgn:7526644",
          "tgn:7001242",
          "tgn:1001075",
          "tgn:7016833",
          "tgn:7029392"
        ],
        "placetype": [
          "aat:300008777"
        ],
        "name:en": "Tabābī, Jabal at",
        "id": 7526644
      }
    },
    {
      "geometry": {
        "type": "Point",
        "coordinates": [
          30.61236,
          30.344575
        ]
      },
      "type": "Feature",
      "properties": {
        "hierarchy": [
          "tgn:7526645",
          "tgn:7001242",
          "tgn:1001075",
          "tgn:7016833",
          "tgn:7029392"
        ],
        "placetype": [
          "aat:300008777"
        ],
        "name:en": "Thumaymah, Jabal",
        "id": 7526645
      }
    },
    {
      "geometry": {
        "type": "Point",
        "coordinates": [
          32.366667,
          29.15
        ]
      },
      "type": "Feature",
      "properties": {
        "hierarchy": [
          "tgn:7526646",
          "tgn:7001242",
          "tgn:7001311",
          "tgn:7016833",
          "tgn:7029392"
        ],
        "placetype": [
          "aat:300006207"
        ],
        "name:en": "Bi'r Thumayl",
        "id": 7526646
      }
    },
    {
      "geometry": {
        "type": "Point",
        "coordinates": [
          31.618938,
          30.773407
        ]
      },
      "type": "Feature",
      "properties": {
        "hierarchy": [
          "tgn:7526647",
          "tgn:7001242",
          "tgn:7016833",
          "tgn:1001113",
          "tgn:7029392"
        ],
        "placetype": [
          "aat:300008347"
        ],
        "id": 7526647,
        "name:xx": "Tilījah"
      }
    },
    {
      "geometry": {
        "type": "Point",
        "coordinates": [
          33.929167,
          29.001667
        ]
      },
      "type": "Feature",
      "properties": {
        "hierarchy": [
          "tgn:7526648",
          "tgn:7001242",
          "tgn:7016833",
          "tgn:7001336",
          "tgn:7029392"
        ],
        "placetype": [
          "aat:300008750"
        ],
        "name:en": "Thughrah, Qawz ath",
        "id": 7526648
      }
    },
    {
      "geometry": {
        "type": "Point",
        "coordinates": [
          33.365544,
          29.026419
        ]
      },
      "type": "Feature",
      "properties": {
        "hierarchy": [
          "tgn:7526649",
          "tgn:7001242",
          "tgn:7016833",
          "tgn:7001336",
          "tgn:7029392"
        ],
        "placetype": [
          "aat:300006207"
        ],
        "id": 7526649,
        "name:xx": "Bi'r ath Thufayrīyah"
      }
    }
  ]
}
