{
  "type": "FeatureCollection",
  "features": [
    {
      "geometry": {
        "type": "Point",
        "coordinates": [
          118.386389,
          24.416389
        ]
      },
      "type": "Feature",
      "properties": {
        "hierarchy": [
          "tgn:7486630",
          "tgn:7469009",
          "tgn:1000004",
          "tgn:1000141",
          "tgn:7029392"
        ],
        "placetype": [
          "aat:300132316"
        ],
        "id": 7486630,
        "name:xx": "Liaoluo Wan"
      }
    },
    {
      "geometry": {
        "type": "Point",
        "coordinates": [
          118.430278,
          24.413056
        ]
      },
      "type": "Feature",
      "properties": {
        "hierarchy": [
          "tgn:7486631",
          "tgn:7469009",
          "tgn:1000004",
          "tgn:1000141",
          "tgn:7029392"
        ],
        "placetype": [
          "aat:300008347"
        ],
        "id": 7486631,
        "name:xx": "Liaoluo"
      }
    },
    {
      "geometry": {
        "type": "Point",
        "coordinates": [
          120.27011,
          23.234462
        ]
      },
      "type": "Feature",
      "properties": {
        "hierarchy": [
          "tgn:7486632",
          "tgn:1000004",
          "tgn:7490934",
          "tgn:1000141",
          "tgn:7029392"
        ],
        "placetype": [
          "aat:300008347"
        ],
        "id": 7486632,
        "name:xx": "Liaoqian"
      }
    },
    {
      "geometry": {
        "type": "Point",
        "coordinates": [
          121.814167,
          24.973889
        ]
      },
      "type": "Feature",
      "properties": {
        "hierarchy": [
          "tgn:7486633",
          "tgn:1000004",
          "tgn:1000454",
          "tgn:1000141",
          "tgn:7029392"
        ],
        "placetype": [
          "aat:300008347"
        ],
        "id": 7486633,
        "name:xx": "Liaojiaokeng"
      }
    },
    {
      "geometry": {
        "type": "Point",
        "coordinates": [
          120.633333,
          22.75
        ]
      },
      "type": "Feature",
      "properties": {
        "hierarchy": [
          "tgn:7486634",
          "tgn:1000004",
          "tgn:7492971",
          "tgn:1000141",
          "tgn:7029392"
        ],
        "placetype": [
          "aat:300008347"
        ],
        "id": 7486634,
        "name:xx": "Liaojia"
      }
    },
    {
      "geometry": {
        "type": "Point",
        "coordinates": [
          120.417778,
          23.473333
        ]
      },
      "type": "Feature",
      "properties": {
        "hierarchy": [
          "tgn:7486636",
          "tgn:7001001",
          "tgn:1000004",
          "tgn:1000141",
          "tgn:7029392"
        ],
        "placetype": [
          "aat:300008347"
        ],
        "id": 7486636,
        "name:xx": "Gangping"
      }
    },
    {
      "geometry": {
        "type": "Point",
        "coordinates": [
          121.8485,
          24.6109
        ]
      },
      "type": "Feature",
      "properties": {
        "hierarchy": [
          "tgn:7486638",
          "tgn:1000004",
          "tgn:7489179",
          "tgn:1000141",
          "tgn:7029392"
        ],
        "placetype": [
          "aat:300387173"
        ],
        "id": 7486638,
        "name:xx": "Gangbian Li"
      }
    },
    {
      "geometry": {
        "type": "Point",
        "coordinates": [
          121.849039,
          24.618646
        ]
      },
      "type": "Feature",
      "properties": {
        "hierarchy": [
          "tgn:7486639",
          "tgn:1000004",
          "tgn:7489179",
          "tgn:1000141",
          "tgn:7029392"
        ],
        "placetype": [
          "aat:300008347"
        ],
        "id": 7486639,
        "name:xx": "Gangkou"
      }
    }
  ]
}
