{
  "type": "FeatureCollection",
  "features": [
    {
      "geometry": {
        "type": "Point",
        "coordinates": [
          -101.376389,
          20.313889
        ]
      },
      "type": "Feature",
      "properties": {
        "hierarchy": [
          "tgn:7414730",
          "tgn:7005584",
          "tgn:1000001",
          "tgn:7005560",
          "tgn:7029392"
        ],
        "placetype": [
          "aat:300008347"
        ],
        "id": 7414730,
        "name:xx": "Pegueros"
      }
    },
    {
      "geometry": {
        "type": "Point",
        "coordinates": [
          -101.383056,
          20.343611
        ]
      },
      "type": "Feature",
      "properties": {
        "hierarchy": [
          "tgn:7414731",
          "tgn:7005584",
          "tgn:1000001",
          "tgn:7005560",
          "tgn:7029392"
        ],
        "placetype": [
          "aat:300008795"
        ],
        "id": 7414731,
        "name:xx": "Las Peñas, Cerro"
      }
    },
    {
      "geometry": {
        "type": "Point",
        "coordinates": [
          -101.429444,
          20.355278
        ]
      },
      "type": "Feature",
      "properties": {
        "hierarchy": [
          "tgn:7414732",
          "tgn:7005584",
          "tgn:1000001",
          "tgn:7005560",
          "tgn:7029392"
        ],
        "placetype": [
          "aat:300008347"
        ],
        "id": 7414732,
        "name:xx": "Las Raíces"
      }
    },
    {
      "geometry": {
        "type": "Point",
        "coordinates": [
          -101.39,
          20.375
        ]
      },
      "type": "Feature",
      "properties": {
        "hierarchy": [
          "tgn:7414733",
          "tgn:7005584",
          "tgn:1000001",
          "tgn:7005560",
          "tgn:7029392"
        ],
        "placetype": [
          "aat:300008347"
        ],
        "id": 7414733,
        "name:xx": "Plaza Vieja"
      }
    },
    {
      "geometry": {
        "type": "Point",
        "coordinates": [
          -101.258889,
          20.387778
        ]
      },
      "type": "Feature",
      "properties": {
        "hierarchy": [
          "tgn:7414734",
          "tgn:7005584",
          "tgn:1000001",
          "tgn:7005560",
          "tgn:7029392"
        ],
        "placetype": [
          "aat:300386860"
        ],
        "id": 7414734,
        "name:xx": "San Nicolás, Hoya"
      }
    },
    {
      "geometry": {
        "type": "Point",
        "coordinates": [
          -101.304444,
          20.432778
        ]
      },
      "type": "Feature",
      "properties": {
        "hierarchy": [
          "tgn:7414735",
          "tgn:7005584",
          "tgn:1000001",
          "tgn:7005560",
          "tgn:7029392"
        ],
        "placetype": [
          "aat:300008347"
        ],
        "id": 7414735,
        "name:xx": "Quiriseo"
      }
    },
    {
      "geometry": {
        "type": "Point",
        "coordinates": [
          -101.295278,
          20.413889
        ]
      },
      "type": "Feature",
      "properties": {
        "hierarchy": [
          "tgn:7414736",
          "tgn:7005584",
          "tgn:1000001",
          "tgn:7005560",
          "tgn:7029392"
        ],
        "placetype": [
          "aat:300008347"
        ],
        "id": 7414736,
        "name:xx": "San Ignacio de San José"
      }
    },
    {
      "geometry": {
        "type": "Point",
        "coordinates": [
          -101.375833,
          20.412778
        ]
      },
      "type": "Feature",
      "properties": {
        "hierarchy": [
          "tgn:7414737",
          "tgn:7005584",
          "tgn:1000001",
          "tgn:7005560",
          "tgn:7029392"
        ],
        "placetype": [
          "aat:300008347"
        ],
        "id": 7414737,
        "name:xx": "San Antonio"
      }
    },
    {
      "geometry": {
        "type": "Point",
        "coordinates": [
          -101.371111,
          20.391389
        ]
      },
      "type": "Feature",
      "properties": {
        "hierarchy": [
          "tgn:7414738",
          "tgn:7005584",
          "tgn:1000001",
          "tgn:7005560",
          "tgn:7029392"
        ],
        "placetype": [
          "aat:300008347"
        ],
        "id": 7414738,
        "name:xx": "La Esperanza"
      }
    }
  ]
}
