{
  "type": "FeatureCollection",
  "features": [
    {
      "geometry": {
        "type": "Point",
        "coordinates": [
          72.984722,
          18.686667
        ]
      },
      "type": "Feature",
      "properties": {
        "hierarchy": [
          "tgn:7569840",
          "tgn:1000004",
          "tgn:7000198",
          "tgn:1001895",
          "tgn:7029392"
        ],
        "placetype": [
          "aat:300008347"
        ],
        "name:en": "Pezarikhar",
        "id": 7569840
      }
    },
    {
      "geometry": {
        "type": "Point",
        "coordinates": [
          72.972778,
          18.673056
        ]
      },
      "type": "Feature",
      "properties": {
        "hierarchy": [
          "tgn:7569841",
          "tgn:1000004",
          "tgn:7000198",
          "tgn:1001895",
          "tgn:7029392"
        ],
        "placetype": [
          "aat:300008347"
        ],
        "name:en": "Nāgzan",
        "id": 7569841
      }
    },
    {
      "geometry": {
        "type": "Point",
        "coordinates": [
          72.953333,
          18.705278
        ]
      },
      "type": "Feature",
      "properties": {
        "hierarchy": [
          "tgn:7569842",
          "tgn:1000004",
          "tgn:7000198",
          "tgn:1001895",
          "tgn:7029392"
        ],
        "placetype": [
          "aat:300008347"
        ],
        "name:en": "Vāgholi",
        "id": 7569842
      }
    },
    {
      "geometry": {
        "type": "Point",
        "coordinates": [
          72.960833,
          18.711111
        ]
      },
      "type": "Feature",
      "properties": {
        "hierarchy": [
          "tgn:7569843",
          "tgn:1000004",
          "tgn:7000198",
          "tgn:1001895",
          "tgn:7029392"
        ],
        "placetype": [
          "aat:300008347"
        ],
        "name:en": "Kopar",
        "id": 7569843
      }
    },
    {
      "geometry": {
        "type": "Point",
        "coordinates": [
          72.979722,
          18.719722
        ]
      },
      "type": "Feature",
      "properties": {
        "hierarchy": [
          "tgn:7569844",
          "tgn:1000004",
          "tgn:7000198",
          "tgn:1001895",
          "tgn:7029392"
        ],
        "placetype": [
          "aat:300008347"
        ],
        "name:en": "Vādi",
        "id": 7569844
      }
    },
    {
      "geometry": {
        "type": "Point",
        "coordinates": [
          72.951389,
          18.73
        ]
      },
      "type": "Feature",
      "properties": {
        "hierarchy": [
          "tgn:7569845",
          "tgn:1000004",
          "tgn:7000198",
          "tgn:1001895",
          "tgn:7029392"
        ],
        "placetype": [
          "aat:300008347"
        ],
        "name:en": "Vāghrankhār",
        "id": 7569845
      }
    },
    {
      "geometry": {
        "type": "Point",
        "coordinates": [
          72.972222,
          18.762778
        ]
      },
      "type": "Feature",
      "properties": {
        "hierarchy": [
          "tgn:7569846",
          "tgn:1000004",
          "tgn:7000198",
          "tgn:1001895",
          "tgn:7029392"
        ],
        "placetype": [
          "aat:300008347"
        ],
        "name:en": "Bhairipāda",
        "id": 7569846
      }
    },
    {
      "geometry": {
        "type": "Point",
        "coordinates": [
          72.975,
          18.738611
        ]
      },
      "type": "Feature",
      "properties": {
        "hierarchy": [
          "tgn:7569847",
          "tgn:1000004",
          "tgn:7000198",
          "tgn:1001895",
          "tgn:7029392"
        ],
        "placetype": [
          "aat:300008347"
        ],
        "name:en": "Dherankhār",
        "id": 7569847
      }
    },
    {
      "geometry": {
        "type": "Point",
        "coordinates": [
          72.949722,
          18.743611
        ]
      },
      "type": "Feature",
      "properties": {
        "hierarchy": [
          "tgn:7569848",
          "tgn:1000004",
          "tgn:7000198",
          "tgn:1001895",
          "tgn:7029392"
        ],
        "placetype": [
          "aat:300008347"
        ],
        "name:en": "Phoperikhār",
        "id": 7569848
      }
    },
    {
      "geometry": {
        "type": "Point",
        "coordinates": [
          72.92,
          18.7425
        ]
      },
      "type": "Feature",
      "properties": {
        "hierarchy": [
          "tgn:7569849",
          "tgn:1000004",
          "tgn:7000198",
          "tgn:1001895",
          "tgn:7029392"
        ],
        "placetype": [
          "aat:300008347"
        ],
        "name:en": "Khidkikhār",
        "id": 7569849
      }
    }
  ]
}
