{
  "type": "FeatureCollection",
  "features": [
    {
      "geometry": {
        "type": "Point",
        "coordinates": [
          121.294722,
          24.318611
        ]
      },
      "type": "Feature",
      "properties": {
        "hierarchy": [
          "tgn:7488190",
          "tgn:1000004",
          "tgn:7001009",
          "tgn:1000141",
          "tgn:7029392"
        ],
        "placetype": [
          "aat:300008347"
        ],
        "id": 7488190,
        "name:xx": "Huanshan"
      }
    },
    {
      "geometry": {
        "type": "Point",
        "coordinates": [
          120.148611,
          23.211944
        ]
      },
      "type": "Feature",
      "properties": {
        "hierarchy": [
          "tgn:7488191",
          "tgn:1000004",
          "tgn:7490934",
          "tgn:1000141",
          "tgn:7029392"
        ],
        "placetype": [
          "aat:300008347"
        ],
        "id": 7488191,
        "name:xx": "Huziliao"
      }
    },
    {
      "geometry": {
        "type": "Point",
        "coordinates": [
          120.824722,
          22.866389
        ]
      },
      "type": "Feature",
      "properties": {
        "hierarchy": [
          "tgn:7488192",
          "tgn:7001004",
          "tgn:1000004",
          "tgn:1000141",
          "tgn:7029392"
        ],
        "placetype": [
          "aat:300008798"
        ],
        "id": 7488192,
        "name:xx": "Huanxi Shan"
      }
    },
    {
      "geometry": {
        "type": "Point",
        "coordinates": [
          121.233333,
          24.966667
        ]
      },
      "type": "Feature",
      "properties": {
        "hierarchy": [
          "tgn:7488193",
          "tgn:1000004",
          "tgn:7001013",
          "tgn:1000141",
          "tgn:7029392"
        ],
        "placetype": [
          "aat:300008347"
        ],
        "id": 7488193,
        "name:xx": "Huangwuzhuang"
      }
    },
    {
      "geometry": {
        "type": "Point",
        "coordinates": [
          121.171111,
          24.934167
        ]
      },
      "type": "Feature",
      "properties": {
        "hierarchy": [
          "tgn:7488194",
          "tgn:1000004",
          "tgn:7001013",
          "tgn:1000141",
          "tgn:7029392"
        ],
        "placetype": [
          "aat:300008347"
        ],
        "id": 7488194,
        "name:xx": "Huangwu"
      }
    },
    {
      "geometry": {
        "type": "Point",
        "coordinates": [
          121.606186,
          25.176746
        ]
      },
      "type": "Feature",
      "properties": {
        "hierarchy": [
          "tgn:7488195",
          "tgn:1000004",
          "tgn:1000454",
          "tgn:1000141",
          "tgn:7029392"
        ],
        "placetype": [
          "aat:300008798"
        ],
        "id": 7488195,
        "name:xx": "Huangzui Shan"
      }
    },
    {
      "geometry": {
        "type": "Point",
        "coordinates": [
          120.259722,
          23.566944
        ]
      },
      "type": "Feature",
      "properties": {
        "hierarchy": [
          "tgn:7488196",
          "tgn:1000004",
          "tgn:7001014",
          "tgn:1000141",
          "tgn:7029392"
        ],
        "placetype": [
          "aat:300008347"
        ],
        "id": 7488196,
        "name:xx": "Huangcuoliao"
      }
    },
    {
      "geometry": {
        "type": "Point",
        "coordinates": [
          118.252778,
          24.448056
        ]
      },
      "type": "Feature",
      "properties": {
        "hierarchy": [
          "tgn:7488197",
          "tgn:7469009",
          "tgn:1000004",
          "tgn:1000141",
          "tgn:7029392"
        ],
        "placetype": [
          "aat:300008347"
        ],
        "id": 7488197,
        "name:xx": "Huangcuo"
      }
    },
    {
      "geometry": {
        "type": "Point",
        "coordinates": [
          120.929167,
          24.845
        ]
      },
      "type": "Feature",
      "properties": {
        "hierarchy": [
          "tgn:7488198",
          "tgn:1000004",
          "tgn:7471332",
          "tgn:1000141",
          "tgn:7029392"
        ],
        "placetype": [
          "aat:300008347"
        ],
        "id": 7488198,
        "name:xx": "Nanliao"
      }
    },
    {
      "geometry": {
        "type": "Point",
        "coordinates": [
          120.85053,
          24.450193
        ]
      },
      "type": "Feature",
      "properties": {
        "hierarchy": [
          "tgn:7488199",
          "tgn:7487020",
          "tgn:1000004",
          "tgn:1000141",
          "tgn:7029392"
        ],
        "placetype": [
          "aat:300008347"
        ],
        "id": 7488199,
        "name:xx": "Nanliao"
      }
    }
  ]
}
