{
  "type": "FeatureCollection",
  "features": [
    {
      "geometry": {
        "type": "Point",
        "coordinates": [
          31.234769,
          30.071202
        ]
      },
      "type": "Feature",
      "properties": {
        "hierarchy": [
          "tgn:7531930",
          "tgn:7001242",
          "tgn:7016833",
          "tgn:1001091",
          "tgn:7029392"
        ],
        "placetype": [
          "aat:300006676"
        ],
        "id": 7531930,
        "name:xx": "Mustashfá al Yawm al Wāḩid"
      }
    },
    {
      "geometry": {
        "type": "Point",
        "coordinates": [
          31.234319,
          30.073011
        ]
      },
      "type": "Feature",
      "properties": {
        "hierarchy": [
          "tgn:7531931",
          "tgn:7001242",
          "tgn:7016833",
          "tgn:1001091",
          "tgn:7029392"
        ],
        "placetype": [
          "aat:300008187"
        ],
        "id": 7531931,
        "name:xx": "Ḩadīqat aţ Ţifl"
      }
    },
    {
      "geometry": {
        "type": "Point",
        "coordinates": [
          31.239038,
          30.073712
        ]
      },
      "type": "Feature",
      "properties": {
        "hierarchy": [
          "tgn:7531932",
          "tgn:7001242",
          "tgn:7016833",
          "tgn:1001091",
          "tgn:7029392"
        ],
        "placetype": [
          "aat:300007544"
        ],
        "id": 7531932,
        "name:xx": "Masjid Badrān"
      }
    },
    {
      "geometry": {
        "type": "Point",
        "coordinates": [
          31.237285,
          30.073686
        ]
      },
      "type": "Feature",
      "properties": {
        "hierarchy": [
          "tgn:7531933",
          "tgn:7001242",
          "tgn:7016833",
          "tgn:1001091",
          "tgn:7029392"
        ],
        "placetype": [
          "aat:300007544"
        ],
        "id": 7531933,
        "name:xx": "Masjid Anjat Hānim"
      }
    },
    {
      "geometry": {
        "type": "Point",
        "coordinates": [
          31.231062,
          30.077493
        ]
      },
      "type": "Feature",
      "properties": {
        "hierarchy": [
          "tgn:7531935",
          "tgn:7001242",
          "tgn:7016833",
          "tgn:1001091",
          "tgn:7029392"
        ],
        "placetype": [
          "aat:300007544"
        ],
        "id": 7531935,
        "name:xx": "Masjid ar Raḩmah"
      }
    },
    {
      "geometry": {
        "type": "Point",
        "coordinates": [
          31.236866,
          30.08621
        ]
      },
      "type": "Feature",
      "properties": {
        "hierarchy": [
          "tgn:7531936",
          "tgn:7001242",
          "tgn:7016833",
          "tgn:1001091",
          "tgn:7029392"
        ],
        "placetype": [
          "aat:300007466"
        ],
        "id": 7531936,
        "name:xx": "Kanīsat al Aqbāt al Injīlīyah"
      }
    },
    {
      "geometry": {
        "type": "Point",
        "coordinates": [
          31.237096,
          30.082357
        ]
      },
      "type": "Feature",
      "properties": {
        "hierarchy": [
          "tgn:7531937",
          "tgn:7001242",
          "tgn:7016833",
          "tgn:1001091",
          "tgn:7029392"
        ],
        "placetype": [
          "aat:300004792"
        ],
        "id": 7531937,
        "name:xx": "Ma'had as Sālziyān Dūnbūskū"
      }
    },
    {
      "geometry": {
        "type": "Point",
        "coordinates": [
          31.237554,
          30.083789
        ]
      },
      "type": "Feature",
      "properties": {
        "hierarchy": [
          "tgn:7531938",
          "tgn:7001242",
          "tgn:7016833",
          "tgn:1001091",
          "tgn:7029392"
        ],
        "placetype": [
          "aat:300006676"
        ],
        "id": 7531938,
        "name:xx": "Mustashfá Ramad Rawḑ al Faraj"
      }
    },
    {
      "geometry": {
        "type": "Point",
        "coordinates": [
          31.233458,
          30.08455
        ]
      },
      "type": "Feature",
      "properties": {
        "hierarchy": [
          "tgn:7531939",
          "tgn:7001242",
          "tgn:7016833",
          "tgn:1001091",
          "tgn:7029392"
        ],
        "placetype": [
          "aat:300004792"
        ],
        "id": 7531939,
        "name:xx": "Nādī al Kahrabā'"
      }
    }
  ]
}
