{
  "type": "FeatureCollection",
  "features": [
    {
      "geometry": {
        "type": "Point",
        "coordinates": [
          121.834722,
          24.886944
        ]
      },
      "type": "Feature",
      "properties": {
        "hierarchy": [
          "tgn:7483380",
          "tgn:1000004",
          "tgn:7489179",
          "tgn:1000141",
          "tgn:7029392"
        ],
        "placetype": [
          "aat:300008795"
        ],
        "id": 7483380,
        "name:xx": "Huomanliao Shan"
      }
    },
    {
      "geometry": {
        "type": "Point",
        "coordinates": [
          121.853333,
          24.894167
        ]
      },
      "type": "Feature",
      "properties": {
        "hierarchy": [
          "tgn:7483381",
          "tgn:1000004",
          "tgn:7489179",
          "tgn:1000141",
          "tgn:7029392"
        ],
        "placetype": [
          "aat:300007899"
        ],
        "id": 7483381,
        "name:xx": "Wai'ao Suidao"
      }
    },
    {
      "geometry": {
        "type": "Point",
        "coordinates": [
          121.842778,
          24.88
        ]
      },
      "type": "Feature",
      "properties": {
        "hierarchy": [
          "tgn:7483382",
          "tgn:1000004",
          "tgn:7489179",
          "tgn:1000141",
          "tgn:7029392"
        ],
        "placetype": [
          "aat:300008347"
        ],
        "id": 7483382,
        "name:xx": "Da'ao"
      }
    },
    {
      "geometry": {
        "type": "Point",
        "coordinates": [
          121.821944,
          24.874167
        ]
      },
      "type": "Feature",
      "properties": {
        "hierarchy": [
          "tgn:7483383",
          "tgn:1000004",
          "tgn:7489179",
          "tgn:1000141",
          "tgn:7029392"
        ],
        "placetype": [
          "aat:300008347"
        ],
        "id": 7483383,
        "name:xx": "Beimenkeng"
      }
    },
    {
      "geometry": {
        "type": "Point",
        "coordinates": [
          121.826667,
          24.841389
        ]
      },
      "type": "Feature",
      "properties": {
        "hierarchy": [
          "tgn:7483384",
          "tgn:1000004",
          "tgn:7489179",
          "tgn:1000141",
          "tgn:7029392"
        ],
        "placetype": [
          "aat:300008699"
        ],
        "id": 7483384,
        "name:xx": "Dezikou Xi"
      }
    },
    {
      "geometry": {
        "type": "Point",
        "coordinates": [
          121.800278,
          24.830278
        ]
      },
      "type": "Feature",
      "properties": {
        "hierarchy": [
          "tgn:7483385",
          "tgn:1000004",
          "tgn:7489179",
          "tgn:1000141",
          "tgn:7029392"
        ],
        "placetype": [
          "aat:300008699"
        ],
        "id": 7483385,
        "name:xx": "Houdongkeng Xi"
      }
    },
    {
      "geometry": {
        "type": "Point",
        "coordinates": [
          121.796111,
          24.855
        ]
      },
      "type": "Feature",
      "properties": {
        "hierarchy": [
          "tgn:7483386",
          "tgn:1000004",
          "tgn:7489179",
          "tgn:1000141",
          "tgn:7029392"
        ],
        "placetype": [
          "aat:300007595"
        ],
        "id": 7483386,
        "name:xx": "Ji'an Gong"
      }
    },
    {
      "geometry": {
        "type": "Point",
        "coordinates": [
          121.798889,
          24.867778
        ]
      },
      "type": "Feature",
      "properties": {
        "hierarchy": [
          "tgn:7483387",
          "tgn:1000004",
          "tgn:7489179",
          "tgn:1000141",
          "tgn:7029392"
        ],
        "placetype": [
          "aat:300008347"
        ],
        "id": 7483387,
        "name:xx": "Chiqiding"
      }
    },
    {
      "geometry": {
        "type": "Point",
        "coordinates": [
          121.801667,
          24.870278
        ]
      },
      "type": "Feature",
      "properties": {
        "hierarchy": [
          "tgn:7483388",
          "tgn:1000004",
          "tgn:7489179",
          "tgn:1000141",
          "tgn:7029392"
        ],
        "placetype": [
          "aat:300008798"
        ],
        "id": 7483388,
        "name:xx": "Yancaolin Shan"
      }
    },
    {
      "geometry": {
        "type": "Point",
        "coordinates": [
          121.824167,
          24.844167
        ]
      },
      "type": "Feature",
      "properties": {
        "hierarchy": [
          "tgn:7483389",
          "tgn:1000004",
          "tgn:7489179",
          "tgn:1000141",
          "tgn:7029392"
        ],
        "placetype": [
          "aat:300008699"
        ],
        "id": 7483389,
        "name:xx": "Fudekeng Xi"
      }
    }
  ]
}
