{
  "type": "FeatureCollection",
  "features": [
    {
      "geometry": {
        "type": "Point",
        "coordinates": [
          31.240854,
          30.114843
        ]
      },
      "type": "Feature",
      "properties": {
        "hierarchy": [
          "tgn:7532370",
          "tgn:7001242",
          "tgn:7016833",
          "tgn:1001092",
          "tgn:7029392"
        ],
        "placetype": [
          "aat:300120599"
        ],
        "id": 7532370,
        "name:xx": "Mīnā' Shirkat Abū Za'bal lil Asmidah wa al Kīmāwiyāt"
      }
    },
    {
      "geometry": {
        "type": "Point",
        "coordinates": [
          31.243229,
          30.106683
        ]
      },
      "type": "Feature",
      "properties": {
        "hierarchy": [
          "tgn:7532371",
          "tgn:7001242",
          "tgn:7016833",
          "tgn:1001092",
          "tgn:7029392"
        ],
        "placetype": [
          "aat:300004792"
        ],
        "id": 7532371,
        "name:xx": "Al Hay'at al 'Āmmah li Ḩimāyat ash Shawāţi'"
      }
    },
    {
      "geometry": {
        "type": "Point",
        "coordinates": [
          31.243609,
          30.117481
        ]
      },
      "type": "Feature",
      "properties": {
        "hierarchy": [
          "tgn:7532372",
          "tgn:7001242",
          "tgn:7016833",
          "tgn:1001092",
          "tgn:7029392"
        ],
        "placetype": [
          "aat:300005969"
        ],
        "id": 7532372,
        "name:xx": "Maḩkamat Shubrā al Khaymah"
      }
    },
    {
      "geometry": {
        "type": "Point",
        "coordinates": [
          31.246607,
          30.11722
        ]
      },
      "type": "Feature",
      "properties": {
        "hierarchy": [
          "tgn:7532373",
          "tgn:7001242",
          "tgn:7016833",
          "tgn:1001092",
          "tgn:7029392"
        ],
        "placetype": [
          "aat:300007466"
        ],
        "id": 7532373,
        "name:xx": "Muţrānīyah Shubrā al Khaymah"
      }
    },
    {
      "geometry": {
        "type": "Point",
        "coordinates": [
          31.245738,
          30.115764
        ]
      },
      "type": "Feature",
      "properties": {
        "hierarchy": [
          "tgn:7532374",
          "tgn:7001242",
          "tgn:7016833",
          "tgn:1001092",
          "tgn:7029392"
        ],
        "placetype": [
          "aat:300006610"
        ],
        "id": 7532374,
        "name:xx": "Al Ma'had al 'Ālī lil Ta'āwun az Zirā'ī"
      }
    },
    {
      "geometry": {
        "type": "Point",
        "coordinates": [
          31.248728,
          30.113677
        ]
      },
      "type": "Feature",
      "properties": {
        "hierarchy": [
          "tgn:7532375",
          "tgn:7001242",
          "tgn:7016833",
          "tgn:1001092",
          "tgn:7029392"
        ],
        "placetype": [
          "aat:300007783"
        ],
        "id": 7532375,
        "name:xx": "Maḩaţţat Kullīyat az Zirā'ah"
      }
    },
    {
      "geometry": {
        "type": "Point",
        "coordinates": [
          31.244867,
          30.112733
        ]
      },
      "type": "Feature",
      "properties": {
        "hierarchy": [
          "tgn:7532376",
          "tgn:7001242",
          "tgn:7016833",
          "tgn:1001092",
          "tgn:7029392"
        ],
        "placetype": [
          "aat:300006495"
        ],
        "name:en": "College of Agriculture",
        "id": 7532376
      }
    },
    {
      "geometry": {
        "type": "Point",
        "coordinates": [
          31.244109,
          30.110887
        ]
      },
      "type": "Feature",
      "properties": {
        "hierarchy": [
          "tgn:7532377",
          "tgn:7001242",
          "tgn:7016833",
          "tgn:1001092",
          "tgn:7029392"
        ],
        "placetype": [
          "aat:300386970"
        ],
        "id": 7532377,
        "name:xx": "Ahlī al Mişrī, Al Bank al"
      }
    },
    {
      "geometry": {
        "type": "Point",
        "coordinates": [
          31.248306,
          30.107332
        ]
      },
      "type": "Feature",
      "properties": {
        "hierarchy": [
          "tgn:7532378",
          "tgn:7001242",
          "tgn:7016833",
          "tgn:1001092",
          "tgn:7029392"
        ],
        "placetype": [
          "aat:300006676"
        ],
        "id": 7532378,
        "name:xx": "Mustashfá al Amrāḑ al Mustawţinah"
      }
    },
    {
      "geometry": {
        "type": "Point",
        "coordinates": [
          31.250214,
          30.108563
        ]
      },
      "type": "Feature",
      "properties": {
        "hierarchy": [
          "tgn:7532379",
          "tgn:7001242",
          "tgn:7016833",
          "tgn:1001092",
          "tgn:7029392"
        ],
        "placetype": [
          "aat:300000745"
        ],
        "id": 7532379,
        "name:xx": "Shubrā al Balad"
      }
    }
  ]
}
