{
  "type": "FeatureCollection",
  "features": [
    {
      "geometry": {
        "type": "Point",
        "coordinates": [
          -98.001111,
          17.575
        ]
      },
      "type": "Feature",
      "properties": {
        "hierarchy": [
          "tgn:7414830",
          "tgn:1000001",
          "tgn:7005591",
          "tgn:7005560",
          "tgn:7029392"
        ],
        "placetype": [
          "aat:300008347"
        ],
        "id": 7414830,
        "name:es": "San Mateo"
      }
    },
    {
      "geometry": {
        "type": "Point",
        "coordinates": [
          -98.014167,
          17.528333
        ]
      },
      "type": "Feature",
      "properties": {
        "hierarchy": [
          "tgn:7414831",
          "tgn:1000001",
          "tgn:7005591",
          "tgn:7005560",
          "tgn:7029392"
        ],
        "placetype": [
          "aat:300008347"
        ],
        "id": 7414831,
        "name:es": "Santa María Asunción"
      }
    },
    {
      "geometry": {
        "type": "Point",
        "coordinates": [
          -97.946944,
          17.560833
        ]
      },
      "type": "Feature",
      "properties": {
        "hierarchy": [
          "tgn:7414832",
          "tgn:1000001",
          "tgn:7005591",
          "tgn:7005560",
          "tgn:7029392"
        ],
        "placetype": [
          "aat:300008347"
        ],
        "id": 7414832,
        "name:es": "El Garzón"
      }
    },
    {
      "geometry": {
        "type": "Point",
        "coordinates": [
          -97.916667,
          17.65
        ]
      },
      "type": "Feature",
      "properties": {
        "hierarchy": [
          "tgn:7414833",
          "tgn:1000001",
          "tgn:7005591",
          "tgn:7005560",
          "tgn:7029392"
        ],
        "placetype": [
          "aat:300008347"
        ],
        "id": 7414833,
        "name:es": "San Vicente del Palmar"
      }
    },
    {
      "geometry": {
        "type": "Point",
        "coordinates": [
          -97.900556,
          17.615278
        ]
      },
      "type": "Feature",
      "properties": {
        "hierarchy": [
          "tgn:7414834",
          "tgn:1000001",
          "tgn:7005591",
          "tgn:7005560",
          "tgn:7029392"
        ],
        "placetype": [
          "aat:300008347"
        ],
        "id": 7414834,
        "name:es": "San Andrés Yutatío"
      }
    },
    {
      "geometry": {
        "type": "Point",
        "coordinates": [
          -97.8975,
          17.589444
        ]
      },
      "type": "Feature",
      "properties": {
        "hierarchy": [
          "tgn:7414835",
          "tgn:1000001",
          "tgn:7005591",
          "tgn:7005560",
          "tgn:7029392"
        ],
        "placetype": [
          "aat:300008347"
        ],
        "id": 7414835,
        "name:es": "Yucuquimi de Ocampo"
      }
    },
    {
      "geometry": {
        "type": "Point",
        "coordinates": [
          -97.93,
          17.544722
        ]
      },
      "type": "Feature",
      "properties": {
        "hierarchy": [
          "tgn:7414836",
          "tgn:1000001",
          "tgn:7005591",
          "tgn:7005560",
          "tgn:7029392"
        ],
        "placetype": [
          "aat:300008347"
        ],
        "id": 7414836,
        "name:es": "Valentín"
      }
    },
    {
      "geometry": {
        "type": "Point",
        "coordinates": [
          -97.8125,
          17.555556
        ]
      },
      "type": "Feature",
      "properties": {
        "hierarchy": [
          "tgn:7414837",
          "tgn:1000001",
          "tgn:7005591",
          "tgn:7005560",
          "tgn:7029392"
        ],
        "placetype": [
          "aat:300008347"
        ],
        "id": 7414837,
        "name:es": "Santa Catarina Yutandú"
      }
    },
    {
      "geometry": {
        "type": "Point",
        "coordinates": [
          -97.787778,
          17.589444
        ]
      },
      "type": "Feature",
      "properties": {
        "hierarchy": [
          "tgn:7414838",
          "tgn:1000001",
          "tgn:7005591",
          "tgn:7005560",
          "tgn:7029392"
        ],
        "placetype": [
          "aat:300008347"
        ],
        "id": 7414838,
        "name:es": "San Martín del Río"
      }
    },
    {
      "geometry": {
        "type": "Point",
        "coordinates": [
          -97.785,
          17.600833
        ]
      },
      "type": "Feature",
      "properties": {
        "hierarchy": [
          "tgn:7414839",
          "tgn:1000001",
          "tgn:7005591",
          "tgn:7005560",
          "tgn:7029392"
        ],
        "placetype": [
          "aat:300008347"
        ],
        "id": 7414839,
        "name:es": "San Isidro El Naranjo"
      }
    }
  ]
}
