{
  "type": "FeatureCollection",
  "features": [
    {
      "geometry": {
        "type": "Point",
        "coordinates": [
          78.227374,
          24.042172
        ]
      },
      "type": "Feature",
      "properties": {
        "hierarchy": [
          "tgn:7585040",
          "tgn:1000004",
          "tgn:7000198",
          "tgn:1001894",
          "tgn:7029392"
        ],
        "placetype": [
          "aat:300008347"
        ],
        "name:en": "Bandrāwatha",
        "id": 7585040
      }
    },
    {
      "geometry": {
        "type": "Point",
        "coordinates": [
          78.204626,
          24.044591
        ]
      },
      "type": "Feature",
      "properties": {
        "hierarchy": [
          "tgn:7585041",
          "tgn:1000004",
          "tgn:7000198",
          "tgn:1001894",
          "tgn:7029392"
        ],
        "placetype": [
          "aat:300008347"
        ],
        "name:en": "Kakrāwali",
        "id": 7585041
      }
    },
    {
      "geometry": {
        "type": "Point",
        "coordinates": [
          78.200771,
          24.053989
        ]
      },
      "type": "Feature",
      "properties": {
        "hierarchy": [
          "tgn:7585042",
          "tgn:1000004",
          "tgn:7000198",
          "tgn:1001894",
          "tgn:7029392"
        ],
        "placetype": [
          "aat:300008347"
        ],
        "name:en": "Māla",
        "id": 7585042
      }
    },
    {
      "geometry": {
        "type": "Point",
        "coordinates": [
          78.185101,
          24.047983
        ]
      },
      "type": "Feature",
      "properties": {
        "hierarchy": [
          "tgn:7585043",
          "tgn:1000004",
          "tgn:7000198",
          "tgn:1001894",
          "tgn:7029392"
        ],
        "placetype": [
          "aat:300008347"
        ],
        "name:en": "Bindhai",
        "id": 7585043
      }
    },
    {
      "geometry": {
        "type": "Point",
        "coordinates": [
          78.167152,
          24.047705
        ]
      },
      "type": "Feature",
      "properties": {
        "hierarchy": [
          "tgn:7585044",
          "tgn:1000004",
          "tgn:7000198",
          "tgn:1001894",
          "tgn:7029392"
        ],
        "placetype": [
          "aat:300008347"
        ],
        "name:en": "Dhansara",
        "id": 7585044
      }
    },
    {
      "geometry": {
        "type": "Point",
        "coordinates": [
          78.147041,
          24.036507
        ]
      },
      "type": "Feature",
      "properties": {
        "hierarchy": [
          "tgn:7585045",
          "tgn:1000004",
          "tgn:7000198",
          "tgn:1001894",
          "tgn:7029392"
        ],
        "placetype": [
          "aat:300008347"
        ],
        "name:en": "Rasilpur",
        "id": 7585045
      }
    },
    {
      "geometry": {
        "type": "Point",
        "coordinates": [
          78.145053,
          24.039226
        ]
      },
      "type": "Feature",
      "properties": {
        "hierarchy": [
          "tgn:7585046",
          "tgn:1000004",
          "tgn:7000198",
          "tgn:1001894",
          "tgn:7029392"
        ],
        "placetype": [
          "aat:300008347"
        ],
        "name:en": "Murari",
        "id": 7585046
      }
    },
    {
      "geometry": {
        "type": "Point",
        "coordinates": [
          78.149654,
          24.053593
        ]
      },
      "type": "Feature",
      "properties": {
        "hierarchy": [
          "tgn:7585047",
          "tgn:1000004",
          "tgn:7000198",
          "tgn:1001894",
          "tgn:7029392"
        ],
        "placetype": [
          "aat:300008347"
        ],
        "name:en": "Sātni",
        "id": 7585047
      }
    },
    {
      "geometry": {
        "type": "Point",
        "coordinates": [
          78.131826,
          24.049597
        ]
      },
      "type": "Feature",
      "properties": {
        "hierarchy": [
          "tgn:7585048",
          "tgn:1000004",
          "tgn:7000198",
          "tgn:1001894",
          "tgn:7029392"
        ],
        "placetype": [
          "aat:300008347"
        ],
        "name:en": "Gohar",
        "id": 7585048
      }
    },
    {
      "geometry": {
        "type": "Point",
        "coordinates": [
          78.100195,
          24.041319
        ]
      },
      "type": "Feature",
      "properties": {
        "hierarchy": [
          "tgn:7585049",
          "tgn:1000004",
          "tgn:7000198",
          "tgn:1001894",
          "tgn:7029392"
        ],
        "placetype": [
          "aat:300008347"
        ],
        "name:en": "Dhānora",
        "id": 7585049
      }
    }
  ]
}
