{
  "type": "FeatureCollection",
  "features": [
    {
      "geometry": {
        "type": "Point",
        "coordinates": [
          79.498501,
          27.052533
        ]
      },
      "type": "Feature",
      "properties": {
        "hierarchy": [
          "tgn:7562940",
          "tgn:1000004",
          "tgn:7000198",
          "tgn:7016722",
          "tgn:7029392"
        ],
        "placetype": [
          "aat:300008347"
        ],
        "name:en": "Nagla Pite",
        "id": 7562940
      }
    },
    {
      "geometry": {
        "type": "Point",
        "coordinates": [
          79.479881,
          27.057176
        ]
      },
      "type": "Feature",
      "properties": {
        "hierarchy": [
          "tgn:7562941",
          "tgn:1000004",
          "tgn:7000198",
          "tgn:7016722",
          "tgn:7029392"
        ],
        "placetype": [
          "aat:300008347"
        ],
        "name:en": "Allāhdādpur",
        "id": 7562941
      }
    },
    {
      "geometry": {
        "type": "Point",
        "coordinates": [
          79.485738,
          27.057986
        ]
      },
      "type": "Feature",
      "properties": {
        "hierarchy": [
          "tgn:7562942",
          "tgn:1000004",
          "tgn:7000198",
          "tgn:7016722",
          "tgn:7029392"
        ],
        "placetype": [
          "aat:300008347"
        ],
        "name:en": "Niwāda",
        "id": 7562942
      }
    },
    {
      "geometry": {
        "type": "Point",
        "coordinates": [
          79.499052,
          27.06639
        ]
      },
      "type": "Feature",
      "properties": {
        "hierarchy": [
          "tgn:7562943",
          "tgn:1000004",
          "tgn:7000198",
          "tgn:7016722",
          "tgn:7029392"
        ],
        "placetype": [
          "aat:300008347"
        ],
        "name:en": "Jafarābād",
        "id": 7562943
      }
    },
    {
      "geometry": {
        "type": "Point",
        "coordinates": [
          79.492995,
          27.064416
        ]
      },
      "type": "Feature",
      "properties": {
        "hierarchy": [
          "tgn:7562944",
          "tgn:1000004",
          "tgn:7000198",
          "tgn:7016722",
          "tgn:7029392"
        ],
        "placetype": [
          "aat:300008347"
        ],
        "name:en": "Pālpur",
        "id": 7562944
      }
    },
    {
      "geometry": {
        "type": "Point",
        "coordinates": [
          79.49592,
          27.068557
        ]
      },
      "type": "Feature",
      "properties": {
        "hierarchy": [
          "tgn:7562945",
          "tgn:1000004",
          "tgn:7000198",
          "tgn:7016722",
          "tgn:7029392"
        ],
        "placetype": [
          "aat:300008347"
        ],
        "name:en": "Jarāro",
        "id": 7562945
      }
    },
    {
      "geometry": {
        "type": "Point",
        "coordinates": [
          79.484273,
          27.07037
        ]
      },
      "type": "Feature",
      "properties": {
        "hierarchy": [
          "tgn:7562946",
          "tgn:1000004",
          "tgn:7000198",
          "tgn:7016722",
          "tgn:7029392"
        ],
        "placetype": [
          "aat:300008347"
        ],
        "name:en": "Jhābar",
        "id": 7562946
      }
    },
    {
      "geometry": {
        "type": "Point",
        "coordinates": [
          79.496284,
          27.080228
        ]
      },
      "type": "Feature",
      "properties": {
        "hierarchy": [
          "tgn:7562947",
          "tgn:1000004",
          "tgn:7000198",
          "tgn:7016722",
          "tgn:7029392"
        ],
        "placetype": [
          "aat:300008347"
        ],
        "name:en": "Birāhimpur",
        "id": 7562947
      }
    },
    {
      "geometry": {
        "type": "Point",
        "coordinates": [
          79.484393,
          27.073488
        ]
      },
      "type": "Feature",
      "properties": {
        "hierarchy": [
          "tgn:7562948",
          "tgn:1000004",
          "tgn:7000198",
          "tgn:7016722",
          "tgn:7029392"
        ],
        "placetype": [
          "aat:300008347"
        ],
        "name:en": "Nagla Gange",
        "id": 7562948
      }
    },
    {
      "geometry": {
        "type": "Point",
        "coordinates": [
          79.482074,
          27.077893
        ]
      },
      "type": "Feature",
      "properties": {
        "hierarchy": [
          "tgn:7562949",
          "tgn:1000004",
          "tgn:7000198",
          "tgn:7016722",
          "tgn:7029392"
        ],
        "placetype": [
          "aat:300008347"
        ],
        "name:en": "Kharauli",
        "id": 7562949
      }
    }
  ]
}
