{
  "type": "FeatureCollection",
  "features": [
    {
      "geometry": {
        "type": "Point",
        "coordinates": [
          5.566667,
          51.166667
        ]
      },
      "type": "Feature",
      "properties": {
        "hierarchy": [
          "tgn:7244650",
          "tgn:7003461",
          "tgn:1000003",
          "tgn:1000063",
          "tgn:7018236",
          "tgn:7029392"
        ],
        "placetype": [
          "aat:300008347"
        ],
        "id": 7244650,
        "name:xx": "Leukeneinde"
      }
    },
    {
      "geometry": {
        "type": "Point",
        "coordinates": [
          4.183333,
          50.216667
        ]
      },
      "type": "Feature",
      "properties": {
        "hierarchy": [
          "tgn:7244651",
          "tgn:7007877",
          "tgn:1000003",
          "tgn:1000063",
          "tgn:4012014",
          "tgn:7029392"
        ],
        "placetype": [
          "aat:300008347"
        ],
        "id": 7244651,
        "name:xx": "Leugnies"
      }
    },
    {
      "geometry": {
        "type": "Point",
        "coordinates": [
          2.98062,
          51.120165
        ]
      },
      "type": "Feature",
      "properties": {
        "hierarchy": [
          "tgn:7244653",
          "tgn:7003458",
          "tgn:1000003",
          "tgn:1000063",
          "tgn:7018236",
          "tgn:7029392"
        ],
        "placetype": [
          "aat:300008347"
        ],
        "id": 7244653,
        "name:xx": "Leugenboom"
      }
    },
    {
      "geometry": {
        "type": "Point",
        "coordinates": [
          4.41161,
          51.296116
        ]
      },
      "type": "Feature",
      "properties": {
        "hierarchy": [
          "tgn:7244654",
          "tgn:7003456",
          "tgn:1000003",
          "tgn:1000063",
          "tgn:7018236",
          "tgn:7029392"
        ],
        "placetype": [
          "aat:300008347"
        ],
        "id": 7244654,
        "name:xx": "Leugenberg"
      }
    },
    {
      "geometry": {
        "type": "Point",
        "coordinates": [
          5.116667,
          50.833333
        ]
      },
      "type": "Feature",
      "properties": {
        "hierarchy": [
          "tgn:7244655",
          "tgn:7003461",
          "tgn:1000003",
          "tgn:1000063",
          "tgn:7018236",
          "tgn:7029392"
        ],
        "placetype": [
          "aat:300008699"
        ],
        "id": 7244655,
        "name:xx": "Leugebeek"
      }
    },
    {
      "geometry": {
        "type": "Point",
        "coordinates": [
          4.385945,
          51.128585
        ]
      },
      "type": "Feature",
      "properties": {
        "hierarchy": [
          "tgn:7244656",
          "tgn:7003456",
          "tgn:1000003",
          "tgn:1000063",
          "tgn:7018236",
          "tgn:7029392"
        ],
        "placetype": [
          "aat:300008347"
        ],
        "id": 7244656,
        "name:xx": "Leug"
      }
    },
    {
      "geometry": {
        "type": "Point",
        "coordinates": [
          5.783333,
          51.116667
        ]
      },
      "type": "Feature",
      "properties": {
        "hierarchy": [
          "tgn:7244657",
          "tgn:7003461",
          "tgn:1000003",
          "tgn:1000063",
          "tgn:7018236",
          "tgn:7029392"
        ],
        "placetype": [
          "aat:300008347"
        ],
        "id": 7244657,
        "name:xx": "Leu"
      }
    },
    {
      "geometry": {
        "type": "Point",
        "coordinates": [
          3.879697,
          50.927685
        ]
      },
      "type": "Feature",
      "properties": {
        "hierarchy": [
          "tgn:7244658",
          "tgn:7003457",
          "tgn:1000003",
          "tgn:1000063",
          "tgn:7018236",
          "tgn:7029392"
        ],
        "placetype": [
          "aat:300008347"
        ],
        "id": 7244658,
        "name:xx": "Letterhoutem"
      }
    }
  ]
}
