{
  "type": "FeatureCollection",
  "features": [
    {
      "geometry": {
        "type": "Point",
        "coordinates": [
          121.473333,
          24.650556
        ]
      },
      "type": "Feature",
      "properties": {
        "hierarchy": [
          "tgn:7467680",
          "tgn:1000004",
          "tgn:7489179",
          "tgn:1000141",
          "tgn:7029392"
        ],
        "placetype": [
          "aat:300008347"
        ],
        "id": 7467680,
        "name:xx": "Mingchi"
      }
    },
    {
      "geometry": {
        "type": "Point",
        "coordinates": [
          121.437124,
          23.297127
        ]
      },
      "type": "Feature",
      "properties": {
        "hierarchy": [
          "tgn:7467681",
          "tgn:1000004",
          "tgn:7491221",
          "tgn:1000141",
          "tgn:7029392"
        ],
        "placetype": [
          "aat:300007836"
        ],
        "id": 7467681,
        "name:xx": "Chicao Qiao"
      }
    },
    {
      "geometry": {
        "type": "Point",
        "coordinates": [
          120.283333,
          23.583333
        ]
      },
      "type": "Feature",
      "properties": {
        "hierarchy": [
          "tgn:7467682",
          "tgn:1000004",
          "tgn:7001014",
          "tgn:1000141",
          "tgn:7029392"
        ],
        "placetype": [
          "aat:300008347"
        ],
        "id": 7467682,
        "name:xx": "Chitouzi"
      }
    },
    {
      "geometry": {
        "type": "Point",
        "coordinates": [
          121.385594,
          23.109998
        ]
      },
      "type": "Feature",
      "properties": {
        "hierarchy": [
          "tgn:7467683",
          "tgn:1000004",
          "tgn:7491221",
          "tgn:1000141",
          "tgn:7029392"
        ],
        "placetype": [
          "aat:300008347"
        ],
        "id": 7467683,
        "name:xx": "Zhitian"
      }
    },
    {
      "geometry": {
        "type": "Point",
        "coordinates": [
          121.648051,
          24.942532
        ]
      },
      "type": "Feature",
      "properties": {
        "hierarchy": [
          "tgn:7467684",
          "tgn:1000004",
          "tgn:1000454",
          "tgn:1000141",
          "tgn:7029392"
        ],
        "placetype": [
          "aat:300008795",
          "aat:300008798"
        ],
        "id": 7467684,
        "name:xx": "Zhitan Shan"
      }
    },
    {
      "geometry": {
        "type": "Point",
        "coordinates": [
          121.541892,
          24.946531
        ]
      },
      "type": "Feature",
      "properties": {
        "hierarchy": [
          "tgn:7467685",
          "tgn:1000004",
          "tgn:1000454",
          "tgn:1000141",
          "tgn:7029392"
        ],
        "placetype": [
          "aat:300008347"
        ],
        "id": 7467685,
        "name:xx": "Zhitan"
      }
    },
    {
      "geometry": {
        "type": "Point",
        "coordinates": [
          120.825833,
          21.756944
        ]
      },
      "type": "Feature",
      "properties": {
        "hierarchy": [
          "tgn:7467686",
          "tgn:1000004",
          "tgn:7492971",
          "tgn:1000141",
          "tgn:7029392"
        ],
        "placetype": [
          "aat:300011692"
        ],
        "id": 7467686,
        "name:xx": "Qixing Yan"
      }
    },
    {
      "geometry": {
        "type": "Point",
        "coordinates": [
          121.632257,
          24.025843
        ]
      },
      "type": "Feature",
      "properties": {
        "hierarchy": [
          "tgn:7467687",
          "tgn:7001010",
          "tgn:1000004",
          "tgn:1000141",
          "tgn:7029392"
        ],
        "placetype": [
          "aat:300008347"
        ],
        "id": 7467687,
        "name:xx": "Qixingtan"
      }
    },
    {
      "geometry": {
        "type": "Point",
        "coordinates": [
          120.4148,
          23.130652
        ]
      },
      "type": "Feature",
      "properties": {
        "hierarchy": [
          "tgn:7467688",
          "tgn:1000004",
          "tgn:7490934",
          "tgn:1000141",
          "tgn:7029392"
        ],
        "placetype": [
          "aat:300008777"
        ],
        "id": 7467688,
        "name:xx": "Qiliwa Shan"
      }
    },
    {
      "geometry": {
        "type": "Point",
        "coordinates": [
          120.386944,
          22.789722
        ]
      },
      "type": "Feature",
      "properties": {
        "hierarchy": [
          "tgn:7467689",
          "tgn:7001004",
          "tgn:1000004",
          "tgn:1000141",
          "tgn:7029392"
        ],
        "placetype": [
          "aat:300008777"
        ],
        "id": 7467689,
        "name:xx": "Qiliu Shan"
      }
    }
  ]
}
