{
  "type": "FeatureCollection",
  "features": [
    {
      "geometry": {
        "type": "Point",
        "coordinates": [
          120.717774,
          22.742849
        ]
      },
      "type": "Feature",
      "properties": {
        "hierarchy": [
          "tgn:7494880",
          "tgn:1000004",
          "tgn:7492971",
          "tgn:1000141",
          "tgn:7029392"
        ],
        "placetype": [
          "aat:300007836"
        ],
        "id": 7494880,
        "name:xx": "Di'erhao Qiao"
      }
    },
    {
      "geometry": {
        "type": "Point",
        "coordinates": [
          120.62381,
          22.741157
        ]
      },
      "type": "Feature",
      "properties": {
        "hierarchy": [
          "tgn:7494881",
          "tgn:1000004",
          "tgn:7492971",
          "tgn:1000141",
          "tgn:7029392"
        ],
        "placetype": [
          "aat:300387033"
        ],
        "id": 7494881,
        "name:xx": "Pingding"
      }
    },
    {
      "geometry": {
        "type": "Point",
        "coordinates": [
          120.624224,
          22.685032
        ]
      },
      "type": "Feature",
      "properties": {
        "hierarchy": [
          "tgn:7494882",
          "tgn:1000004",
          "tgn:7492971",
          "tgn:1000141",
          "tgn:7029392"
        ],
        "placetype": [
          "aat:300387033"
        ],
        "id": 7494882,
        "name:xx": "Pizitou"
      }
    },
    {
      "geometry": {
        "type": "Point",
        "coordinates": [
          120.635371,
          22.622396
        ]
      },
      "type": "Feature",
      "properties": {
        "hierarchy": [
          "tgn:7494883",
          "tgn:1000004",
          "tgn:7492971",
          "tgn:1000141",
          "tgn:7029392"
        ],
        "placetype": [
          "aat:300008347"
        ],
        "id": 7494883,
        "name:xx": "Dali"
      }
    },
    {
      "geometry": {
        "type": "Point",
        "coordinates": [
          120.586645,
          22.736493
        ]
      },
      "type": "Feature",
      "properties": {
        "hierarchy": [
          "tgn:7494884",
          "tgn:1000004",
          "tgn:7492971",
          "tgn:1000141",
          "tgn:7029392"
        ],
        "placetype": [
          "aat:300387033"
        ],
        "id": 7494884,
        "name:xx": "Gaolanglang"
      }
    },
    {
      "geometry": {
        "type": "Point",
        "coordinates": [
          120.553154,
          22.745483
        ]
      },
      "type": "Feature",
      "properties": {
        "hierarchy": [
          "tgn:7494885",
          "tgn:1000004",
          "tgn:7492971",
          "tgn:1000141",
          "tgn:7029392"
        ],
        "placetype": [
          "aat:300387033"
        ],
        "id": 7494885,
        "name:xx": "Xinwei"
      }
    },
    {
      "geometry": {
        "type": "Point",
        "coordinates": [
          120.556939,
          22.699305
        ]
      },
      "type": "Feature",
      "properties": {
        "hierarchy": [
          "tgn:7494886",
          "tgn:1000004",
          "tgn:7492971",
          "tgn:1000141",
          "tgn:7029392"
        ],
        "placetype": [
          "aat:300387033"
        ],
        "id": 7494886,
        "name:xx": "Zhuye"
      }
    },
    {
      "geometry": {
        "type": "Point",
        "coordinates": [
          120.536536,
          22.616583
        ]
      },
      "type": "Feature",
      "properties": {
        "hierarchy": [
          "tgn:7494888",
          "tgn:1000004",
          "tgn:7492971",
          "tgn:1000141",
          "tgn:7029392"
        ],
        "placetype": [
          "aat:300008347"
        ],
        "id": 7494888,
        "name:xx": "Xiazhutoujiao"
      }
    },
    {
      "geometry": {
        "type": "Point",
        "coordinates": [
          120.551746,
          22.536416
        ]
      },
      "type": "Feature",
      "properties": {
        "hierarchy": [
          "tgn:7494889",
          "tgn:1000004",
          "tgn:7492971",
          "tgn:1000141",
          "tgn:7029392"
        ],
        "placetype": [
          "aat:300008347"
        ],
        "id": 7494889,
        "name:xx": "Liucuozhuang"
      }
    }
  ]
}
