{
  "type": "FeatureCollection",
  "features": [
    {
      "geometry": {
        "type": "Point",
        "coordinates": [
          120.888611,
          22.354444
        ]
      },
      "type": "Feature",
      "properties": {
        "hierarchy": [
          "tgn:7484920",
          "tgn:1000004",
          "tgn:7491221",
          "tgn:1000141",
          "tgn:7029392"
        ],
        "placetype": [
          "aat:300007899"
        ],
        "id": 7484920,
        "name:xx": "Guzhuang Liuhao Suidao"
      }
    },
    {
      "geometry": {
        "type": "Point",
        "coordinates": [
          120.893056,
          22.357778
        ]
      },
      "type": "Feature",
      "properties": {
        "hierarchy": [
          "tgn:7484921",
          "tgn:1000004",
          "tgn:7491221",
          "tgn:1000141",
          "tgn:7029392"
        ],
        "placetype": [
          "aat:300007899"
        ],
        "id": 7484921,
        "name:xx": "Dawu Yihao Suidao"
      }
    },
    {
      "geometry": {
        "type": "Point",
        "coordinates": [
          120.907222,
          22.364167
        ]
      },
      "type": "Feature",
      "properties": {
        "hierarchy": [
          "tgn:7484922",
          "tgn:1000004",
          "tgn:7491221",
          "tgn:1000141",
          "tgn:7029392"
        ],
        "placetype": [
          "aat:300006495"
        ],
        "id": 7484922,
        "name:xx": "Dawu Guozhong"
      }
    },
    {
      "geometry": {
        "type": "Point",
        "coordinates": [
          120.908611,
          22.371111
        ]
      },
      "type": "Feature",
      "properties": {
        "hierarchy": [
          "tgn:7484923",
          "tgn:1000004",
          "tgn:7491221",
          "tgn:1000141",
          "tgn:7029392"
        ],
        "placetype": [
          "aat:300007899"
        ],
        "id": 7484923,
        "name:xx": "Dawu Erhao Suidao"
      }
    },
    {
      "geometry": {
        "type": "Point",
        "coordinates": [
          120.887222,
          22.372778
        ]
      },
      "type": "Feature",
      "properties": {
        "hierarchy": [
          "tgn:7484924",
          "tgn:1000004",
          "tgn:7491221",
          "tgn:1000141",
          "tgn:7029392"
        ],
        "placetype": [
          "aat:300387033"
        ],
        "id": 7484924,
        "name:xx": "Daniaowan Shan"
      }
    },
    {
      "geometry": {
        "type": "Point",
        "coordinates": [
          120.928333,
          22.418611
        ]
      },
      "type": "Feature",
      "properties": {
        "hierarchy": [
          "tgn:7484925",
          "tgn:1000004",
          "tgn:7491221",
          "tgn:1000141",
          "tgn:7029392"
        ],
        "placetype": [
          "aat:300007899"
        ],
        "id": 7484925,
        "name:xx": "Jiajinlin Suidao"
      }
    },
    {
      "geometry": {
        "type": "Point",
        "coordinates": [
          120.931111,
          22.420556
        ]
      },
      "type": "Feature",
      "properties": {
        "hierarchy": [
          "tgn:7484926",
          "tgn:1000004",
          "tgn:7491221",
          "tgn:1000141",
          "tgn:7029392"
        ],
        "placetype": [
          "aat:300007836"
        ],
        "id": 7484926,
        "name:xx": "Fushan Qiao"
      }
    },
    {
      "geometry": {
        "type": "Point",
        "coordinates": [
          120.938611,
          22.443889
        ]
      },
      "type": "Feature",
      "properties": {
        "hierarchy": [
          "tgn:7484927",
          "tgn:1000004",
          "tgn:7491221",
          "tgn:1000141",
          "tgn:7029392"
        ],
        "placetype": [
          "aat:300006495"
        ],
        "id": 7484927,
        "name:xx": "Dazhu Guoxiao"
      }
    },
    {
      "geometry": {
        "type": "Point",
        "coordinates": [
          120.863611,
          22.334444
        ]
      },
      "type": "Feature",
      "properties": {
        "hierarchy": [
          "tgn:7484928",
          "tgn:1000004",
          "tgn:7491221",
          "tgn:1000141",
          "tgn:7029392"
        ],
        "placetype": [
          "aat:300007899"
        ],
        "id": 7484928,
        "name:xx": "Guzhuang Yihao Suidao"
      }
    },
    {
      "geometry": {
        "type": "Point",
        "coordinates": [
          120.866667,
          22.336667
        ]
      },
      "type": "Feature",
      "properties": {
        "hierarchy": [
          "tgn:7484929",
          "tgn:1000004",
          "tgn:7491221",
          "tgn:1000141",
          "tgn:7029392"
        ],
        "placetype": [
          "aat:300007899"
        ],
        "id": 7484929,
        "name:xx": "Guzhuang Erhao Suidao"
      }
    }
  ]
}
