{
  "type": "FeatureCollection",
  "features": [
    {
      "geometry": {
        "type": "Point",
        "coordinates": [
          73.938271,
          34.105676
        ]
      },
      "type": "Feature",
      "properties": {
        "hierarchy": [
          "tgn:7590280",
          "tgn:1000004",
          "tgn:7000198",
          "tgn:7000799",
          "tgn:7029392"
        ],
        "placetype": [
          "aat:300008699"
        ],
        "name:en": "Urūseka Katha",
        "id": 7590280
      }
    },
    {
      "geometry": {
        "type": "Point",
        "coordinates": [
          73.968003,
          34.091295
        ]
      },
      "type": "Feature",
      "properties": {
        "hierarchy": [
          "tgn:7590281",
          "tgn:1000004",
          "tgn:7000198",
          "tgn:7000799",
          "tgn:7029392"
        ],
        "placetype": [
          "aat:300008699"
        ],
        "name:en": "Nāwa na Kas",
        "id": 7590281
      }
    },
    {
      "geometry": {
        "type": "Point",
        "coordinates": [
          73.985088,
          34.01295
        ]
      },
      "type": "Feature",
      "properties": {
        "hierarchy": [
          "tgn:7590282",
          "tgn:1000004",
          "tgn:7000198",
          "tgn:7000799",
          "tgn:7029392"
        ],
        "placetype": [
          "aat:300008699"
        ],
        "name:en": "Fateh ka Kas",
        "id": 7590282
      }
    },
    {
      "geometry": {
        "type": "Point",
        "coordinates": [
          73.959106,
          34.100926
        ]
      },
      "type": "Feature",
      "properties": {
        "hierarchy": [
          "tgn:7590283",
          "tgn:1000004",
          "tgn:7000198",
          "tgn:7000799",
          "tgn:7029392"
        ],
        "placetype": [
          "aat:300008699"
        ],
        "name:en": "Dara Thanda Pāni",
        "id": 7590283
      }
    },
    {
      "geometry": {
        "type": "Point",
        "coordinates": [
          73.98133,
          34.108717
        ]
      },
      "type": "Feature",
      "properties": {
        "hierarchy": [
          "tgn:7590284",
          "tgn:1000004",
          "tgn:7000198",
          "tgn:7000799",
          "tgn:7029392"
        ],
        "placetype": [
          "aat:300008699"
        ],
        "name:en": "Bāndi Shāhdara da Nār",
        "id": 7590284
      }
    },
    {
      "geometry": {
        "type": "Point",
        "coordinates": [
          73.954792,
          34.097032
        ]
      },
      "type": "Feature",
      "properties": {
        "hierarchy": [
          "tgn:7590285",
          "tgn:1000004",
          "tgn:7000198",
          "tgn:7000799",
          "tgn:7029392"
        ],
        "placetype": [
          "aat:300008347"
        ],
        "name:en": "Īsham",
        "id": 7590285
      }
    },
    {
      "geometry": {
        "type": "Point",
        "coordinates": [
          73.934509,
          34.105259
        ]
      },
      "type": "Feature",
      "properties": {
        "hierarchy": [
          "tgn:7590286",
          "tgn:1000004",
          "tgn:7000198",
          "tgn:7000799",
          "tgn:7029392"
        ],
        "placetype": [
          "aat:300008347"
        ],
        "name:en": "Urūsa",
        "id": 7590286
      }
    },
    {
      "geometry": {
        "type": "Point",
        "coordinates": [
          73.99329,
          34.161389
        ]
      },
      "type": "Feature",
      "properties": {
        "hierarchy": [
          "tgn:7590287",
          "tgn:1000004",
          "tgn:7000198",
          "tgn:7000799",
          "tgn:7029392"
        ],
        "placetype": [
          "aat:300008347"
        ],
        "name:en": "Trāgān",
        "id": 7590287
      }
    },
    {
      "geometry": {
        "type": "Point",
        "coordinates": [
          73.922222,
          34.05
        ]
      },
      "type": "Feature",
      "properties": {
        "hierarchy": [
          "tgn:7590288",
          "tgn:1000004",
          "tgn:7000198",
          "tgn:7000799",
          "tgn:7029392"
        ],
        "placetype": [
          "aat:300008347"
        ],
        "name:en": "Tilpatra",
        "id": 7590288
      }
    },
    {
      "geometry": {
        "type": "Point",
        "coordinates": [
          73.992258,
          34.123214
        ]
      },
      "type": "Feature",
      "properties": {
        "hierarchy": [
          "tgn:7590289",
          "tgn:1000004",
          "tgn:7000198",
          "tgn:7000799",
          "tgn:7029392"
        ],
        "placetype": [
          "aat:300008347"
        ],
        "name:en": "Sultān Baihk",
        "id": 7590289
      }
    }
  ]
}
