{
  "type": "FeatureCollection",
  "features": [
    {
      "geometry": {
        "type": "Point",
        "coordinates": [
          75.446,
          28.2143
        ]
      },
      "type": "Feature",
      "properties": {
        "hierarchy": [
          "tgn:7585150",
          "tgn:1000004",
          "tgn:7000198",
          "tgn:7016788",
          "tgn:7029392"
        ],
        "placetype": [
          "aat:300008347"
        ],
        "name:en": "Pakkori ki Dhāni",
        "id": 7585150
      }
    },
    {
      "geometry": {
        "type": "Point",
        "coordinates": [
          75.4443,
          28.2158
        ]
      },
      "type": "Feature",
      "properties": {
        "hierarchy": [
          "tgn:7585151",
          "tgn:1000004",
          "tgn:7000198",
          "tgn:7016788",
          "tgn:7029392"
        ],
        "placetype": [
          "aat:300008347"
        ],
        "name:en": "Tibra ki Dhāni",
        "id": 7585151
      }
    },
    {
      "geometry": {
        "type": "Point",
        "coordinates": [
          75.467433,
          28.220895
        ]
      },
      "type": "Feature",
      "properties": {
        "hierarchy": [
          "tgn:7585152",
          "tgn:1000004",
          "tgn:7000198",
          "tgn:7016788",
          "tgn:7029392"
        ],
        "placetype": [
          "aat:300008347"
        ],
        "name:en": "Kāsimpura",
        "id": 7585152
      }
    },
    {
      "geometry": {
        "type": "Point",
        "coordinates": [
          75.494171,
          28.221835
        ]
      },
      "type": "Feature",
      "properties": {
        "hierarchy": [
          "tgn:7585153",
          "tgn:1000004",
          "tgn:7000198",
          "tgn:7016788",
          "tgn:7029392"
        ],
        "placetype": [
          "aat:300008347"
        ],
        "name:en": "Māligaon",
        "id": 7585153
      }
    },
    {
      "geometry": {
        "type": "Point",
        "coordinates": [
          75.455311,
          28.230706
        ]
      },
      "type": "Feature",
      "properties": {
        "hierarchy": [
          "tgn:7585154",
          "tgn:1000004",
          "tgn:7000198",
          "tgn:7016788",
          "tgn:7029392"
        ],
        "placetype": [
          "aat:300008347"
        ],
        "name:en": "Jhilāli Dhāni",
        "id": 7585154
      }
    },
    {
      "geometry": {
        "type": "Point",
        "coordinates": [
          75.412915,
          28.226994
        ]
      },
      "type": "Feature",
      "properties": {
        "hierarchy": [
          "tgn:7585155",
          "tgn:1000004",
          "tgn:7000198",
          "tgn:7016788",
          "tgn:7029392"
        ],
        "placetype": [
          "aat:300008347"
        ],
        "name:en": "Vasoda ki Dhāni",
        "id": 7585155
      }
    },
    {
      "geometry": {
        "type": "Point",
        "coordinates": [
          75.410155,
          28.233862
        ]
      },
      "type": "Feature",
      "properties": {
        "hierarchy": [
          "tgn:7585156",
          "tgn:1000004",
          "tgn:7000198",
          "tgn:7016788",
          "tgn:7029392"
        ],
        "placetype": [
          "aat:300008347"
        ],
        "name:en": "Lālpur",
        "id": 7585156
      }
    },
    {
      "geometry": {
        "type": "Point",
        "coordinates": [
          75.483632,
          28.243134
        ]
      },
      "type": "Feature",
      "properties": {
        "hierarchy": [
          "tgn:7585157",
          "tgn:1000004",
          "tgn:7000198",
          "tgn:7016788",
          "tgn:7029392"
        ],
        "placetype": [
          "aat:300008347"
        ],
        "name:en": "Ghumansar Khurd",
        "id": 7585157
      }
    },
    {
      "geometry": {
        "type": "Point",
        "coordinates": [
          75.3859,
          28.2381
        ]
      },
      "type": "Feature",
      "properties": {
        "hierarchy": [
          "tgn:7585158",
          "tgn:1000004",
          "tgn:7000198",
          "tgn:7016788",
          "tgn:7029392"
        ],
        "placetype": [
          "aat:300008347"
        ],
        "name:en": "Hānutpura",
        "id": 7585158
      }
    },
    {
      "geometry": {
        "type": "Point",
        "coordinates": [
          75.4532,
          28.1257
        ]
      },
      "type": "Feature",
      "properties": {
        "hierarchy": [
          "tgn:7585159",
          "tgn:1000004",
          "tgn:7000198",
          "tgn:7016788",
          "tgn:7029392"
        ],
        "placetype": [
          "aat:300008347"
        ],
        "name:en": "Gujaron ki Dhāni",
        "id": 7585159
      }
    }
  ]
}
