{
  "type": "FeatureCollection",
  "features": [
    {
      "geometry": {
        "type": "Point",
        "coordinates": [
          120.263421,
          23.045342
        ]
      },
      "type": "Feature",
      "properties": {
        "hierarchy": [
          "tgn:7482270",
          "tgn:1000004",
          "tgn:7490934",
          "tgn:1000141",
          "tgn:7029392"
        ],
        "placetype": [
          "aat:300007595"
        ],
        "id": 7482270,
        "name:xx": "Sangan Gong"
      }
    },
    {
      "geometry": {
        "type": "Point",
        "coordinates": [
          120.278923,
          23.055878
        ]
      },
      "type": "Feature",
      "properties": {
        "hierarchy": [
          "tgn:7482272",
          "tgn:1000004",
          "tgn:7490934",
          "tgn:1000141",
          "tgn:7029392"
        ],
        "placetype": [
          "aat:300008699"
        ],
        "id": 7482272,
        "name:xx": "Damugan Xi"
      }
    },
    {
      "geometry": {
        "type": "Point",
        "coordinates": [
          120.251281,
          23.026309
        ]
      },
      "type": "Feature",
      "properties": {
        "hierarchy": [
          "tgn:7482273",
          "tgn:1000004",
          "tgn:7490934",
          "tgn:1000141",
          "tgn:7029392"
        ],
        "placetype": [
          "aat:300387302"
        ],
        "id": 7482273,
        "name:xx": "Yongkang Gongyequ"
      }
    },
    {
      "geometry": {
        "type": "Point",
        "coordinates": [
          120.277212,
          23.058452
        ]
      },
      "type": "Feature",
      "properties": {
        "hierarchy": [
          "tgn:7482274",
          "tgn:1000004",
          "tgn:7490934",
          "tgn:1000141",
          "tgn:7029392"
        ],
        "placetype": [
          "aat:300007836"
        ],
        "id": 7482274,
        "name:xx": "Fenghua Qiao"
      }
    },
    {
      "geometry": {
        "type": "Point",
        "coordinates": [
          120.289783,
          23.058386
        ]
      },
      "type": "Feature",
      "properties": {
        "hierarchy": [
          "tgn:7482275",
          "tgn:1000004",
          "tgn:7490934",
          "tgn:1000141",
          "tgn:7029392"
        ],
        "placetype": [
          "aat:300000206"
        ],
        "id": 7482275,
        "name:xx": "Fanziliao Nongchang"
      }
    },
    {
      "geometry": {
        "type": "Point",
        "coordinates": [
          120.294514,
          23.064626
        ]
      },
      "type": "Feature",
      "properties": {
        "hierarchy": [
          "tgn:7482276",
          "tgn:1000004",
          "tgn:7490934",
          "tgn:1000141",
          "tgn:7029392"
        ],
        "placetype": [
          "aat:300006610"
        ],
        "id": 7482276,
        "name:xx": "Yuandong Gongzhuan"
      }
    },
    {
      "geometry": {
        "type": "Point",
        "coordinates": [
          120.40254,
          23.074521
        ]
      },
      "type": "Feature",
      "properties": {
        "hierarchy": [
          "tgn:7482277",
          "tgn:1000004",
          "tgn:7490934",
          "tgn:1000141",
          "tgn:7029392"
        ],
        "placetype": [
          "aat:300008777"
        ],
        "id": 7482277,
        "name:xx": "Niumuling"
      }
    },
    {
      "geometry": {
        "type": "Point",
        "coordinates": [
          120.280379,
          23.059108
        ]
      },
      "type": "Feature",
      "properties": {
        "hierarchy": [
          "tgn:7482279",
          "tgn:1000004",
          "tgn:7490934",
          "tgn:1000141",
          "tgn:7029392"
        ],
        "placetype": [
          "aat:300008699"
        ],
        "id": 7482279,
        "name:xx": "Tanding Xi"
      }
    }
  ]
}
