{
  "type": "FeatureCollection",
  "features": [
    {
      "geometry": {
        "type": "Point",
        "coordinates": [
          121.680569,
          25.1161
        ]
      },
      "type": "Feature",
      "properties": {
        "hierarchy": [
          "tgn:7498460",
          "tgn:1000957",
          "tgn:1000004",
          "tgn:1000141",
          "tgn:7029392"
        ],
        "placetype": [
          "aat:300008347"
        ],
        "id": 7498460,
        "name:xx": "Changtan"
      }
    },
    {
      "geometry": {
        "type": "Point",
        "coordinates": [
          121.678837,
          25.122892
        ]
      },
      "type": "Feature",
      "properties": {
        "hierarchy": [
          "tgn:7498462",
          "tgn:1000957",
          "tgn:1000004",
          "tgn:1000141",
          "tgn:7029392"
        ],
        "placetype": [
          "aat:300008347"
        ],
        "id": 7498462,
        "name:xx": "Liyukeng"
      }
    },
    {
      "geometry": {
        "type": "Point",
        "coordinates": [
          121.69895,
          25.143047
        ]
      },
      "type": "Feature",
      "properties": {
        "hierarchy": [
          "tgn:7498466",
          "tgn:1000957",
          "tgn:1000004",
          "tgn:1000141",
          "tgn:7029392"
        ],
        "placetype": [
          "aat:300008347"
        ],
        "id": 7498466,
        "name:xx": "Sanceng"
      }
    },
    {
      "geometry": {
        "type": "Point",
        "coordinates": [
          121.691556,
          25.146057
        ]
      },
      "type": "Feature",
      "properties": {
        "hierarchy": [
          "tgn:7498467",
          "tgn:1000957",
          "tgn:1000004",
          "tgn:1000141",
          "tgn:7029392"
        ],
        "placetype": [
          "aat:300008347"
        ],
        "id": 7498467,
        "name:xx": "Liuceng"
      }
    },
    {
      "geometry": {
        "type": "Point",
        "coordinates": [
          121.706092,
          25.165547
        ]
      },
      "type": "Feature",
      "properties": {
        "hierarchy": [
          "tgn:7498468",
          "tgn:1000957",
          "tgn:1000004",
          "tgn:1000141",
          "tgn:7029392"
        ],
        "placetype": [
          "aat:300008347"
        ],
        "id": 7498468,
        "name:xx": "Aodi"
      }
    },
    {
      "geometry": {
        "type": "Point",
        "coordinates": [
          121.673652,
          25.166661
        ]
      },
      "type": "Feature",
      "properties": {
        "hierarchy": [
          "tgn:7498469",
          "tgn:1000004",
          "tgn:1000454",
          "tgn:1000141",
          "tgn:7029392"
        ],
        "placetype": [
          "aat:300008347"
        ],
        "id": 7498469,
        "name:xx": "Eryikeng"
      }
    }
  ]
}
