{
  "type": "FeatureCollection",
  "features": [
    {
      "geometry": {
        "type": "Point",
        "coordinates": [
          121.489722,
          22.660833
        ]
      },
      "type": "Feature",
      "properties": {
        "hierarchy": [
          "tgn:1007772",
          "tgn:1000004",
          "tgn:7491221",
          "tgn:1000141",
          "tgn:7029392"
        ],
        "placetype": [
          "aat:300008791"
        ],
        "id": 1007772,
        "name:xx": "Lü Tao"
      }
    },
    {
      "geometry": {
        "type": "Point",
        "coordinates": [
          56.35,
          26.8833
        ]
      },
      "type": "Feature",
      "properties": {
        "hierarchy": [
          "tgn:1007774",
          "tgn:1000004",
          "tgn:7000228",
          "tgn:7000231",
          "tgn:7029392"
        ],
        "placetype": [
          "aat:300008791"
        ],
        "id": 1007774,
        "name:xx": "Lārak, Jazīreh-ye"
      }
    },
    {
      "geometry": {
        "type": "Point",
        "coordinates": [
          -61.05,
          16.3167
        ]
      },
      "type": "Feature",
      "properties": {
        "hierarchy": [
          "tgn:1007776",
          "tgn:7018313",
          "tgn:1000001",
          "tgn:7004545",
          "tgn:7029392"
        ],
        "placetype": [
          "aat:300008791"
        ],
        "id": 1007776,
        "name:xx": "La Désirade"
      }
    },
    {
      "geometry": {
        "type": "Point",
        "coordinates": [
          55.85,
          -4.3333
        ]
      },
      "type": "Feature",
      "properties": {
        "hierarchy": [
          "tgn:1007778",
          "tgn:7001703",
          "tgn:7001242",
          "tgn:1000190",
          "tgn:7029392"
        ],
        "placetype": [
          "aat:300386853"
        ],
        "id": 1007778,
        "name:xx": "La Digue"
      }
    },
    {
      "geometry": {
        "type": "Point",
        "coordinates": [
          8.9333,
          37.5167
        ]
      },
      "type": "Feature",
      "properties": {
        "hierarchy": [
          "tgn:1007779",
          "tgn:7001242",
          "tgn:1002070",
          "tgn:1000205",
          "tgn:7029392"
        ],
        "placetype": [
          "aat:300008791"
        ],
        "id": 1007779,
        "name:xx": "La Galite"
      }
    }
  ]
}
