{
  "type": "FeatureCollection",
  "features": [
    {
      "geometry": {
        "type": "Point",
        "coordinates": [
          78.135061,
          24.129302
        ]
      },
      "type": "Feature",
      "properties": {
        "hierarchy": [
          "tgn:7584580",
          "tgn:1000004",
          "tgn:7000198",
          "tgn:1001894",
          "tgn:7029392"
        ],
        "placetype": [
          "aat:300008347"
        ],
        "name:en": "Hānsua",
        "id": 7584580
      }
    },
    {
      "geometry": {
        "type": "Point",
        "coordinates": [
          78.114866,
          24.130255
        ]
      },
      "type": "Feature",
      "properties": {
        "hierarchy": [
          "tgn:7584581",
          "tgn:1000004",
          "tgn:7000198",
          "tgn:1001894",
          "tgn:7029392"
        ],
        "placetype": [
          "aat:300167671"
        ],
        "name:en": "Nazarpura",
        "id": 7584581
      }
    },
    {
      "geometry": {
        "type": "Point",
        "coordinates": [
          78.09587,
          24.129939
        ]
      },
      "type": "Feature",
      "properties": {
        "hierarchy": [
          "tgn:7584582",
          "tgn:1000004",
          "tgn:7000198",
          "tgn:1001894",
          "tgn:7029392"
        ],
        "placetype": [
          "aat:300008347"
        ],
        "name:en": "Rājpur",
        "id": 7584582
      }
    },
    {
      "geometry": {
        "type": "Point",
        "coordinates": [
          78.076966,
          24.136968
        ]
      },
      "type": "Feature",
      "properties": {
        "hierarchy": [
          "tgn:7584583",
          "tgn:1000004",
          "tgn:7000198",
          "tgn:1001894",
          "tgn:7029392"
        ],
        "placetype": [
          "aat:300008347"
        ],
        "name:en": "Jaragawān",
        "id": 7584583
      }
    },
    {
      "geometry": {
        "type": "Point",
        "coordinates": [
          78.024153,
          24.129222
        ]
      },
      "type": "Feature",
      "properties": {
        "hierarchy": [
          "tgn:7584584",
          "tgn:1000004",
          "tgn:7000198",
          "tgn:1001894",
          "tgn:7029392"
        ],
        "placetype": [
          "aat:300008347"
        ],
        "name:en": "Bhaunrāsa",
        "id": 7584584
      }
    },
    {
      "geometry": {
        "type": "Point",
        "coordinates": [
          78.005013,
          24.143847
        ]
      },
      "type": "Feature",
      "properties": {
        "hierarchy": [
          "tgn:7584585",
          "tgn:1000004",
          "tgn:7000198",
          "tgn:1001894",
          "tgn:7029392"
        ],
        "placetype": [
          "aat:300167671"
        ],
        "name:en": "Karampur",
        "id": 7584585
      }
    },
    {
      "geometry": {
        "type": "Point",
        "coordinates": [
          78.056717,
          24.14408
        ]
      },
      "type": "Feature",
      "properties": {
        "hierarchy": [
          "tgn:7584586",
          "tgn:1000004",
          "tgn:7000198",
          "tgn:1001894",
          "tgn:7029392"
        ],
        "placetype": [
          "aat:300008347"
        ],
        "name:en": "Khiriya",
        "id": 7584586
      }
    },
    {
      "geometry": {
        "type": "Point",
        "coordinates": [
          78.107762,
          24.141174
        ]
      },
      "type": "Feature",
      "properties": {
        "hierarchy": [
          "tgn:7584587",
          "tgn:1000004",
          "tgn:7000198",
          "tgn:1001894",
          "tgn:7029392"
        ],
        "placetype": [
          "aat:300008347"
        ],
        "name:en": "Berkheri",
        "id": 7584587
      }
    },
    {
      "geometry": {
        "type": "Point",
        "coordinates": [
          78.112356,
          24.147604
        ]
      },
      "type": "Feature",
      "properties": {
        "hierarchy": [
          "tgn:7584588",
          "tgn:1000004",
          "tgn:7000198",
          "tgn:1001894",
          "tgn:7029392"
        ],
        "placetype": [
          "aat:300008347"
        ],
        "name:en": "Garha",
        "id": 7584588
      }
    },
    {
      "geometry": {
        "type": "Point",
        "coordinates": [
          78.200717,
          24.147512
        ]
      },
      "type": "Feature",
      "properties": {
        "hierarchy": [
          "tgn:7584589",
          "tgn:1000004",
          "tgn:7000198",
          "tgn:1001894",
          "tgn:7029392"
        ],
        "placetype": [
          "aat:300008347"
        ],
        "name:en": "Musyāwada",
        "id": 7584589
      }
    }
  ]
}
