{
  "type": "FeatureCollection",
  "features": [
    {
      "geometry": {
        "type": "Point",
        "coordinates": [
          120.449255,
          23.592948
        ]
      },
      "type": "Feature",
      "properties": {
        "hierarchy": [
          "tgn:7496510",
          "tgn:7468018",
          "tgn:1000004",
          "tgn:1000141",
          "tgn:7029392"
        ],
        "placetype": [
          "aat:300008699"
        ],
        "id": 7496510,
        "name:xx": "Zhonglin Xi"
      }
    },
    {
      "geometry": {
        "type": "Point",
        "coordinates": [
          120.456436,
          23.592876
        ]
      },
      "type": "Feature",
      "properties": {
        "hierarchy": [
          "tgn:7496511",
          "tgn:7468018",
          "tgn:1000004",
          "tgn:1000141",
          "tgn:7029392"
        ],
        "placetype": [
          "aat:300007836"
        ],
        "id": 7496511,
        "name:xx": "Tandi Qiao"
      }
    },
    {
      "geometry": {
        "type": "Point",
        "coordinates": [
          120.42898,
          23.526707
        ]
      },
      "type": "Feature",
      "properties": {
        "hierarchy": [
          "tgn:7496512",
          "tgn:7468018",
          "tgn:1000004",
          "tgn:1000141",
          "tgn:7029392"
        ],
        "placetype": [
          "aat:300007836"
        ],
        "id": 7496512,
        "name:xx": "Xiayangzi Qiao"
      }
    },
    {
      "geometry": {
        "type": "Point",
        "coordinates": [
          120.423191,
          23.546287
        ]
      },
      "type": "Feature",
      "properties": {
        "hierarchy": [
          "tgn:7496513",
          "tgn:7468018",
          "tgn:1000004",
          "tgn:1000141",
          "tgn:7029392"
        ],
        "placetype": [
          "aat:300007836"
        ],
        "id": 7496513,
        "name:xx": "Wenlong Qiao"
      }
    },
    {
      "geometry": {
        "type": "Point",
        "coordinates": [
          120.433292,
          23.545637
        ]
      },
      "type": "Feature",
      "properties": {
        "hierarchy": [
          "tgn:7496514",
          "tgn:7468018",
          "tgn:1000004",
          "tgn:1000141",
          "tgn:7029392"
        ],
        "placetype": [
          "aat:300007836"
        ],
        "id": 7496514,
        "name:xx": "Minxiong Paishui Qiao"
      }
    },
    {
      "geometry": {
        "type": "Point",
        "coordinates": [
          120.43762,
          23.557025
        ]
      },
      "type": "Feature",
      "properties": {
        "hierarchy": [
          "tgn:7496515",
          "tgn:7468018",
          "tgn:1000004",
          "tgn:1000141",
          "tgn:7029392"
        ],
        "placetype": [
          "aat:300007836"
        ],
        "id": 7496515,
        "name:xx": "Taiping Qiao"
      }
    },
    {
      "geometry": {
        "type": "Point",
        "coordinates": [
          120.415475,
          23.560054
        ]
      },
      "type": "Feature",
      "properties": {
        "hierarchy": [
          "tgn:7496517",
          "tgn:7468018",
          "tgn:1000004",
          "tgn:1000141",
          "tgn:7029392"
        ],
        "placetype": [
          "aat:300007836"
        ],
        "id": 7496517,
        "name:xx": "Fuquan Qiao"
      }
    },
    {
      "geometry": {
        "type": "Point",
        "coordinates": [
          120.418219,
          23.582454
        ]
      },
      "type": "Feature",
      "properties": {
        "hierarchy": [
          "tgn:7496518",
          "tgn:7468018",
          "tgn:1000004",
          "tgn:1000141",
          "tgn:7029392"
        ],
        "placetype": [
          "aat:300007836"
        ],
        "id": 7496518,
        "name:xx": "Liu'an Qiao"
      }
    },
    {
      "geometry": {
        "type": "Point",
        "coordinates": [
          120.42843,
          23.648916
        ]
      },
      "type": "Feature",
      "properties": {
        "hierarchy": [
          "tgn:7496519",
          "tgn:1000004",
          "tgn:7001014",
          "tgn:1000141",
          "tgn:7029392"
        ],
        "placetype": [
          "aat:300007836"
        ],
        "id": 7496519,
        "name:xx": "Chenggong Qiao"
      }
    }
  ]
}
