{
  "type": "FeatureCollection",
  "features": [
    {
      "geometry": {
        "type": "Point",
        "coordinates": [
          120.507886,
          22.736466
        ]
      },
      "type": "Feature",
      "properties": {
        "hierarchy": [
          "tgn:7473330",
          "tgn:1000004",
          "tgn:7492971",
          "tgn:1000141",
          "tgn:7029392"
        ],
        "placetype": [
          "aat:300007836"
        ],
        "id": 7473330,
        "name:xx": "Dongning Qiao"
      }
    },
    {
      "geometry": {
        "type": "Point",
        "coordinates": [
          121.095,
          24.723333
        ]
      },
      "type": "Feature",
      "properties": {
        "hierarchy": [
          "tgn:7473331",
          "tgn:1000004",
          "tgn:7471332",
          "tgn:1000141",
          "tgn:7029392"
        ],
        "placetype": [
          "aat:300000745"
        ],
        "id": 7473331,
        "name:xx": "Xiagongguan"
      }
    },
    {
      "geometry": {
        "type": "Point",
        "coordinates": [
          120.55,
          23.933333
        ]
      },
      "type": "Feature",
      "properties": {
        "hierarchy": [
          "tgn:7473332",
          "tgn:1000004",
          "tgn:7467799",
          "tgn:1000141",
          "tgn:7029392"
        ],
        "placetype": [
          "aat:300008347"
        ],
        "id": 7473332,
        "name:xx": "Dongning"
      }
    },
    {
      "geometry": {
        "type": "Point",
        "coordinates": [
          121.073889,
          24.970833
        ]
      },
      "type": "Feature",
      "properties": {
        "hierarchy": [
          "tgn:7473333",
          "tgn:1000004",
          "tgn:7001013",
          "tgn:1000141",
          "tgn:7029392"
        ],
        "placetype": [
          "aat:300007836"
        ],
        "id": 7473333,
        "name:xx": "Dongming Qiao"
      }
    },
    {
      "geometry": {
        "type": "Point",
        "coordinates": [
          120.355833,
          22.981111
        ]
      },
      "type": "Feature",
      "properties": {
        "hierarchy": [
          "tgn:7473334",
          "tgn:1000004",
          "tgn:7490934",
          "tgn:1000141",
          "tgn:7029392"
        ],
        "placetype": [
          "aat:300008777"
        ],
        "id": 7473334,
        "name:xx": "Daping Shan"
      }
    },
    {
      "geometry": {
        "type": "Point",
        "coordinates": [
          121.493688,
          23.964777
        ]
      },
      "type": "Feature",
      "properties": {
        "hierarchy": [
          "tgn:7473335",
          "tgn:7001010",
          "tgn:1000004",
          "tgn:1000141",
          "tgn:7029392"
        ],
        "placetype": [
          "aat:300008347"
        ],
        "id": 7473335,
        "name:xx": "Tongmen"
      }
    },
    {
      "geometry": {
        "type": "Point",
        "coordinates": [
          120.957818,
          24.185887
        ]
      },
      "type": "Feature",
      "properties": {
        "hierarchy": [
          "tgn:7473336",
          "tgn:1000004",
          "tgn:7001009",
          "tgn:1000141",
          "tgn:7029392"
        ],
        "placetype": [
          "aat:300008798"
        ],
        "id": 7473336,
        "name:xx": "Dongmao Shan"
      }
    },
    {
      "geometry": {
        "type": "Point",
        "coordinates": [
          120.92758,
          24.181096
        ]
      },
      "type": "Feature",
      "properties": {
        "hierarchy": [
          "tgn:7473337",
          "tgn:1000004",
          "tgn:7001009",
          "tgn:1000141",
          "tgn:7029392"
        ],
        "placetype": [
          "aat:300008699"
        ],
        "id": 7473337,
        "name:xx": "Dongmao Xi"
      }
    },
    {
      "geometry": {
        "type": "Point",
        "coordinates": [
          121.195,
          23.191667
        ]
      },
      "type": "Feature",
      "properties": {
        "hierarchy": [
          "tgn:7473338",
          "tgn:7001010",
          "tgn:1000004",
          "tgn:1000141",
          "tgn:7029392"
        ],
        "placetype": [
          "aat:300008798"
        ],
        "id": 7473338,
        "name:xx": "Dongluntian Shan"
      }
    },
    {
      "geometry": {
        "type": "Point",
        "coordinates": [
          120.655754,
          23.999947
        ]
      },
      "type": "Feature",
      "properties": {
        "hierarchy": [
          "tgn:7473339",
          "tgn:7488858",
          "tgn:1000004",
          "tgn:1000141",
          "tgn:7029392"
        ],
        "placetype": [
          "aat:300008347"
        ],
        "id": 7473339,
        "name:xx": "Dingqielao"
      }
    }
  ]
}
