{
  "type": "FeatureCollection",
  "features": [
    {
      "geometry": {
        "type": "Point",
        "coordinates": [
          31.19613,
          30.017749
        ]
      },
      "type": "Feature",
      "properties": {
        "hierarchy": [
          "tgn:7530480",
          "tgn:7001242",
          "tgn:7016833",
          "tgn:1001083",
          "tgn:7029392"
        ],
        "placetype": [
          "aat:300000745"
        ],
        "id": 7530480,
        "name:xx": "Taqsīm 'Amrū Bin al 'Āş"
      }
    },
    {
      "geometry": {
        "type": "Point",
        "coordinates": [
          31.195962,
          30.016626
        ]
      },
      "type": "Feature",
      "properties": {
        "hierarchy": [
          "tgn:7530481",
          "tgn:7001242",
          "tgn:7016833",
          "tgn:1001083",
          "tgn:7029392"
        ],
        "placetype": [
          "aat:300007544"
        ],
        "id": 7530481,
        "name:xx": "Masjid Fāţimah az Zahrā'"
      }
    },
    {
      "geometry": {
        "type": "Point",
        "coordinates": [
          31.194703,
          30.017458
        ]
      },
      "type": "Feature",
      "properties": {
        "hierarchy": [
          "tgn:7530482",
          "tgn:7001242",
          "tgn:7016833",
          "tgn:1001083",
          "tgn:7029392"
        ],
        "placetype": [
          "aat:300007544"
        ],
        "id": 7530482,
        "name:xx": "Masjid al Hudá"
      }
    },
    {
      "geometry": {
        "type": "Point",
        "coordinates": [
          31.193322,
          30.018672
        ]
      },
      "type": "Feature",
      "properties": {
        "hierarchy": [
          "tgn:7530483",
          "tgn:7001242",
          "tgn:7016833",
          "tgn:1001083",
          "tgn:7029392"
        ],
        "placetype": [
          "aat:300007544"
        ],
        "id": 7530483,
        "name:xx": "Masjid al Firdaws"
      }
    },
    {
      "geometry": {
        "type": "Point",
        "coordinates": [
          31.200399,
          30.02319
        ]
      },
      "type": "Feature",
      "properties": {
        "hierarchy": [
          "tgn:7530484",
          "tgn:7001242",
          "tgn:7016833",
          "tgn:1001083",
          "tgn:7029392"
        ],
        "placetype": [
          "aat:300000745"
        ],
        "id": 7530484,
        "name:xx": "Sakan Abū Qatādah"
      }
    },
    {
      "geometry": {
        "type": "Point",
        "coordinates": [
          31.197464,
          30.025112
        ]
      },
      "type": "Feature",
      "properties": {
        "hierarchy": [
          "tgn:7530485",
          "tgn:7001242",
          "tgn:7016833",
          "tgn:1001083",
          "tgn:7029392"
        ],
        "placetype": [
          "aat:300004792"
        ],
        "id": 7530485,
        "name:xx": "Mu'assasat Ri'āyat al Aḩdāth Banīn"
      }
    },
    {
      "geometry": {
        "type": "Point",
        "coordinates": [
          31.207312,
          30.003118
        ]
      },
      "type": "Feature",
      "properties": {
        "hierarchy": [
          "tgn:7530486",
          "tgn:7001242",
          "tgn:7016833",
          "tgn:1001083",
          "tgn:7029392"
        ],
        "placetype": [
          "aat:300004792"
        ],
        "id": 7530486,
        "name:xx": "Shirkat al Baţţārīyāt"
      }
    },
    {
      "geometry": {
        "type": "Point",
        "coordinates": [
          31.204383,
          30.083846
        ]
      },
      "type": "Feature",
      "properties": {
        "hierarchy": [
          "tgn:7530487",
          "tgn:7001242",
          "tgn:7016833",
          "tgn:1001083",
          "tgn:7029392"
        ],
        "placetype": [
          "aat:300007466"
        ],
        "id": 7530487,
        "name:xx": "Kanīsat al Masīḩ"
      }
    },
    {
      "geometry": {
        "type": "Point",
        "coordinates": [
          31.201555,
          30.0258
        ]
      },
      "type": "Feature",
      "properties": {
        "hierarchy": [
          "tgn:7530488",
          "tgn:7001242",
          "tgn:7016833",
          "tgn:1001083",
          "tgn:7029392"
        ],
        "placetype": [
          "aat:300007780"
        ],
        "id": 7530488,
        "name:xx": "Jāmi'at al Qāhirah"
      }
    },
    {
      "geometry": {
        "type": "Point",
        "coordinates": [
          31.200876,
          30.025903
        ]
      },
      "type": "Feature",
      "properties": {
        "hierarchy": [
          "tgn:7530489",
          "tgn:7001242",
          "tgn:7016833",
          "tgn:1001083",
          "tgn:7029392"
        ],
        "placetype": [
          "aat:300006676"
        ],
        "id": 7530489,
        "name:xx": "Mustawşaf Makkah at Takhaşşuşī"
      }
    }
  ]
}
