{
  "type": "FeatureCollection",
  "features": [
    {
      "geometry": {
        "type": "Point",
        "coordinates": [
          86.28,
          21.971111
        ]
      },
      "type": "Feature",
      "properties": {
        "hierarchy": [
          "tgn:7569430",
          "tgn:1000004",
          "tgn:7000198",
          "tgn:7016694",
          "tgn:7029392"
        ],
        "placetype": [
          "aat:300008777"
        ],
        "name:en": "Brindaban",
        "id": 7569430
      }
    },
    {
      "geometry": {
        "type": "Point",
        "coordinates": [
          86.216111,
          21.8025
        ]
      },
      "type": "Feature",
      "properties": {
        "hierarchy": [
          "tgn:7569431",
          "tgn:1000004",
          "tgn:7000198",
          "tgn:7016694",
          "tgn:7029392"
        ],
        "placetype": [
          "aat:300008777"
        ],
        "name:en": "Dalki Pahār",
        "id": 7569431
      }
    },
    {
      "geometry": {
        "type": "Point",
        "coordinates": [
          86.193472,
          21.824488
        ]
      },
      "type": "Feature",
      "properties": {
        "hierarchy": [
          "tgn:7569432",
          "tgn:1000004",
          "tgn:7000198",
          "tgn:7016694",
          "tgn:7029392"
        ],
        "placetype": [
          "aat:300008777"
        ],
        "name:en": "Rāmjori Pahār",
        "id": 7569432
      }
    },
    {
      "geometry": {
        "type": "Point",
        "coordinates": [
          86.1025,
          21.831667
        ]
      },
      "type": "Feature",
      "properties": {
        "hierarchy": [
          "tgn:7569433",
          "tgn:1000004",
          "tgn:7000198",
          "tgn:7016694",
          "tgn:7029392"
        ],
        "placetype": [
          "aat:300008777"
        ],
        "name:en": "Guntipāt Pahār",
        "id": 7569433
      }
    },
    {
      "geometry": {
        "type": "Point",
        "coordinates": [
          86.093056,
          21.788056
        ]
      },
      "type": "Feature",
      "properties": {
        "hierarchy": [
          "tgn:7569434",
          "tgn:1000004",
          "tgn:7000198",
          "tgn:7016694",
          "tgn:7029392"
        ],
        "placetype": [
          "aat:300008777"
        ],
        "name:en": "Debigarh Pahār",
        "id": 7569434
      }
    },
    {
      "geometry": {
        "type": "Point",
        "coordinates": [
          78.691896,
          29.979569
        ]
      },
      "type": "Feature",
      "properties": {
        "hierarchy": [
          "tgn:7569435",
          "tgn:1000004",
          "tgn:7000198",
          "tgn:7031786",
          "tgn:7029392"
        ],
        "placetype": [
          "aat:300008347"
        ],
        "name:en": "Kaleth",
        "id": 7569435
      }
    },
    {
      "geometry": {
        "type": "Point",
        "coordinates": [
          78.683056,
          29.973056
        ]
      },
      "type": "Feature",
      "properties": {
        "hierarchy": [
          "tgn:7569436",
          "tgn:1000004",
          "tgn:7000198",
          "tgn:7031786",
          "tgn:7029392"
        ],
        "placetype": [
          "aat:300008347"
        ],
        "name:en": "Gorli",
        "id": 7569436
      }
    },
    {
      "geometry": {
        "type": "Point",
        "coordinates": [
          78.675892,
          29.971077
        ]
      },
      "type": "Feature",
      "properties": {
        "hierarchy": [
          "tgn:7569437",
          "tgn:1000004",
          "tgn:7000198",
          "tgn:7031786",
          "tgn:7029392"
        ],
        "placetype": [
          "aat:300008347"
        ],
        "name:en": "Rameshpur",
        "id": 7569437
      }
    },
    {
      "geometry": {
        "type": "Point",
        "coordinates": [
          78.666944,
          29.972778
        ]
      },
      "type": "Feature",
      "properties": {
        "hierarchy": [
          "tgn:7569438",
          "tgn:1000004",
          "tgn:7000198",
          "tgn:7031786",
          "tgn:7029392"
        ],
        "placetype": [
          "aat:300008347"
        ],
        "name:en": "Daisan",
        "id": 7569438
      }
    },
    {
      "geometry": {
        "type": "Point",
        "coordinates": [
          78.656944,
          29.976944
        ]
      },
      "type": "Feature",
      "properties": {
        "hierarchy": [
          "tgn:7569439",
          "tgn:1000004",
          "tgn:7000198",
          "tgn:7031786",
          "tgn:7029392"
        ],
        "placetype": [
          "aat:300008347"
        ],
        "name:en": "Mangolīgaon",
        "id": 7569439
      }
    }
  ]
}
