{
  "type": "FeatureCollection",
  "features": [
    {
      "geometry": {
        "type": "Point",
        "coordinates": [
          74.781616,
          24.032154
        ]
      },
      "type": "Feature",
      "properties": {
        "hierarchy": [
          "tgn:1076630",
          "tgn:1000004",
          "tgn:7000198",
          "tgn:7016788",
          "tgn:7029392"
        ],
        "placetype": [
          "aat:300008347"
        ],
        "id": 1076630,
        "name:xx": "Pratapgarh"
      }
    },
    {
      "geometry": {
        "type": "Point",
        "coordinates": [
          78.55,
          14.733333
        ]
      },
      "type": "Feature",
      "properties": {
        "hierarchy": [
          "tgn:1076631",
          "tgn:1001828",
          "tgn:1000004",
          "tgn:7000198",
          "tgn:7029392"
        ],
        "placetype": [
          "aat:300008347"
        ],
        "id": 1076631,
        "name:xx": "Proddatur"
      }
    },
    {
      "geometry": {
        "type": "Point",
        "coordinates": [
          78.816,
          10.3833
        ]
      },
      "type": "Feature",
      "properties": {
        "hierarchy": [
          "tgn:1076632",
          "tgn:1000004",
          "tgn:7000198",
          "tgn:7001797",
          "tgn:7029392"
        ],
        "placetype": [
          "aat:300008347"
        ],
        "name:en": "Pudukkottai",
        "id": 1076632
      }
    },
    {
      "geometry": {
        "type": "Point",
        "coordinates": [
          88.2167,
          22.9333
        ]
      },
      "type": "Feature",
      "properties": {
        "hierarchy": [
          "tgn:1076633",
          "tgn:1000004",
          "tgn:7000198",
          "tgn:1001977",
          "tgn:7029392"
        ],
        "placetype": [
          "aat:300008347"
        ],
        "id": 1076633,
        "name:xx": "Puinān"
      }
    },
    {
      "geometry": {
        "type": "Point",
        "coordinates": [
          79.837184,
          26.222868
        ]
      },
      "type": "Feature",
      "properties": {
        "hierarchy": [
          "tgn:1076634",
          "tgn:1000004",
          "tgn:7000198",
          "tgn:7016722",
          "tgn:7029392"
        ],
        "placetype": [
          "aat:300008347"
        ],
        "name:en": "Pukhrāyān",
        "id": 1076634
      }
    },
    {
      "geometry": {
        "type": "Point",
        "coordinates": [
          77.439894,
          31.995155
        ]
      },
      "type": "Feature",
      "properties": {
        "hierarchy": [
          "tgn:1076635",
          "tgn:1000004",
          "tgn:7000198",
          "tgn:1001996",
          "tgn:7029392"
        ],
        "placetype": [
          "aat:300008347"
        ],
        "name:en": "Pulga",
        "id": 1076635
      }
    },
    {
      "geometry": {
        "type": "Point",
        "coordinates": [
          78.333333,
          20.733333
        ]
      },
      "type": "Feature",
      "properties": {
        "hierarchy": [
          "tgn:1076636",
          "tgn:1000004",
          "tgn:7000198",
          "tgn:1001895",
          "tgn:7029392"
        ],
        "placetype": [
          "aat:300008347"
        ],
        "name:en": "Pulgaon",
        "id": 1076636
      }
    },
    {
      "geometry": {
        "type": "Point",
        "coordinates": [
          77.416667,
          9.166667
        ]
      },
      "type": "Feature",
      "properties": {
        "hierarchy": [
          "tgn:1076638",
          "tgn:1000004",
          "tgn:7000198",
          "tgn:7001797",
          "tgn:7029392"
        ],
        "placetype": [
          "aat:300008347"
        ],
        "name:en": "Puliyangudi",
        "id": 1076638
      }
    },
    {
      "geometry": {
        "type": "Point",
        "coordinates": [
          86.648399,
          23.159209
        ]
      },
      "type": "Feature",
      "properties": {
        "hierarchy": [
          "tgn:1076639",
          "tgn:1000004",
          "tgn:7000198",
          "tgn:1001977",
          "tgn:7029392"
        ],
        "placetype": [
          "aat:300008347"
        ],
        "id": 1076639,
        "name:xx": "Puncha"
      }
    }
  ]
}
