{
  "type": "FeatureCollection",
  "features": [
    {
      "geometry": {
        "type": "Point",
        "coordinates": [
          74.117546,
          33.801787
        ]
      },
      "type": "Feature",
      "properties": {
        "hierarchy": [
          "tgn:7588500",
          "tgn:1000004",
          "tgn:7000198",
          "tgn:7000799",
          "tgn:7029392"
        ],
        "placetype": [
          "aat:300008347"
        ],
        "name:en": "Dhokri",
        "id": 7588500
      }
    },
    {
      "geometry": {
        "type": "Point",
        "coordinates": [
          74.072222,
          33.770833
        ]
      },
      "type": "Feature",
      "properties": {
        "hierarchy": [
          "tgn:7588501",
          "tgn:1000004",
          "tgn:7000198",
          "tgn:7000799",
          "tgn:7029392"
        ],
        "placetype": [
          "aat:300008347"
        ],
        "name:en": "Dheri",
        "id": 7588501
      }
    },
    {
      "geometry": {
        "type": "Point",
        "coordinates": [
          74.222222,
          33.836111
        ]
      },
      "type": "Feature",
      "properties": {
        "hierarchy": [
          "tgn:7588502",
          "tgn:1000004",
          "tgn:7000198",
          "tgn:7000799",
          "tgn:7029392"
        ],
        "placetype": [
          "aat:300008347"
        ],
        "name:en": "Dhannu",
        "id": 7588502
      }
    },
    {
      "geometry": {
        "type": "Point",
        "coordinates": [
          74.075703,
          33.800844
        ]
      },
      "type": "Feature",
      "properties": {
        "hierarchy": [
          "tgn:7588503",
          "tgn:1000004",
          "tgn:7000198",
          "tgn:7000799",
          "tgn:7029392"
        ],
        "placetype": [
          "aat:300008347"
        ],
        "name:en": "Degwār Maidiālan",
        "id": 7588503
      }
    },
    {
      "geometry": {
        "type": "Point",
        "coordinates": [
          74.14258,
          33.751207
        ]
      },
      "type": "Feature",
      "properties": {
        "hierarchy": [
          "tgn:7588504",
          "tgn:1000004",
          "tgn:7000198",
          "tgn:7000799",
          "tgn:7029392"
        ],
        "placetype": [
          "aat:300008347"
        ],
        "name:en": "Daleral",
        "id": 7588504
      }
    },
    {
      "geometry": {
        "type": "Point",
        "coordinates": [
          74.234616,
          33.816612
        ]
      },
      "type": "Feature",
      "properties": {
        "hierarchy": [
          "tgn:7588505",
          "tgn:1000004",
          "tgn:7000198",
          "tgn:7000799",
          "tgn:7029392"
        ],
        "placetype": [
          "aat:300008347"
        ],
        "name:en": "Dāngri",
        "id": 7588505
      }
    },
    {
      "geometry": {
        "type": "Point",
        "coordinates": [
          74.089401,
          33.800016
        ]
      },
      "type": "Feature",
      "properties": {
        "hierarchy": [
          "tgn:7588506",
          "tgn:1000004",
          "tgn:7000198",
          "tgn:7000799",
          "tgn:7029392"
        ],
        "placetype": [
          "aat:300008347"
        ],
        "name:en": "Dālān",
        "id": 7588506
      }
    },
    {
      "geometry": {
        "type": "Point",
        "coordinates": [
          80.756446,
          26.140931
        ]
      },
      "type": "Feature",
      "properties": {
        "hierarchy": [
          "tgn:7588507",
          "tgn:1000004",
          "tgn:7000198",
          "tgn:1001894",
          "tgn:7029392"
        ],
        "placetype": [
          "aat:300008347"
        ],
        "name:en": "Bhojpur",
        "id": 7588507
      }
    },
    {
      "geometry": {
        "type": "Point",
        "coordinates": [
          80.597522,
          26.134201
        ]
      },
      "type": "Feature",
      "properties": {
        "hierarchy": [
          "tgn:7588508",
          "tgn:1000004",
          "tgn:7000198",
          "tgn:1001894",
          "tgn:7029392"
        ],
        "placetype": [
          "aat:300008347"
        ],
        "name:en": "Mauhar",
        "id": 7588508
      }
    },
    {
      "geometry": {
        "type": "Point",
        "coordinates": [
          80.544422,
          26.441952
        ]
      },
      "type": "Feature",
      "properties": {
        "hierarchy": [
          "tgn:7588509",
          "tgn:1000004",
          "tgn:7000198",
          "tgn:1001894",
          "tgn:7029392"
        ],
        "placetype": [
          "aat:300008347"
        ],
        "name:en": "Achalganj",
        "id": 7588509
      }
    }
  ]
}
