{
  "type": "FeatureCollection",
  "features": [
    {
      "geometry": {
        "type": "Point",
        "coordinates": [
          120.441667,
          23.325278
        ]
      },
      "type": "Feature",
      "properties": {
        "hierarchy": [
          "tgn:7489800",
          "tgn:1000004",
          "tgn:7490934",
          "tgn:1000141",
          "tgn:7029392"
        ],
        "placetype": [
          "aat:300008347"
        ],
        "id": 7489800,
        "name:xx": "Shezikeng"
      }
    },
    {
      "geometry": {
        "type": "Point",
        "coordinates": [
          121.831022,
          25.10059
        ]
      },
      "type": "Feature",
      "properties": {
        "hierarchy": [
          "tgn:7489801",
          "tgn:1000004",
          "tgn:1000454",
          "tgn:1000141",
          "tgn:7029392"
        ],
        "placetype": [
          "aat:300008347"
        ],
        "id": 7489801,
        "name:xx": "Shezixing"
      }
    },
    {
      "geometry": {
        "type": "Point",
        "coordinates": [
          120.367593,
          22.690198
        ]
      },
      "type": "Feature",
      "properties": {
        "hierarchy": [
          "tgn:7489802",
          "tgn:7001004",
          "tgn:1000004",
          "tgn:1000141",
          "tgn:7029392"
        ],
        "placetype": [
          "aat:300008347"
        ],
        "id": 7489802,
        "name:xx": "Shezhixing"
      }
    },
    {
      "geometry": {
        "type": "Point",
        "coordinates": [
          121.013333,
          24.9875
        ]
      },
      "type": "Feature",
      "properties": {
        "hierarchy": [
          "tgn:7489803",
          "tgn:1000004",
          "tgn:7001013",
          "tgn:1000141",
          "tgn:7029392"
        ],
        "placetype": [
          "aat:300008699"
        ],
        "id": 7489803,
        "name:xx": "Shezi Xi"
      }
    },
    {
      "geometry": {
        "type": "Point",
        "coordinates": [
          121.505935,
          25.090169
        ]
      },
      "type": "Feature",
      "properties": {
        "hierarchy": [
          "tgn:7489805",
          "tgn:1000004",
          "tgn:1000959",
          "tgn:1000141",
          "tgn:7029392"
        ],
        "placetype": [
          "aat:300008347"
        ],
        "id": 7489805,
        "name:xx": "Shezi"
      }
    },
    {
      "geometry": {
        "type": "Point",
        "coordinates": [
          120.858528,
          23.805683
        ]
      },
      "type": "Feature",
      "properties": {
        "hierarchy": [
          "tgn:7489808",
          "tgn:7488858",
          "tgn:1000004",
          "tgn:1000141",
          "tgn:7029392"
        ],
        "placetype": [
          "aat:300008347"
        ],
        "id": 7489808,
        "name:xx": "Shezi"
      }
    },
    {
      "geometry": {
        "type": "Point",
        "coordinates": [
          120.238333,
          23.160556
        ]
      },
      "type": "Feature",
      "properties": {
        "hierarchy": [
          "tgn:7489809",
          "tgn:1000004",
          "tgn:7490934",
          "tgn:1000141",
          "tgn:7029392"
        ],
        "placetype": [
          "aat:300008347"
        ],
        "id": 7489809,
        "name:xx": "Shezi"
      }
    }
  ]
}
