{
  "type": "FeatureCollection",
  "features": [
    {
      "geometry": {
        "type": "Point",
        "coordinates": [
          121.426523,
          25.021952
        ]
      },
      "type": "Feature",
      "properties": {
        "hierarchy": [
          "tgn:7496990",
          "tgn:1000004",
          "tgn:1000454",
          "tgn:1000141",
          "tgn:7029392"
        ],
        "placetype": [
          "aat:300007836"
        ],
        "id": 7496990,
        "name:xx": "Minsheng Qiao"
      }
    },
    {
      "geometry": {
        "type": "Point",
        "coordinates": [
          120.632885,
          24.220595
        ]
      },
      "type": "Feature",
      "properties": {
        "hierarchy": [
          "tgn:7496991",
          "tgn:1000004",
          "tgn:7001009",
          "tgn:1000141",
          "tgn:7029392"
        ],
        "placetype": [
          "aat:300006495"
        ],
        "id": 7496991,
        "name:xx": "Yangming Guoxiao"
      }
    },
    {
      "geometry": {
        "type": "Point",
        "coordinates": [
          120.66715,
          24.219382
        ]
      },
      "type": "Feature",
      "properties": {
        "hierarchy": [
          "tgn:7496992",
          "tgn:1000004",
          "tgn:7001009",
          "tgn:1000141",
          "tgn:7029392"
        ],
        "placetype": [
          "aat:300006495"
        ],
        "id": 7496992,
        "name:xx": "Sanhe Guoxiao"
      }
    },
    {
      "geometry": {
        "type": "Point",
        "coordinates": [
          120.683538,
          24.217176
        ]
      },
      "type": "Feature",
      "properties": {
        "hierarchy": [
          "tgn:7496993",
          "tgn:1000004",
          "tgn:7001009",
          "tgn:1000141",
          "tgn:7029392"
        ],
        "placetype": [
          "aat:300006495"
        ],
        "id": 7496993,
        "name:xx": "Dongbao Guoxiao"
      }
    },
    {
      "geometry": {
        "type": "Point",
        "coordinates": [
          120.70426,
          24.214158
        ]
      },
      "type": "Feature",
      "properties": {
        "hierarchy": [
          "tgn:7496994",
          "tgn:1000004",
          "tgn:7001009",
          "tgn:1000141",
          "tgn:7029392"
        ],
        "placetype": [
          "aat:300006495"
        ],
        "id": 7496994,
        "name:xx": "Tanzi Guoxiao"
      }
    },
    {
      "geometry": {
        "type": "Point",
        "coordinates": [
          120.704,
          24.2268
        ]
      },
      "type": "Feature",
      "properties": {
        "hierarchy": [
          "tgn:7496995",
          "tgn:1000004",
          "tgn:7001009",
          "tgn:1000141",
          "tgn:7029392"
        ],
        "placetype": [
          "aat:300006495"
        ],
        "id": 7496995,
        "name:xx": "Hongwen Gaozhong"
      }
    },
    {
      "geometry": {
        "type": "Point",
        "coordinates": [
          120.651118,
          24.222131
        ]
      },
      "type": "Feature",
      "properties": {
        "hierarchy": [
          "tgn:7496996",
          "tgn:1000004",
          "tgn:7001009",
          "tgn:1000141",
          "tgn:7029392"
        ],
        "placetype": [
          "aat:300006495"
        ],
        "id": 7496996,
        "name:xx": "Daya Guoxiao"
      }
    },
    {
      "geometry": {
        "type": "Point",
        "coordinates": [
          120.649995,
          24.224657
        ]
      },
      "type": "Feature",
      "properties": {
        "hierarchy": [
          "tgn:7496997",
          "tgn:1000004",
          "tgn:7001009",
          "tgn:1000141",
          "tgn:7029392"
        ],
        "placetype": [
          "aat:300006495"
        ],
        "id": 7496997,
        "name:xx": "Daya Guozhong"
      }
    },
    {
      "geometry": {
        "type": "Point",
        "coordinates": [
          120.643416,
          24.228823
        ]
      },
      "type": "Feature",
      "properties": {
        "hierarchy": [
          "tgn:7496998",
          "tgn:1000004",
          "tgn:7001009",
          "tgn:1000141",
          "tgn:7029392"
        ],
        "placetype": [
          "aat:300006495"
        ],
        "id": 7496998,
        "name:xx": "Daming Guoxiao"
      }
    },
    {
      "geometry": {
        "type": "Point",
        "coordinates": [
          120.666322,
          24.235971
        ]
      },
      "type": "Feature",
      "properties": {
        "hierarchy": [
          "tgn:7496999",
          "tgn:1000004",
          "tgn:7001009",
          "tgn:1000141",
          "tgn:7029392"
        ],
        "placetype": [
          "aat:300006495"
        ],
        "id": 7496999,
        "name:xx": "Shangfeng Guoxiao"
      }
    }
  ]
}
