{
  "type": "FeatureCollection",
  "features": [
    {
      "geometry": {
        "type": "Point",
        "coordinates": [
          120.527766,
          23.838462
        ]
      },
      "type": "Feature",
      "properties": {
        "hierarchy": [
          "tgn:7475440",
          "tgn:1000004",
          "tgn:7467799",
          "tgn:1000141",
          "tgn:7029392"
        ],
        "placetype": [
          "aat:300266755"
        ],
        "id": 7475440,
        "name:xx": "Xizhou Gongyuan Gongmu"
      }
    },
    {
      "geometry": {
        "type": "Point",
        "coordinates": [
          120.528,
          23.8464
        ]
      },
      "type": "Feature",
      "properties": {
        "hierarchy": [
          "tgn:7475441",
          "tgn:1000004",
          "tgn:7467799",
          "tgn:1000141",
          "tgn:7029392"
        ],
        "placetype": [
          "aat:300008347"
        ],
        "id": 7475441,
        "name:xx": "Houbixi"
      }
    },
    {
      "geometry": {
        "type": "Point",
        "coordinates": [
          120.547242,
          23.881232
        ]
      },
      "type": "Feature",
      "properties": {
        "hierarchy": [
          "tgn:7475442",
          "tgn:1000004",
          "tgn:7467799",
          "tgn:1000141",
          "tgn:7029392"
        ],
        "placetype": [
          "aat:300008347"
        ],
        "id": 7475442,
        "name:xx": "Yimincun"
      }
    },
    {
      "geometry": {
        "type": "Point",
        "coordinates": [
          120.572053,
          23.9673
        ]
      },
      "type": "Feature",
      "properties": {
        "hierarchy": [
          "tgn:7475444",
          "tgn:1000004",
          "tgn:7467799",
          "tgn:1000141",
          "tgn:7029392"
        ],
        "placetype": [
          "aat:300006495"
        ],
        "id": 7475444,
        "name:xx": "Qiaoxin Guoxiao"
      }
    },
    {
      "geometry": {
        "type": "Point",
        "coordinates": [
          120.580543,
          23.967772
        ]
      },
      "type": "Feature",
      "properties": {
        "hierarchy": [
          "tgn:7475445",
          "tgn:1000004",
          "tgn:7467799",
          "tgn:1000141",
          "tgn:7029392"
        ],
        "placetype": [
          "aat:300000745"
        ],
        "id": 7475445,
        "name:xx": "Dalujiao"
      }
    },
    {
      "geometry": {
        "type": "Point",
        "coordinates": [
          120.5791,
          23.9695
        ]
      },
      "type": "Feature",
      "properties": {
        "hierarchy": [
          "tgn:7475446",
          "tgn:1000004",
          "tgn:7467799",
          "tgn:1000141",
          "tgn:7029392"
        ],
        "placetype": [
          "aat:300000745"
        ],
        "id": 7475446,
        "name:xx": "Liujiahu"
      }
    },
    {
      "geometry": {
        "type": "Point",
        "coordinates": [
          120.580567,
          23.963993
        ]
      },
      "type": "Feature",
      "properties": {
        "hierarchy": [
          "tgn:7475447",
          "tgn:1000004",
          "tgn:7467799",
          "tgn:1000141",
          "tgn:7029392"
        ],
        "placetype": [
          "aat:300000745"
        ],
        "id": 7475447,
        "name:xx": "Huangcuo"
      }
    },
    {
      "geometry": {
        "type": "Point",
        "coordinates": [
          120.586869,
          23.963635
        ]
      },
      "type": "Feature",
      "properties": {
        "hierarchy": [
          "tgn:7475448",
          "tgn:1000004",
          "tgn:7467799",
          "tgn:1000141",
          "tgn:7029392"
        ],
        "placetype": [
          "aat:300008347"
        ],
        "id": 7475448,
        "name:xx": "Fuzhentou"
      }
    },
    {
      "geometry": {
        "type": "Point",
        "coordinates": [
          120.5642,
          23.9843
        ]
      },
      "type": "Feature",
      "properties": {
        "hierarchy": [
          "tgn:7475449",
          "tgn:1000004",
          "tgn:7467799",
          "tgn:1000141",
          "tgn:7029392"
        ],
        "placetype": [
          "aat:300266755"
        ],
        "id": 7475449,
        "name:xx": "Dishiyi Gongmu"
      }
    }
  ]
}
