{
  "type": "FeatureCollection",
  "features": [
    {
      "geometry": {
        "type": "Point",
        "coordinates": [
          120.764722,
          23.158333
        ]
      },
      "type": "Feature",
      "properties": {
        "hierarchy": [
          "tgn:7502310",
          "tgn:7001004",
          "tgn:1000004",
          "tgn:1000141",
          "tgn:7029392"
        ],
        "placetype": [
          "aat:300006495"
        ],
        "id": 7502310,
        "name:xx": "Taoyuan Guoxiao"
      }
    },
    {
      "geometry": {
        "type": "Point",
        "coordinates": [
          120.772222,
          23.161944
        ]
      },
      "type": "Feature",
      "properties": {
        "hierarchy": [
          "tgn:7502311",
          "tgn:7001004",
          "tgn:1000004",
          "tgn:1000141",
          "tgn:7029392"
        ],
        "placetype": [
          "aat:300000517"
        ],
        "id": 7502311,
        "name:xx": "Taoyuan Jiangongzhan"
      }
    },
    {
      "geometry": {
        "type": "Point",
        "coordinates": [
          120.340556,
          22.805
        ]
      },
      "type": "Feature",
      "properties": {
        "hierarchy": [
          "tgn:7502312",
          "tgn:7001004",
          "tgn:1000004",
          "tgn:1000141",
          "tgn:7029392"
        ],
        "placetype": [
          "aat:300008347"
        ],
        "id": 7502312,
        "name:xx": "Damugou"
      }
    },
    {
      "geometry": {
        "type": "Point",
        "coordinates": [
          120.333056,
          22.956944
        ]
      },
      "type": "Feature",
      "properties": {
        "hierarchy": [
          "tgn:7502313",
          "tgn:1000004",
          "tgn:7490934",
          "tgn:1000141",
          "tgn:7029392"
        ],
        "placetype": [
          "aat:300000745"
        ],
        "id": 7502313,
        "name:xx": "Jiucailiao"
      }
    },
    {
      "geometry": {
        "type": "Point",
        "coordinates": [
          120.331111,
          22.954722
        ]
      },
      "type": "Feature",
      "properties": {
        "hierarchy": [
          "tgn:7502314",
          "tgn:1000004",
          "tgn:7490934",
          "tgn:1000141",
          "tgn:7029392"
        ],
        "placetype": [
          "aat:300000745"
        ],
        "id": 7502314,
        "name:xx": "Xiangyang"
      }
    },
    {
      "geometry": {
        "type": "Point",
        "coordinates": [
          121.550556,
          23.696111
        ]
      },
      "type": "Feature",
      "properties": {
        "hierarchy": [
          "tgn:7502315",
          "tgn:7001010",
          "tgn:1000004",
          "tgn:1000141",
          "tgn:7029392"
        ],
        "placetype": [
          "aat:300008347"
        ],
        "id": 7502315,
        "name:xx": "Gui'an"
      }
    },
    {
      "geometry": {
        "type": "Point",
        "coordinates": [
          121.551111,
          23.696389
        ]
      },
      "type": "Feature",
      "properties": {
        "hierarchy": [
          "tgn:7502316",
          "tgn:7001010",
          "tgn:1000004",
          "tgn:1000141",
          "tgn:7029392"
        ],
        "placetype": [
          "aat:300007836"
        ],
        "id": 7502316,
        "name:xx": "Xinji Qiao"
      }
    },
    {
      "geometry": {
        "type": "Point",
        "coordinates": [
          121.549722,
          23.702778
        ]
      },
      "type": "Feature",
      "properties": {
        "hierarchy": [
          "tgn:7502317",
          "tgn:7001010",
          "tgn:1000004",
          "tgn:1000141",
          "tgn:7029392"
        ],
        "placetype": [
          "aat:300008816"
        ],
        "id": 7502317,
        "name:xx": "Jiqi Haishui Yuchang"
      }
    },
    {
      "geometry": {
        "type": "Point",
        "coordinates": [
          121.546944,
          23.7075
        ]
      },
      "type": "Feature",
      "properties": {
        "hierarchy": [
          "tgn:7502318",
          "tgn:7001010",
          "tgn:1000004",
          "tgn:1000141",
          "tgn:7029392"
        ],
        "placetype": [
          "aat:300007836"
        ],
        "id": 7502318,
        "name:xx": "Ershiyihao Qiao"
      }
    },
    {
      "geometry": {
        "type": "Point",
        "coordinates": [
          121.5475,
          23.706944
        ]
      },
      "type": "Feature",
      "properties": {
        "hierarchy": [
          "tgn:7502319",
          "tgn:7001010",
          "tgn:1000004",
          "tgn:1000141",
          "tgn:7029392"
        ],
        "placetype": [
          "aat:300006495"
        ],
        "id": 7502319,
        "name:xx": "Jiqi Guoxiao"
      }
    }
  ]
}
