{
  "type": "FeatureCollection",
  "features": [
    {
      "geometry": {
        "type": "Point",
        "coordinates": [
          120.383333,
          23.384167
        ]
      },
      "type": "Feature",
      "properties": {
        "hierarchy": [
          "tgn:7484880",
          "tgn:1000004",
          "tgn:7490934",
          "tgn:1000141",
          "tgn:7029392"
        ],
        "placetype": [
          "aat:300007836"
        ],
        "id": 7484880,
        "name:xx": "Jiatian Qiao"
      }
    },
    {
      "geometry": {
        "type": "Point",
        "coordinates": [
          120.385,
          23.382778
        ]
      },
      "type": "Feature",
      "properties": {
        "hierarchy": [
          "tgn:7484881",
          "tgn:1000004",
          "tgn:7490934",
          "tgn:1000141",
          "tgn:7029392"
        ],
        "placetype": [
          "aat:300387033"
        ],
        "id": 7484881,
        "name:xx": "Pingding Shan"
      }
    },
    {
      "geometry": {
        "type": "Point",
        "coordinates": [
          120.391389,
          23.358056
        ]
      },
      "type": "Feature",
      "properties": {
        "hierarchy": [
          "tgn:7484882",
          "tgn:1000004",
          "tgn:7490934",
          "tgn:1000141",
          "tgn:7029392"
        ],
        "placetype": [
          "aat:300007836"
        ],
        "id": 7484882,
        "name:xx": "Xiulin Qiao"
      }
    },
    {
      "geometry": {
        "type": "Point",
        "coordinates": [
          120.408611,
          23.356389
        ]
      },
      "type": "Feature",
      "properties": {
        "hierarchy": [
          "tgn:7484883",
          "tgn:1000004",
          "tgn:7490934",
          "tgn:1000141",
          "tgn:7029392"
        ],
        "placetype": [
          "aat:300387033"
        ],
        "id": 7484883,
        "name:xx": "Dingxiuyou"
      }
    },
    {
      "geometry": {
        "type": "Point",
        "coordinates": [
          120.404722,
          23.376667
        ]
      },
      "type": "Feature",
      "properties": {
        "hierarchy": [
          "tgn:7484884",
          "tgn:1000004",
          "tgn:7490934",
          "tgn:1000141",
          "tgn:7029392"
        ],
        "placetype": [
          "aat:300007836"
        ],
        "id": 7484884,
        "name:xx": "Sanfeng Qiao"
      }
    },
    {
      "geometry": {
        "type": "Point",
        "coordinates": [
          120.390278,
          23.366111
        ]
      },
      "type": "Feature",
      "properties": {
        "hierarchy": [
          "tgn:7484885",
          "tgn:1000004",
          "tgn:7490934",
          "tgn:1000141",
          "tgn:7029392"
        ],
        "placetype": [
          "aat:300007836"
        ],
        "id": 7484885,
        "name:xx": "Wuzhuwei Qiao"
      }
    },
    {
      "geometry": {
        "type": "Point",
        "coordinates": [
          120.383889,
          23.37
        ]
      },
      "type": "Feature",
      "properties": {
        "hierarchy": [
          "tgn:7484886",
          "tgn:1000004",
          "tgn:7490934",
          "tgn:1000141",
          "tgn:7029392"
        ],
        "placetype": [
          "aat:300007836"
        ],
        "id": 7484886,
        "name:xx": "Xiazhuang Qiao"
      }
    },
    {
      "geometry": {
        "type": "Point",
        "coordinates": [
          120.388333,
          23.345278
        ]
      },
      "type": "Feature",
      "properties": {
        "hierarchy": [
          "tgn:7484888",
          "tgn:1000004",
          "tgn:7490934",
          "tgn:1000141",
          "tgn:7029392"
        ],
        "placetype": [
          "aat:300387033"
        ],
        "id": 7484888,
        "name:xx": "Wushulin"
      }
    },
    {
      "geometry": {
        "type": "Point",
        "coordinates": [
          120.380278,
          23.339722
        ]
      },
      "type": "Feature",
      "properties": {
        "hierarchy": [
          "tgn:7484889",
          "tgn:1000004",
          "tgn:7490934",
          "tgn:1000141",
          "tgn:7029392"
        ],
        "placetype": [
          "aat:300007836"
        ],
        "id": 7484889,
        "name:xx": "Wushu Qiao"
      }
    }
  ]
}
