{
  "type": "FeatureCollection",
  "features": [
    {
      "geometry": {
        "type": "Point",
        "coordinates": [
          120.573408,
          22.545557
        ]
      },
      "type": "Feature",
      "properties": {
        "hierarchy": [
          "tgn:7495290",
          "tgn:1000004",
          "tgn:7492971",
          "tgn:1000141",
          "tgn:7029392"
        ],
        "placetype": [
          "aat:300266755"
        ],
        "id": 7495290,
        "name:xx": "Disan Shifan Gongmu"
      }
    },
    {
      "geometry": {
        "type": "Point",
        "coordinates": [
          120.593912,
          22.566958
        ]
      },
      "type": "Feature",
      "properties": {
        "hierarchy": [
          "tgn:7495291",
          "tgn:1000004",
          "tgn:7492971",
          "tgn:1000141",
          "tgn:7029392"
        ],
        "placetype": [
          "aat:300266755"
        ],
        "id": 7495291,
        "name:xx": "Dijiu Gongmu"
      }
    },
    {
      "geometry": {
        "type": "Point",
        "coordinates": [
          120.608025,
          22.585839
        ]
      },
      "type": "Feature",
      "properties": {
        "hierarchy": [
          "tgn:7495292",
          "tgn:1000004",
          "tgn:7492971",
          "tgn:1000141",
          "tgn:7029392"
        ],
        "placetype": [
          "aat:300266755"
        ],
        "id": 7495292,
        "name:xx": "Dishi'er Gongmu"
      }
    },
    {
      "geometry": {
        "type": "Point",
        "coordinates": [
          120.558617,
          22.58321
        ]
      },
      "type": "Feature",
      "properties": {
        "hierarchy": [
          "tgn:7495293",
          "tgn:1000004",
          "tgn:7492971",
          "tgn:1000141",
          "tgn:7029392"
        ],
        "placetype": [
          "aat:300266755"
        ],
        "id": 7495293,
        "name:xx": "Disan Gongmu"
      }
    },
    {
      "geometry": {
        "type": "Point",
        "coordinates": [
          120.543147,
          22.583286
        ]
      },
      "type": "Feature",
      "properties": {
        "hierarchy": [
          "tgn:7495294",
          "tgn:1000004",
          "tgn:7492971",
          "tgn:1000141",
          "tgn:7029392"
        ],
        "placetype": [
          "aat:300007595"
        ],
        "id": 7495294,
        "name:xx": "Fude Ci"
      }
    },
    {
      "geometry": {
        "type": "Point",
        "coordinates": [
          120.596654,
          22.61533
        ]
      },
      "type": "Feature",
      "properties": {
        "hierarchy": [
          "tgn:7495295",
          "tgn:1000004",
          "tgn:7492971",
          "tgn:1000141",
          "tgn:7029392"
        ],
        "placetype": [
          "aat:300266755"
        ],
        "id": 7495295,
        "name:xx": "Wanluan Xiang Dishiba Gongmu"
      }
    },
    {
      "geometry": {
        "type": "Point",
        "coordinates": [
          120.610227,
          22.533605
        ]
      },
      "type": "Feature",
      "properties": {
        "hierarchy": [
          "tgn:7495296",
          "tgn:1000004",
          "tgn:7492971",
          "tgn:1000141",
          "tgn:7029392"
        ],
        "placetype": [
          "aat:300007595"
        ],
        "id": 7495296,
        "name:xx": "Beiji Gong"
      }
    },
    {
      "geometry": {
        "type": "Point",
        "coordinates": [
          120.525708,
          22.535082
        ]
      },
      "type": "Feature",
      "properties": {
        "hierarchy": [
          "tgn:7495297",
          "tgn:1000004",
          "tgn:7492971",
          "tgn:1000141",
          "tgn:7029392"
        ],
        "placetype": [
          "aat:300007836"
        ],
        "id": 7495297,
        "name:xx": "Yongchang Qiao"
      }
    },
    {
      "geometry": {
        "type": "Point",
        "coordinates": [
          120.611263,
          22.551175
        ]
      },
      "type": "Feature",
      "properties": {
        "hierarchy": [
          "tgn:7495298",
          "tgn:1000004",
          "tgn:7492971",
          "tgn:1000141",
          "tgn:7029392"
        ],
        "placetype": [
          "aat:300007595"
        ],
        "id": 7495298,
        "name:xx": "Sanshan Gong"
      }
    },
    {
      "geometry": {
        "type": "Point",
        "coordinates": [
          120.538662,
          22.554797
        ]
      },
      "type": "Feature",
      "properties": {
        "hierarchy": [
          "tgn:7495299",
          "tgn:1000004",
          "tgn:7492971",
          "tgn:1000141",
          "tgn:7029392"
        ],
        "placetype": [
          "aat:300007595"
        ],
        "id": 7495299,
        "name:xx": "Huayanyuan"
      }
    }
  ]
}
