{
  "type": "FeatureCollection",
  "features": [
    {
      "geometry": {
        "type": "Point",
        "coordinates": [
          77.049444,
          31.247222
        ]
      },
      "type": "Feature",
      "properties": {
        "hierarchy": [
          "tgn:7567700",
          "tgn:1000004",
          "tgn:7000198",
          "tgn:1001996",
          "tgn:7029392"
        ],
        "placetype": [
          "aat:300008863"
        ],
        "name:en": "Mandhor Ghat Protected Forest",
        "id": 7567700
      }
    },
    {
      "geometry": {
        "type": "Point",
        "coordinates": [
          77.030556,
          31.211111
        ]
      },
      "type": "Feature",
      "properties": {
        "hierarchy": [
          "tgn:7567701",
          "tgn:1000004",
          "tgn:7000198",
          "tgn:1001996",
          "tgn:7029392"
        ],
        "placetype": [
          "aat:300008863"
        ],
        "name:en": "Bainsh Protected Forest",
        "id": 7567701
      }
    },
    {
      "geometry": {
        "type": "Point",
        "coordinates": [
          77.021111,
          31.211111
        ]
      },
      "type": "Feature",
      "properties": {
        "hierarchy": [
          "tgn:7567702",
          "tgn:1000004",
          "tgn:7000198",
          "tgn:1001996",
          "tgn:7029392"
        ],
        "placetype": [
          "aat:300008347"
        ],
        "name:en": "Panjaili",
        "id": 7567702
      }
    },
    {
      "geometry": {
        "type": "Point",
        "coordinates": [
          77.011389,
          31.204167
        ]
      },
      "type": "Feature",
      "properties": {
        "hierarchy": [
          "tgn:7567703",
          "tgn:1000004",
          "tgn:7000198",
          "tgn:1001996",
          "tgn:7029392"
        ],
        "placetype": [
          "aat:300008347"
        ],
        "name:en": "Kathiyāna",
        "id": 7567703
      }
    },
    {
      "geometry": {
        "type": "Point",
        "coordinates": [
          77.004722,
          31.21
        ]
      },
      "type": "Feature",
      "properties": {
        "hierarchy": [
          "tgn:7567704",
          "tgn:1000004",
          "tgn:7000198",
          "tgn:1001996",
          "tgn:7029392"
        ],
        "placetype": [
          "aat:300008347"
        ],
        "name:en": "Neri Chamārān",
        "id": 7567704
      }
    },
    {
      "geometry": {
        "type": "Point",
        "coordinates": [
          77.015,
          31.213056
        ]
      },
      "type": "Feature",
      "properties": {
        "hierarchy": [
          "tgn:7567705",
          "tgn:1000004",
          "tgn:7000198",
          "tgn:1001996",
          "tgn:7029392"
        ],
        "placetype": [
          "aat:300008347"
        ],
        "name:en": "Madrayāh",
        "id": 7567705
      }
    },
    {
      "geometry": {
        "type": "Point",
        "coordinates": [
          78.667222,
          17.848889
        ]
      },
      "type": "Feature",
      "properties": {
        "hierarchy": [
          "tgn:7567706",
          "tgn:1001828",
          "tgn:1000004",
          "tgn:7000198",
          "tgn:7029392"
        ],
        "placetype": [
          "aat:300008347"
        ],
        "name:en": "Singaipalli",
        "id": 7567706
      }
    },
    {
      "geometry": {
        "type": "Point",
        "coordinates": [
          78.196944,
          17.760278
        ]
      },
      "type": "Feature",
      "properties": {
        "hierarchy": [
          "tgn:7567707",
          "tgn:1001828",
          "tgn:1000004",
          "tgn:7000198",
          "tgn:7029392"
        ],
        "placetype": [
          "aat:300008347"
        ],
        "name:en": "Sikandrapuram",
        "id": 7567707
      }
    },
    {
      "geometry": {
        "type": "Point",
        "coordinates": [
          78.304444,
          17.957222
        ]
      },
      "type": "Feature",
      "properties": {
        "hierarchy": [
          "tgn:7567708",
          "tgn:1001828",
          "tgn:1000004",
          "tgn:7000198",
          "tgn:7029392"
        ],
        "placetype": [
          "aat:300008347"
        ],
        "name:en": "Shetpalli",
        "id": 7567708
      }
    },
    {
      "geometry": {
        "type": "Point",
        "coordinates": [
          78.485278,
          17.941389
        ]
      },
      "type": "Feature",
      "properties": {
        "hierarchy": [
          "tgn:7567709",
          "tgn:1001828",
          "tgn:1000004",
          "tgn:7000198",
          "tgn:7029392"
        ],
        "placetype": [
          "aat:300008347"
        ],
        "name:en": "Sheonūr",
        "id": 7567709
      }
    }
  ]
}
