{
  "type": "FeatureCollection",
  "features": [
    {
      "geometry": {
        "type": "Point",
        "coordinates": [
          30.906208,
          31.244358
        ]
      },
      "type": "Feature",
      "properties": {
        "hierarchy": [
          "tgn:7533290",
          "tgn:7001242",
          "tgn:7016833",
          "tgn:1001335",
          "tgn:7029392"
        ],
        "placetype": [
          "aat:300000206"
        ],
        "name:en": "'Izbat Hindāwī",
        "id": 7533290
      }
    },
    {
      "geometry": {
        "type": "Point",
        "coordinates": [
          30.904827,
          31.247223
        ]
      },
      "type": "Feature",
      "properties": {
        "hierarchy": [
          "tgn:7533291",
          "tgn:7001242",
          "tgn:7016833",
          "tgn:1001335",
          "tgn:7029392"
        ],
        "placetype": [
          "aat:300000206"
        ],
        "name:en": "'Izbat Ḩasan al Ibrāshī",
        "id": 7533291
      }
    },
    {
      "geometry": {
        "type": "Point",
        "coordinates": [
          30.929292,
          31.247357
        ]
      },
      "type": "Feature",
      "properties": {
        "hierarchy": [
          "tgn:7533292",
          "tgn:7001242",
          "tgn:7016833",
          "tgn:1001335",
          "tgn:7029392"
        ],
        "placetype": [
          "aat:300008347"
        ],
        "name:en": "'Izbat al Makanah",
        "id": 7533292
      }
    },
    {
      "geometry": {
        "type": "Point",
        "coordinates": [
          30.9535,
          31.20681
        ]
      },
      "type": "Feature",
      "properties": {
        "hierarchy": [
          "tgn:7533293",
          "tgn:7001242",
          "tgn:7016833",
          "tgn:1001335",
          "tgn:7029392"
        ],
        "placetype": [
          "aat:300008347"
        ],
        "name:en": "'Izbat al Maşrī",
        "id": 7533293
      }
    },
    {
      "geometry": {
        "type": "Point",
        "coordinates": [
          30.966762,
          31.206011
        ]
      },
      "type": "Feature",
      "properties": {
        "hierarchy": [
          "tgn:7533294",
          "tgn:7001242",
          "tgn:7016833",
          "tgn:1001335",
          "tgn:7029392"
        ],
        "placetype": [
          "aat:300008347"
        ],
        "name:en": "'Izbat Khayr Allāh",
        "id": 7533294
      }
    },
    {
      "geometry": {
        "type": "Point",
        "coordinates": [
          26.21398,
          30.948067
        ]
      },
      "type": "Feature",
      "properties": {
        "hierarchy": [
          "tgn:7533295",
          "tgn:7001242",
          "tgn:7016833",
          "tgn:1001418",
          "tgn:7029392"
        ],
        "placetype": [
          "aat:300005926"
        ],
        "name:en": "Qabr el Hamar",
        "id": 7533295
      }
    },
    {
      "geometry": {
        "type": "Point",
        "coordinates": [
          31.281111,
          30.869444
        ]
      },
      "type": "Feature",
      "properties": {
        "hierarchy": [
          "tgn:7533296",
          "tgn:7001242",
          "tgn:1001059",
          "tgn:7016833",
          "tgn:7029392"
        ],
        "placetype": [
          "aat:300008347"
        ],
        "name:en": "Ḩamāqah",
        "id": 7533296
      }
    },
    {
      "geometry": {
        "type": "Point",
        "coordinates": [
          33.984376,
          30.722825
        ]
      },
      "type": "Feature",
      "properties": {
        "hierarchy": [
          "tgn:7533297",
          "tgn:7001242",
          "tgn:7016833",
          "tgn:7001335",
          "tgn:7029392"
        ],
        "placetype": [
          "aat:300379998"
        ],
        "id": 7533297,
        "name:xx": "Hamâmi, Wâdi el-"
      }
    },
    {
      "geometry": {
        "type": "Point",
        "coordinates": [
          33.030023,
          26.361881
        ]
      },
      "type": "Feature",
      "properties": {
        "hierarchy": [
          "tgn:7533298",
          "tgn:7001242",
          "tgn:7001311",
          "tgn:7016833",
          "tgn:7029392"
        ],
        "placetype": [
          "aat:300379998"
        ],
        "name:en": "Hammâma, Wâdi",
        "id": 7533298
      }
    },
    {
      "geometry": {
        "type": "Point",
        "coordinates": [
          25.55,
          29.183333
        ]
      },
      "type": "Feature",
      "properties": {
        "hierarchy": [
          "tgn:7533299",
          "tgn:7001242",
          "tgn:7016833",
          "tgn:1001418",
          "tgn:7029392"
        ],
        "placetype": [
          "aat:300008697"
        ],
        "name:en": "Ḩamāmah, 'Ayn",
        "id": 7533299
      }
    }
  ]
}
