{
  "type": "FeatureCollection",
  "features": [
    {
      "geometry": {
        "type": "Point",
        "coordinates": [
          119.576628,
          23.520834
        ]
      },
      "type": "Feature",
      "properties": {
        "hierarchy": [
          "tgn:7477680",
          "tgn:1000004",
          "tgn:7004300",
          "tgn:1000141",
          "tgn:7029392"
        ],
        "placetype": [
          "aat:300007595"
        ],
        "id": 7477680,
        "name:xx": "Wufu Miao"
      }
    },
    {
      "geometry": {
        "type": "Point",
        "coordinates": [
          119.573003,
          23.509591
        ]
      },
      "type": "Feature",
      "properties": {
        "hierarchy": [
          "tgn:7477681",
          "tgn:1000004",
          "tgn:7004300",
          "tgn:1000141",
          "tgn:7029392"
        ],
        "placetype": [
          "aat:300387033"
        ],
        "id": 7477681,
        "name:xx": "Jingzi'an Shan"
      }
    },
    {
      "geometry": {
        "type": "Point",
        "coordinates": [
          119.548636,
          23.553418
        ]
      },
      "type": "Feature",
      "properties": {
        "hierarchy": [
          "tgn:7477682",
          "tgn:1000004",
          "tgn:7004300",
          "tgn:1000141",
          "tgn:7029392"
        ],
        "placetype": [
          "aat:300387033"
        ],
        "id": 7477682,
        "name:xx": "Shetou Shan"
      }
    },
    {
      "geometry": {
        "type": "Point",
        "coordinates": [
          119.55585,
          23.710165
        ]
      },
      "type": "Feature",
      "properties": {
        "hierarchy": [
          "tgn:7477683",
          "tgn:1000004",
          "tgn:7004300",
          "tgn:1000141",
          "tgn:7029392"
        ],
        "placetype": [
          "aat:300008777"
        ],
        "id": 7477683,
        "name:xx": "Nan Shan"
      }
    },
    {
      "geometry": {
        "type": "Point",
        "coordinates": [
          119.556759,
          23.717209
        ]
      },
      "type": "Feature",
      "properties": {
        "hierarchy": [
          "tgn:7477684",
          "tgn:1000004",
          "tgn:7004300",
          "tgn:1000141",
          "tgn:7029392"
        ],
        "placetype": [
          "aat:300008777"
        ],
        "id": 7477684,
        "name:xx": "Zhong Shan"
      }
    },
    {
      "geometry": {
        "type": "Point",
        "coordinates": [
          119.555939,
          23.719283
        ]
      },
      "type": "Feature",
      "properties": {
        "hierarchy": [
          "tgn:7477685",
          "tgn:1000004",
          "tgn:7004300",
          "tgn:1000141",
          "tgn:7029392"
        ],
        "placetype": [
          "aat:300008777"
        ],
        "id": 7477685,
        "name:xx": "Bei Shan"
      }
    },
    {
      "geometry": {
        "type": "Point",
        "coordinates": [
          119.540751,
          23.54154
        ]
      },
      "type": "Feature",
      "properties": {
        "hierarchy": [
          "tgn:7477686",
          "tgn:1000004",
          "tgn:7004300",
          "tgn:1000141",
          "tgn:7029392"
        ],
        "placetype": [
          "aat:300008678"
        ],
        "id": 7477686,
        "name:xx": "Fenggui Xigang"
      }
    },
    {
      "geometry": {
        "type": "Point",
        "coordinates": [
          119.531495,
          23.63841
        ]
      },
      "type": "Feature",
      "properties": {
        "hierarchy": [
          "tgn:7477687",
          "tgn:1000004",
          "tgn:7004300",
          "tgn:1000141",
          "tgn:7029392"
        ],
        "placetype": [
          "aat:300006495"
        ],
        "id": 7477687,
        "name:xx": "Heheng Guoxiao"
      }
    },
    {
      "geometry": {
        "type": "Point",
        "coordinates": [
          119.528007,
          23.637588
        ]
      },
      "type": "Feature",
      "properties": {
        "hierarchy": [
          "tgn:7477688",
          "tgn:1000004",
          "tgn:7004300",
          "tgn:1000141",
          "tgn:7029392"
        ],
        "placetype": [
          "aat:300007595"
        ],
        "id": 7477688,
        "name:xx": "Weiyang Gong"
      }
    },
    {
      "geometry": {
        "type": "Point",
        "coordinates": [
          119.673805,
          23.60407
        ]
      },
      "type": "Feature",
      "properties": {
        "hierarchy": [
          "tgn:7477689",
          "tgn:1000004",
          "tgn:7004300",
          "tgn:1000141",
          "tgn:7029392"
        ],
        "placetype": [
          "aat:300008850"
        ],
        "id": 7477689,
        "name:xx": "Fanshawei"
      }
    }
  ]
}
