{
  "type": "FeatureCollection",
  "features": [
    {
      "geometry": {
        "type": "Point",
        "coordinates": [
          74.150512,
          28.90761
        ]
      },
      "type": "Feature",
      "properties": {
        "hierarchy": [
          "tgn:7563460",
          "tgn:1000004",
          "tgn:7000198",
          "tgn:7016788",
          "tgn:7029392"
        ],
        "placetype": [
          "aat:300008347"
        ],
        "name:en": "Ratnādesar Dūdli",
        "id": 7563460
      }
    },
    {
      "geometry": {
        "type": "Point",
        "coordinates": [
          74.189306,
          28.886459
        ]
      },
      "type": "Feature",
      "properties": {
        "hierarchy": [
          "tgn:7563461",
          "tgn:1000004",
          "tgn:7000198",
          "tgn:7016788",
          "tgn:7029392"
        ],
        "placetype": [
          "aat:300008347"
        ],
        "name:en": "Lūnāsar",
        "id": 7563461
      }
    },
    {
      "geometry": {
        "type": "Point",
        "coordinates": [
          74.283005,
          28.895544
        ]
      },
      "type": "Feature",
      "properties": {
        "hierarchy": [
          "tgn:7563462",
          "tgn:1000004",
          "tgn:7000198",
          "tgn:7016788",
          "tgn:7029392"
        ],
        "placetype": [
          "aat:300008750"
        ],
        "name:en": "Chuli Dhora",
        "id": 7563462
      }
    },
    {
      "geometry": {
        "type": "Point",
        "coordinates": [
          74.27024,
          28.944146
        ]
      },
      "type": "Feature",
      "properties": {
        "hierarchy": [
          "tgn:7563463",
          "tgn:1000004",
          "tgn:7000198",
          "tgn:7016788",
          "tgn:7029392"
        ],
        "placetype": [
          "aat:300008750"
        ],
        "name:en": "Chhota Chuli Dhora",
        "id": 7563463
      }
    },
    {
      "geometry": {
        "type": "Point",
        "coordinates": [
          74.301909,
          28.949728
        ]
      },
      "type": "Feature",
      "properties": {
        "hierarchy": [
          "tgn:7563464",
          "tgn:1000004",
          "tgn:7000198",
          "tgn:7016788",
          "tgn:7029392"
        ],
        "placetype": [
          "aat:300008347"
        ],
        "id": 7563464,
        "name:xx": "Māhila ki Dhāni"
      }
    },
    {
      "geometry": {
        "type": "Point",
        "coordinates": [
          74.357858,
          28.887794
        ]
      },
      "type": "Feature",
      "properties": {
        "hierarchy": [
          "tgn:7563465",
          "tgn:1000004",
          "tgn:7000198",
          "tgn:7016788",
          "tgn:7029392"
        ],
        "placetype": [
          "aat:300008347"
        ],
        "name:en": "Kalāsar",
        "id": 7563465
      }
    },
    {
      "geometry": {
        "type": "Point",
        "coordinates": [
          74.394035,
          28.916919
        ]
      },
      "type": "Feature",
      "properties": {
        "hierarchy": [
          "tgn:7563466",
          "tgn:1000004",
          "tgn:7000198",
          "tgn:7016788",
          "tgn:7029392"
        ],
        "placetype": [
          "aat:300008347"
        ],
        "name:en": "Dewāsar",
        "id": 7563466
      }
    },
    {
      "geometry": {
        "type": "Point",
        "coordinates": [
          74.54541,
          28.912608
        ]
      },
      "type": "Feature",
      "properties": {
        "hierarchy": [
          "tgn:7563467",
          "tgn:1000004",
          "tgn:7000198",
          "tgn:7016788",
          "tgn:7029392"
        ],
        "placetype": [
          "aat:300008347"
        ],
        "id": 7563467,
        "name:xx": "Kolāsar ki Dhāni"
      }
    },
    {
      "geometry": {
        "type": "Point",
        "coordinates": [
          74.717575,
          28.900726
        ]
      },
      "type": "Feature",
      "properties": {
        "hierarchy": [
          "tgn:7563468",
          "tgn:1000004",
          "tgn:7000198",
          "tgn:7016788",
          "tgn:7029392"
        ],
        "placetype": [
          "aat:300008750"
        ],
        "name:en": "Chūli Dhora",
        "id": 7563468
      }
    },
    {
      "geometry": {
        "type": "Point",
        "coordinates": [
          74.739176,
          28.904032
        ]
      },
      "type": "Feature",
      "properties": {
        "hierarchy": [
          "tgn:7563469",
          "tgn:1000004",
          "tgn:7000198",
          "tgn:7016788",
          "tgn:7029392"
        ],
        "placetype": [
          "aat:300008347"
        ],
        "id": 7563469,
        "name:xx": "Bhāni Singh ki Dhāni"
      }
    }
  ]
}
