{
  "type": "FeatureCollection",
  "features": [
    {
      "geometry": {
        "type": "Point",
        "coordinates": [
          75.853295,
          30.599802
        ]
      },
      "type": "Feature",
      "properties": {
        "hierarchy": [
          "tgn:7574530",
          "tgn:1000004",
          "tgn:7000198",
          "tgn:7016883",
          "tgn:7029392"
        ],
        "placetype": [
          "aat:300007783"
        ],
        "name:en": "Kūp",
        "id": 7574530
      }
    },
    {
      "geometry": {
        "type": "Point",
        "coordinates": [
          78.18874,
          26.314852
        ]
      },
      "type": "Feature",
      "properties": {
        "hierarchy": [
          "tgn:7574531",
          "tgn:1000004",
          "tgn:7000198",
          "tgn:1001894",
          "tgn:7029392"
        ],
        "placetype": [
          "aat:300008347"
        ],
        "name:en": "Kunwarpur",
        "id": 7574531
      }
    },
    {
      "geometry": {
        "type": "Point",
        "coordinates": [
          76.91492,
          23.671885
        ]
      },
      "type": "Feature",
      "properties": {
        "hierarchy": [
          "tgn:7574532",
          "tgn:1000004",
          "tgn:7000198",
          "tgn:1001894",
          "tgn:7029392"
        ],
        "placetype": [
          "aat:300008347"
        ],
        "name:en": "Kunwar Kotri",
        "id": 7574532
      }
    },
    {
      "geometry": {
        "type": "Point",
        "coordinates": [
          79.185445,
          26.431579
        ]
      },
      "type": "Feature",
      "properties": {
        "hierarchy": [
          "tgn:7574533",
          "tgn:1000004",
          "tgn:7000198",
          "tgn:7016722",
          "tgn:7029392"
        ],
        "placetype": [
          "aat:300008699"
        ],
        "name:en": "Kunwāri River",
        "id": 7574533
      }
    },
    {
      "geometry": {
        "type": "Point",
        "coordinates": [
          81.216284,
          25.698083
        ]
      },
      "type": "Feature",
      "properties": {
        "hierarchy": [
          "tgn:7574534",
          "tgn:1000004",
          "tgn:7000198",
          "tgn:7016722",
          "tgn:7029392"
        ],
        "placetype": [
          "aat:300008347"
        ],
        "name:en": "Kunwar",
        "id": 7574534
      }
    },
    {
      "geometry": {
        "type": "Point",
        "coordinates": [
          77.092054,
          26.177698
        ]
      },
      "type": "Feature",
      "properties": {
        "hierarchy": [
          "tgn:7574535",
          "tgn:1000004",
          "tgn:7000198",
          "tgn:7016788",
          "tgn:7029392"
        ],
        "placetype": [
          "aat:300008699"
        ],
        "name:en": "Kunu River",
        "id": 7574535
      }
    },
    {
      "geometry": {
        "type": "Point",
        "coordinates": [
          88.309644,
          22.87698
        ]
      },
      "type": "Feature",
      "properties": {
        "hierarchy": [
          "tgn:7574536",
          "tgn:1000004",
          "tgn:7000198",
          "tgn:1001977",
          "tgn:7029392"
        ],
        "placetype": [
          "aat:300008699"
        ],
        "name:en": "Kunti Nadī",
        "id": 7574536
      }
    },
    {
      "geometry": {
        "type": "Point",
        "coordinates": [
          78.050732,
          34.485017
        ]
      },
      "type": "Feature",
      "properties": {
        "hierarchy": [
          "tgn:7574537",
          "tgn:1000004",
          "tgn:7000198",
          "tgn:7000799",
          "tgn:7029392"
        ],
        "placetype": [
          "aat:300008795"
        ],
        "name:en": "Kunsang Group",
        "id": 7574537
      }
    },
    {
      "geometry": {
        "type": "Point",
        "coordinates": [
          69.887657,
          23.826347
        ]
      },
      "type": "Feature",
      "properties": {
        "hierarchy": [
          "tgn:7574538",
          "tgn:1000004",
          "tgn:1001869",
          "tgn:7000198",
          "tgn:7029392"
        ],
        "placetype": [
          "aat:300008347"
        ],
        "name:en": "Kunria",
        "id": 7574538
      }
    },
    {
      "geometry": {
        "type": "Point",
        "coordinates": [
          69.727217,
          23.402634
        ]
      },
      "type": "Feature",
      "properties": {
        "hierarchy": [
          "tgn:7574539",
          "tgn:1000004",
          "tgn:1001869",
          "tgn:7000198",
          "tgn:7029392"
        ],
        "placetype": [
          "aat:300008347"
        ],
        "name:en": "Kunria",
        "id": 7574539
      }
    }
  ]
}
