{
  "type": "FeatureCollection",
  "features": [
    {
      "geometry": {
        "type": "Point",
        "coordinates": [
          79.50957,
          26.775567
        ]
      },
      "type": "Feature",
      "properties": {
        "hierarchy": [
          "tgn:7565570",
          "tgn:1000004",
          "tgn:7000198",
          "tgn:7016722",
          "tgn:7029392"
        ],
        "placetype": [
          "aat:300008347"
        ],
        "name:en": "Bikūpur",
        "id": 7565570
      }
    },
    {
      "geometry": {
        "type": "Point",
        "coordinates": [
          79.498204,
          26.778165
        ]
      },
      "type": "Feature",
      "properties": {
        "hierarchy": [
          "tgn:7565571",
          "tgn:1000004",
          "tgn:7000198",
          "tgn:7016722",
          "tgn:7029392"
        ],
        "placetype": [
          "aat:300008347"
        ],
        "name:en": "Purwa Kamalsingh",
        "id": 7565571
      }
    },
    {
      "geometry": {
        "type": "Point",
        "coordinates": [
          79.517722,
          26.779876
        ]
      },
      "type": "Feature",
      "properties": {
        "hierarchy": [
          "tgn:7565572",
          "tgn:1000004",
          "tgn:7000198",
          "tgn:7016722",
          "tgn:7029392"
        ],
        "placetype": [
          "aat:300008347"
        ],
        "name:en": "Sarāi",
        "id": 7565572
      }
    },
    {
      "geometry": {
        "type": "Point",
        "coordinates": [
          79.517916,
          26.784449
        ]
      },
      "type": "Feature",
      "properties": {
        "hierarchy": [
          "tgn:7565573",
          "tgn:1000004",
          "tgn:7000198",
          "tgn:7016722",
          "tgn:7029392"
        ],
        "placetype": [
          "aat:300008347"
        ],
        "name:en": "Bhourājpur",
        "id": 7565573
      }
    },
    {
      "geometry": {
        "type": "Point",
        "coordinates": [
          79.51301,
          26.781291
        ]
      },
      "type": "Feature",
      "properties": {
        "hierarchy": [
          "tgn:7565574",
          "tgn:1000004",
          "tgn:7000198",
          "tgn:7016722",
          "tgn:7029392"
        ],
        "placetype": [
          "aat:300008347"
        ],
        "name:en": "Bhikra",
        "id": 7565574
      }
    },
    {
      "geometry": {
        "type": "Point",
        "coordinates": [
          79.504756,
          26.783257
        ]
      },
      "type": "Feature",
      "properties": {
        "hierarchy": [
          "tgn:7565575",
          "tgn:1000004",
          "tgn:7000198",
          "tgn:7016722",
          "tgn:7029392"
        ],
        "placetype": [
          "aat:300008347"
        ],
        "name:en": "Bāmpur Rāmpur",
        "id": 7565575
      }
    },
    {
      "geometry": {
        "type": "Point",
        "coordinates": [
          79.51166,
          26.78628
        ]
      },
      "type": "Feature",
      "properties": {
        "hierarchy": [
          "tgn:7565576",
          "tgn:1000004",
          "tgn:7000198",
          "tgn:7016722",
          "tgn:7029392"
        ],
        "placetype": [
          "aat:300008347"
        ],
        "name:en": "Saraiya Bhikra",
        "id": 7565576
      }
    },
    {
      "geometry": {
        "type": "Point",
        "coordinates": [
          79.502854,
          26.789858
        ]
      },
      "type": "Feature",
      "properties": {
        "hierarchy": [
          "tgn:7565577",
          "tgn:1000004",
          "tgn:7000198",
          "tgn:7016722",
          "tgn:7029392"
        ],
        "placetype": [
          "aat:300008347"
        ],
        "name:en": "Barwa",
        "id": 7565577
      }
    },
    {
      "geometry": {
        "type": "Point",
        "coordinates": [
          79.52817,
          26.779964
        ]
      },
      "type": "Feature",
      "properties": {
        "hierarchy": [
          "tgn:7565578",
          "tgn:1000004",
          "tgn:7000198",
          "tgn:7016722",
          "tgn:7029392"
        ],
        "placetype": [
          "aat:300008347"
        ],
        "name:en": "Katra Rūppur",
        "id": 7565578
      }
    },
    {
      "geometry": {
        "type": "Point",
        "coordinates": [
          79.534576,
          26.783643
        ]
      },
      "type": "Feature",
      "properties": {
        "hierarchy": [
          "tgn:7565579",
          "tgn:1000004",
          "tgn:7000198",
          "tgn:7016722",
          "tgn:7029392"
        ],
        "placetype": [
          "aat:300008347"
        ],
        "name:en": "Purwa Dichhat",
        "id": 7565579
      }
    }
  ]
}
