{
  "type": "FeatureCollection",
  "features": [
    {
      "geometry": {
        "type": "Point",
        "coordinates": [
          120.837729,
          23.989438
        ]
      },
      "type": "Feature",
      "properties": {
        "hierarchy": [
          "tgn:7476280",
          "tgn:7488858",
          "tgn:1000004",
          "tgn:1000141",
          "tgn:7029392"
        ],
        "placetype": [
          "aat:300007595"
        ],
        "id": 7476280,
        "name:xx": "Fude Gong"
      }
    },
    {
      "geometry": {
        "type": "Point",
        "coordinates": [
          120.897001,
          23.779009
        ]
      },
      "type": "Feature",
      "properties": {
        "hierarchy": [
          "tgn:7476281",
          "tgn:7488858",
          "tgn:1000004",
          "tgn:1000141",
          "tgn:7029392"
        ],
        "placetype": [
          "aat:300006495"
        ],
        "id": 7476281,
        "name:xx": "Renhe Guoxiao"
      }
    },
    {
      "geometry": {
        "type": "Point",
        "coordinates": [
          120.948484,
          23.787223
        ]
      },
      "type": "Feature",
      "properties": {
        "hierarchy": [
          "tgn:7476282",
          "tgn:7488858",
          "tgn:1000004",
          "tgn:1000141",
          "tgn:7029392"
        ],
        "placetype": [
          "aat:300006495"
        ],
        "id": 7476282,
        "name:xx": "Shuanglong Guoxiao"
      }
    },
    {
      "geometry": {
        "type": "Point",
        "coordinates": [
          120.947559,
          23.794875
        ]
      },
      "type": "Feature",
      "properties": {
        "hierarchy": [
          "tgn:7476283",
          "tgn:7488858",
          "tgn:1000004",
          "tgn:1000141",
          "tgn:7029392"
        ],
        "placetype": [
          "aat:300006495"
        ],
        "id": 7476283,
        "name:xx": "Dili Guoxiao"
      }
    },
    {
      "geometry": {
        "type": "Point",
        "coordinates": [
          120.933059,
          23.79466
        ]
      },
      "type": "Feature",
      "properties": {
        "hierarchy": [
          "tgn:7476284",
          "tgn:7488858",
          "tgn:1000004",
          "tgn:1000141",
          "tgn:7029392"
        ],
        "placetype": [
          "aat:300006495"
        ],
        "id": 7476284,
        "name:xx": "Minhe Guoxiao"
      }
    },
    {
      "geometry": {
        "type": "Point",
        "coordinates": [
          120.918091,
          23.799152
        ]
      },
      "type": "Feature",
      "properties": {
        "hierarchy": [
          "tgn:7476285",
          "tgn:7488858",
          "tgn:1000004",
          "tgn:1000141",
          "tgn:7029392"
        ],
        "placetype": [
          "aat:300006495"
        ],
        "id": 7476285,
        "name:xx": "Minhe Guozhong"
      }
    },
    {
      "geometry": {
        "type": "Point",
        "coordinates": [
          120.901939,
          23.837879
        ]
      },
      "type": "Feature",
      "properties": {
        "hierarchy": [
          "tgn:7476286",
          "tgn:7488858",
          "tgn:1000004",
          "tgn:1000141",
          "tgn:7029392"
        ],
        "placetype": [
          "aat:300006495"
        ],
        "id": 7476286,
        "name:xx": "Toushe Guoxiao"
      }
    },
    {
      "geometry": {
        "type": "Point",
        "coordinates": [
          120.91022,
          23.867312
        ]
      },
      "type": "Feature",
      "properties": {
        "hierarchy": [
          "tgn:7476287",
          "tgn:7488858",
          "tgn:1000004",
          "tgn:1000141",
          "tgn:7029392"
        ],
        "placetype": [
          "aat:300006495"
        ],
        "id": 7476287,
        "name:xx": "Mingtan Guozhong"
      }
    },
    {
      "geometry": {
        "type": "Point",
        "coordinates": [
          120.910446,
          23.868243
        ]
      },
      "type": "Feature",
      "properties": {
        "hierarchy": [
          "tgn:7476288",
          "tgn:7488858",
          "tgn:1000004",
          "tgn:1000141",
          "tgn:7029392"
        ],
        "placetype": [
          "aat:300006495"
        ],
        "id": 7476288,
        "name:xx": "Mingtan Guoxiao"
      }
    },
    {
      "geometry": {
        "type": "Point",
        "coordinates": [
          120.967217,
          23.890483
        ]
      },
      "type": "Feature",
      "properties": {
        "hierarchy": [
          "tgn:7476289",
          "tgn:7488858",
          "tgn:1000004",
          "tgn:1000141",
          "tgn:7029392"
        ],
        "placetype": [
          "aat:300006495"
        ],
        "id": 7476289,
        "name:xx": "Dongguang Guoxiao"
      }
    }
  ]
}
