{
  "type": "FeatureCollection",
  "features": [
    {
      "geometry": {
        "type": "Point",
        "coordinates": [
          -101.175556,
          21.018056
        ]
      },
      "type": "Feature",
      "properties": {
        "hierarchy": [
          "tgn:7418200",
          "tgn:7005584",
          "tgn:1000001",
          "tgn:7005560",
          "tgn:7029392"
        ],
        "placetype": [
          "aat:300008347"
        ],
        "id": 7418200,
        "name:xx": "Villalpando"
      }
    },
    {
      "geometry": {
        "type": "Point",
        "coordinates": [
          -101.186667,
          21.001944
        ]
      },
      "type": "Feature",
      "properties": {
        "hierarchy": [
          "tgn:7418201",
          "tgn:7005584",
          "tgn:1000001",
          "tgn:7005560",
          "tgn:7029392"
        ],
        "placetype": [
          "aat:300008347"
        ],
        "id": 7418201,
        "name:xx": "El Cubo"
      }
    },
    {
      "geometry": {
        "type": "Point",
        "coordinates": [
          -101.177778,
          21.007778
        ]
      },
      "type": "Feature",
      "properties": {
        "hierarchy": [
          "tgn:7418202",
          "tgn:7005584",
          "tgn:1000001",
          "tgn:7005560",
          "tgn:7029392"
        ],
        "placetype": [
          "aat:300008347"
        ],
        "id": 7418202,
        "name:xx": "Tajo de Dolores"
      }
    },
    {
      "geometry": {
        "type": "Point",
        "coordinates": [
          -101.120833,
          21.033611
        ]
      },
      "type": "Feature",
      "properties": {
        "hierarchy": [
          "tgn:7418203",
          "tgn:7005584",
          "tgn:1000001",
          "tgn:7005560",
          "tgn:7029392"
        ],
        "placetype": [
          "aat:300008347"
        ],
        "id": 7418203,
        "name:xx": "Cañada El Sauz"
      }
    },
    {
      "geometry": {
        "type": "Point",
        "coordinates": [
          -101.117222,
          21.089722
        ]
      },
      "type": "Feature",
      "properties": {
        "hierarchy": [
          "tgn:7418204",
          "tgn:7005584",
          "tgn:1000001",
          "tgn:7005560",
          "tgn:7029392"
        ],
        "placetype": [
          "aat:300008347"
        ],
        "id": 7418204,
        "name:xx": "Mesón"
      }
    },
    {
      "geometry": {
        "type": "Point",
        "coordinates": [
          -101.159167,
          21.148333
        ]
      },
      "type": "Feature",
      "properties": {
        "hierarchy": [
          "tgn:7418205",
          "tgn:7005584",
          "tgn:1000001",
          "tgn:7005560",
          "tgn:7029392"
        ],
        "placetype": [
          "aat:300008347"
        ],
        "id": 7418205,
        "name:xx": "Calvillo"
      }
    },
    {
      "geometry": {
        "type": "Point",
        "coordinates": [
          -101.218611,
          21.110278
        ]
      },
      "type": "Feature",
      "properties": {
        "hierarchy": [
          "tgn:7418206",
          "tgn:7005584",
          "tgn:1000001",
          "tgn:7005560",
          "tgn:7029392"
        ],
        "placetype": [
          "aat:300008347"
        ],
        "id": 7418206,
        "name:xx": "Llanos de la Fragua"
      }
    },
    {
      "geometry": {
        "type": "Point",
        "coordinates": [
          -101.242222,
          21.125
        ]
      },
      "type": "Feature",
      "properties": {
        "hierarchy": [
          "tgn:7418207",
          "tgn:7005584",
          "tgn:1000001",
          "tgn:7005560",
          "tgn:7029392"
        ],
        "placetype": [
          "aat:300008699"
        ],
        "id": 7418207,
        "name:xx": "Palo Grande, Río"
      }
    },
    {
      "geometry": {
        "type": "Point",
        "coordinates": [
          -101.175556,
          21.130556
        ]
      },
      "type": "Feature",
      "properties": {
        "hierarchy": [
          "tgn:7418208",
          "tgn:7005584",
          "tgn:1000001",
          "tgn:7005560",
          "tgn:7029392"
        ],
        "placetype": [
          "aat:300008347"
        ],
        "id": 7418208,
        "name:xx": "Picones"
      }
    }
  ]
}
