{
  "type": "FeatureCollection",
  "features": [
    {
      "geometry": {
        "type": "Point",
        "coordinates": [
          -98.791667,
          19.933333
        ]
      },
      "type": "Feature",
      "properties": {
        "hierarchy": [
          "tgn:7411320",
          "tgn:7005587",
          "tgn:1000001",
          "tgn:7005560",
          "tgn:7029392"
        ],
        "placetype": [
          "aat:300008347"
        ],
        "id": 7411320,
        "name:es": "La Cantera"
      }
    },
    {
      "geometry": {
        "type": "Point",
        "coordinates": [
          -98.783333,
          19.95
        ]
      },
      "type": "Feature",
      "properties": {
        "hierarchy": [
          "tgn:7411321",
          "tgn:7005587",
          "tgn:1000001",
          "tgn:7005560",
          "tgn:7029392"
        ],
        "placetype": [
          "aat:300008347"
        ],
        "id": 7411321,
        "name:es": "El Tejocote"
      }
    },
    {
      "geometry": {
        "type": "Point",
        "coordinates": [
          -98.805556,
          19.966667
        ]
      },
      "type": "Feature",
      "properties": {
        "hierarchy": [
          "tgn:7411322",
          "tgn:7005587",
          "tgn:1000001",
          "tgn:7005560",
          "tgn:7029392"
        ],
        "placetype": [
          "aat:300008347"
        ],
        "id": 7411322,
        "name:es": "Rancho Alegre"
      }
    },
    {
      "geometry": {
        "type": "Point",
        "coordinates": [
          -98.716667,
          19.979167
        ]
      },
      "type": "Feature",
      "properties": {
        "hierarchy": [
          "tgn:7411323",
          "tgn:7005587",
          "tgn:1000001",
          "tgn:7005560",
          "tgn:7029392"
        ],
        "placetype": [
          "aat:300008347"
        ],
        "id": 7411323,
        "name:es": "Villa Margarita"
      }
    },
    {
      "geometry": {
        "type": "Point",
        "coordinates": [
          -98.708333,
          19.958333
        ]
      },
      "type": "Feature",
      "properties": {
        "hierarchy": [
          "tgn:7411324",
          "tgn:7005587",
          "tgn:1000001",
          "tgn:7005560",
          "tgn:7029392"
        ],
        "placetype": [
          "aat:300008347"
        ],
        "id": 7411324,
        "name:es": "La Trinidad"
      }
    },
    {
      "geometry": {
        "type": "Point",
        "coordinates": [
          -98.745833,
          19.916667
        ]
      },
      "type": "Feature",
      "properties": {
        "hierarchy": [
          "tgn:7411325",
          "tgn:7005587",
          "tgn:1000001",
          "tgn:7005560",
          "tgn:7029392"
        ],
        "placetype": [
          "aat:300008795"
        ],
        "id": 7411325,
        "name:es": "Los Pitos, Cerro"
      }
    },
    {
      "geometry": {
        "type": "Point",
        "coordinates": [
          -98.698611,
          19.916667
        ]
      },
      "type": "Feature",
      "properties": {
        "hierarchy": [
          "tgn:7411326",
          "tgn:7005587",
          "tgn:1000001",
          "tgn:7005560",
          "tgn:7029392"
        ],
        "placetype": [
          "aat:300007783"
        ],
        "id": 7411326,
        "name:es": "Estación Crucero F Vías"
      }
    },
    {
      "geometry": {
        "type": "Point",
        "coordinates": [
          -98.688889,
          19.908333
        ]
      },
      "type": "Feature",
      "properties": {
        "hierarchy": [
          "tgn:7411327",
          "tgn:7005587",
          "tgn:1000001",
          "tgn:7005560",
          "tgn:7029392"
        ],
        "placetype": [
          "aat:300008347"
        ],
        "id": 7411327,
        "name:es": "Estación Tepa"
      }
    },
    {
      "geometry": {
        "type": "Point",
        "coordinates": [
          -98.719444,
          19.869444
        ]
      },
      "type": "Feature",
      "properties": {
        "hierarchy": [
          "tgn:7411328",
          "tgn:7005587",
          "tgn:1000001",
          "tgn:7005560",
          "tgn:7029392"
        ],
        "placetype": [
          "aat:300007783"
        ],
        "id": 7411328,
        "name:es": "Estación Conexión Vía H.B"
      }
    },
    {
      "geometry": {
        "type": "Point",
        "coordinates": [
          -98.726389,
          19.866667
        ]
      },
      "type": "Feature",
      "properties": {
        "hierarchy": [
          "tgn:7411329",
          "tgn:7005587",
          "tgn:1000001",
          "tgn:7005560",
          "tgn:7029392"
        ],
        "placetype": [
          "aat:300007783"
        ],
        "id": 7411329,
        "name:es": "Estación Conexión Vía H"
      }
    }
  ]
}
