{
  "type": "FeatureCollection",
  "features": [
    {
      "geometry": {
        "type": "Point",
        "coordinates": [
          -101.166667,
          18.955556
        ]
      },
      "type": "Feature",
      "properties": {
        "hierarchy": [
          "tgn:7410650",
          "tgn:1000001",
          "tgn:7005590",
          "tgn:7005560",
          "tgn:7029392"
        ],
        "placetype": [
          "aat:300008347"
        ],
        "id": 7410650,
        "name:xx": "Paso Real"
      }
    },
    {
      "geometry": {
        "type": "Point",
        "coordinates": [
          -101.1375,
          18.941667
        ]
      },
      "type": "Feature",
      "properties": {
        "hierarchy": [
          "tgn:7410651",
          "tgn:1000001",
          "tgn:7005590",
          "tgn:7005560",
          "tgn:7029392"
        ],
        "placetype": [
          "aat:300008347"
        ],
        "id": 7410651,
        "name:xx": "Capire"
      }
    },
    {
      "geometry": {
        "type": "Point",
        "coordinates": [
          -101.075,
          18.9625
        ]
      },
      "type": "Feature",
      "properties": {
        "hierarchy": [
          "tgn:7410652",
          "tgn:1000001",
          "tgn:7005590",
          "tgn:7005560",
          "tgn:7029392"
        ],
        "placetype": [
          "aat:300008347"
        ],
        "id": 7410652,
        "name:xx": "Sacapungame"
      }
    },
    {
      "geometry": {
        "type": "Point",
        "coordinates": [
          -101.15,
          18.995833
        ]
      },
      "type": "Feature",
      "properties": {
        "hierarchy": [
          "tgn:7410653",
          "tgn:1000001",
          "tgn:7005590",
          "tgn:7005560",
          "tgn:7029392"
        ],
        "placetype": [
          "aat:300008347"
        ],
        "id": 7410653,
        "name:xx": "La Cofradía"
      }
    },
    {
      "geometry": {
        "type": "Point",
        "coordinates": [
          -101.075,
          18.975
        ]
      },
      "type": "Feature",
      "properties": {
        "hierarchy": [
          "tgn:7410654",
          "tgn:1000001",
          "tgn:7005590",
          "tgn:7005560",
          "tgn:7029392"
        ],
        "placetype": [
          "aat:300008347"
        ],
        "id": 7410654,
        "name:xx": "Cañada de los Limones"
      }
    },
    {
      "geometry": {
        "type": "Point",
        "coordinates": [
          -101.038889,
          18.95
        ]
      },
      "type": "Feature",
      "properties": {
        "hierarchy": [
          "tgn:7410655",
          "tgn:1000001",
          "tgn:7005590",
          "tgn:7005560",
          "tgn:7029392"
        ],
        "placetype": [
          "aat:300008347"
        ],
        "id": 7410655,
        "name:xx": "El Tepeguaje"
      }
    },
    {
      "geometry": {
        "type": "Point",
        "coordinates": [
          -100.975,
          18.933333
        ]
      },
      "type": "Feature",
      "properties": {
        "hierarchy": [
          "tgn:7410656",
          "tgn:1000001",
          "tgn:7005590",
          "tgn:7005560",
          "tgn:7029392"
        ],
        "placetype": [
          "aat:300008347"
        ],
        "id": 7410656,
        "name:xx": "Santa Fé"
      }
    },
    {
      "geometry": {
        "type": "Point",
        "coordinates": [
          -101.058333,
          18.941667
        ]
      },
      "type": "Feature",
      "properties": {
        "hierarchy": [
          "tgn:7410657",
          "tgn:1000001",
          "tgn:7005590",
          "tgn:7005560",
          "tgn:7029392"
        ],
        "placetype": [
          "aat:300008347"
        ],
        "id": 7410657,
        "name:xx": "Las Trincheras"
      }
    },
    {
      "geometry": {
        "type": "Point",
        "coordinates": [
          -101.05,
          18.922222
        ]
      },
      "type": "Feature",
      "properties": {
        "hierarchy": [
          "tgn:7410658",
          "tgn:1000001",
          "tgn:7005590",
          "tgn:7005560",
          "tgn:7029392"
        ],
        "placetype": [
          "aat:300008347"
        ],
        "id": 7410658,
        "name:xx": "El Zapote"
      }
    },
    {
      "geometry": {
        "type": "Point",
        "coordinates": [
          -101.133333,
          18.916667
        ]
      },
      "type": "Feature",
      "properties": {
        "hierarchy": [
          "tgn:7410659",
          "tgn:1000001",
          "tgn:7005590",
          "tgn:7005560",
          "tgn:7029392"
        ],
        "placetype": [
          "aat:300008347"
        ],
        "id": 7410659,
        "name:xx": "La Mata de Otate"
      }
    }
  ]
}
