{
  "type": "FeatureCollection",
  "features": [
    {
      "geometry": {
        "type": "Point",
        "coordinates": [
          120.326944,
          23.4275
        ]
      },
      "type": "Feature",
      "properties": {
        "hierarchy": [
          "tgn:7470980",
          "tgn:7468018",
          "tgn:1000004",
          "tgn:1000141",
          "tgn:7029392"
        ],
        "placetype": [
          "aat:300000206"
        ],
        "id": 7470980,
        "name:xx": "Taitang Houliao Nongchang"
      }
    },
    {
      "geometry": {
        "type": "Point",
        "coordinates": [
          121.8275,
          24.972222
        ]
      },
      "type": "Feature",
      "properties": {
        "hierarchy": [
          "tgn:7470981",
          "tgn:1000004",
          "tgn:1000454",
          "tgn:1000141",
          "tgn:7029392"
        ],
        "placetype": [
          "aat:300008699"
        ],
        "id": 7470981,
        "name:xx": "Houliao Xi"
      }
    },
    {
      "geometry": {
        "type": "Point",
        "coordinates": [
          120.438651,
          22.465299
        ]
      },
      "type": "Feature",
      "properties": {
        "hierarchy": [
          "tgn:7470982",
          "tgn:1000004",
          "tgn:7492971",
          "tgn:1000141",
          "tgn:7029392"
        ],
        "placetype": [
          "aat:300008699"
        ],
        "id": 7470982,
        "name:xx": "Houliao Xi"
      }
    },
    {
      "geometry": {
        "type": "Point",
        "coordinates": [
          121.23,
          24.953056
        ]
      },
      "type": "Feature",
      "properties": {
        "hierarchy": [
          "tgn:7470983",
          "tgn:1000004",
          "tgn:7001013",
          "tgn:1000141",
          "tgn:7029392"
        ],
        "placetype": [
          "aat:300000745"
        ],
        "id": 7470983,
        "name:xx": "Houliao"
      }
    },
    {
      "geometry": {
        "type": "Point",
        "coordinates": [
          120.702778,
          24.263056
        ]
      },
      "type": "Feature",
      "properties": {
        "hierarchy": [
          "tgn:7470984",
          "tgn:1000004",
          "tgn:7001009",
          "tgn:1000141",
          "tgn:7029392"
        ],
        "placetype": [
          "aat:300008347"
        ],
        "id": 7470984,
        "name:xx": "Houliao"
      }
    },
    {
      "geometry": {
        "type": "Point",
        "coordinates": [
          120.778013,
          23.870837
        ]
      },
      "type": "Feature",
      "properties": {
        "hierarchy": [
          "tgn:7470985",
          "tgn:7488858",
          "tgn:1000004",
          "tgn:1000141",
          "tgn:7029392"
        ],
        "placetype": [
          "aat:300008347"
        ],
        "id": 7470985,
        "name:xx": "Houliaokeng"
      }
    },
    {
      "geometry": {
        "type": "Point",
        "coordinates": [
          119.576005,
          23.66826
        ]
      },
      "type": "Feature",
      "properties": {
        "hierarchy": [
          "tgn:7470986",
          "tgn:1000004",
          "tgn:7004300",
          "tgn:1000141",
          "tgn:7029392"
        ],
        "placetype": [
          "aat:300008347"
        ],
        "id": 7470986,
        "name:xx": "Houliao"
      }
    },
    {
      "geometry": {
        "type": "Point",
        "coordinates": [
          120.237222,
          23.551667
        ]
      },
      "type": "Feature",
      "properties": {
        "hierarchy": [
          "tgn:7470987",
          "tgn:1000004",
          "tgn:7001014",
          "tgn:1000141",
          "tgn:7029392"
        ],
        "placetype": [
          "aat:300008347"
        ],
        "id": 7470987,
        "name:xx": "Houliao"
      }
    },
    {
      "geometry": {
        "type": "Point",
        "coordinates": [
          119.579367,
          23.550754
        ]
      },
      "type": "Feature",
      "properties": {
        "hierarchy": [
          "tgn:7470988",
          "tgn:1000004",
          "tgn:7004300",
          "tgn:1000141",
          "tgn:7029392"
        ],
        "placetype": [
          "aat:300387173"
        ],
        "id": 7470988,
        "name:xx": "Qianliao Li"
      }
    },
    {
      "geometry": {
        "type": "Point",
        "coordinates": [
          120.34843,
          23.00883
        ]
      },
      "type": "Feature",
      "properties": {
        "hierarchy": [
          "tgn:7470989",
          "tgn:1000004",
          "tgn:7490934",
          "tgn:1000141",
          "tgn:7029392"
        ],
        "placetype": [
          "aat:300008347"
        ],
        "id": 7470989,
        "name:xx": "Houliao"
      }
    }
  ]
}
