{
  "type": "FeatureCollection",
  "features": [
    {
      "geometry": {
        "type": "Point",
        "coordinates": [
          121.767821,
          25.159957
        ]
      },
      "type": "Feature",
      "properties": {
        "hierarchy": [
          "tgn:7477820",
          "tgn:1000957",
          "tgn:1000004",
          "tgn:1000141",
          "tgn:7029392"
        ],
        "placetype": [
          "aat:300008347"
        ],
        "id": 7477820,
        "name:xx": "Huangdidian"
      }
    },
    {
      "geometry": {
        "type": "Point",
        "coordinates": [
          121.763395,
          25.046011
        ]
      },
      "type": "Feature",
      "properties": {
        "hierarchy": [
          "tgn:7477821",
          "tgn:1000004",
          "tgn:1000454",
          "tgn:1000141",
          "tgn:7029392"
        ],
        "placetype": [
          "aat:300008798"
        ],
        "id": 7477821,
        "name:xx": "Shifenliao Shan"
      }
    },
    {
      "geometry": {
        "type": "Point",
        "coordinates": [
          121.988665,
          25.012916
        ]
      },
      "type": "Feature",
      "properties": {
        "hierarchy": [
          "tgn:7477823",
          "tgn:1000004",
          "tgn:1000454",
          "tgn:1000141",
          "tgn:7029392"
        ],
        "placetype": [
          "aat:300007836"
        ],
        "id": 7477823,
        "name:xx": "Mao'ao Beiqiao"
      }
    },
    {
      "geometry": {
        "type": "Point",
        "coordinates": [
          121.923204,
          25.12813
        ]
      },
      "type": "Feature",
      "properties": {
        "hierarchy": [
          "tgn:7477824",
          "tgn:1000004",
          "tgn:1000454",
          "tgn:1000141",
          "tgn:7029392"
        ],
        "placetype": [
          "aat:300007741"
        ],
        "id": 7477824,
        "name:xx": "Bitou Jiao Dengta"
      }
    },
    {
      "geometry": {
        "type": "Point",
        "coordinates": [
          121.803507,
          25.137845
        ]
      },
      "type": "Feature",
      "properties": {
        "hierarchy": [
          "tgn:7477825",
          "tgn:1000004",
          "tgn:1000454",
          "tgn:1000141",
          "tgn:7029392"
        ],
        "placetype": [
          "aat:300008678"
        ],
        "id": 7477825,
        "name:xx": "Wanghaixiang Yugang"
      }
    },
    {
      "geometry": {
        "type": "Point",
        "coordinates": [
          121.803329,
          25.140523
        ]
      },
      "type": "Feature",
      "properties": {
        "hierarchy": [
          "tgn:7477826",
          "tgn:1000004",
          "tgn:1000454",
          "tgn:1000141",
          "tgn:7029392"
        ],
        "placetype": [
          "aat:300008678"
        ],
        "id": 7477826,
        "name:xx": "Changtanli Yugang"
      }
    },
    {
      "geometry": {
        "type": "Point",
        "coordinates": [
          121.785526,
          25.147507
        ]
      },
      "type": "Feature",
      "properties": {
        "hierarchy": [
          "tgn:7477827",
          "tgn:1000957",
          "tgn:1000004",
          "tgn:1000141",
          "tgn:7029392"
        ],
        "placetype": [
          "aat:300008678"
        ],
        "id": 7477827,
        "name:xx": "Bisha Gang"
      }
    },
    {
      "geometry": {
        "type": "Point",
        "coordinates": [
          121.852738,
          25.099371
        ]
      },
      "type": "Feature",
      "properties": {
        "hierarchy": [
          "tgn:7477828",
          "tgn:1000004",
          "tgn:1000454",
          "tgn:1000141",
          "tgn:7029392"
        ],
        "placetype": [
          "aat:300008347"
        ],
        "id": 7477828,
        "name:xx": "Jinguashibenshan"
      }
    },
    {
      "geometry": {
        "type": "Point",
        "coordinates": [
          121.893186,
          25.019281
        ]
      },
      "type": "Feature",
      "properties": {
        "hierarchy": [
          "tgn:7477829",
          "tgn:1000004",
          "tgn:1000454",
          "tgn:1000141",
          "tgn:7029392"
        ],
        "placetype": [
          "aat:300008777"
        ],
        "id": 7477829,
        "name:xx": "Changtan Shan"
      }
    }
  ]
}
