{
  "type": "FeatureCollection",
  "features": [
    {
      "geometry": {
        "type": "Point",
        "coordinates": [
          120.988086,
          24.573731
        ]
      },
      "type": "Feature",
      "properties": {
        "hierarchy": [
          "tgn:7491730",
          "tgn:7487020",
          "tgn:1000004",
          "tgn:1000141",
          "tgn:7029392"
        ],
        "placetype": [
          "aat:300008347"
        ],
        "id": 7491730,
        "name:xx": "Beishilixing"
      }
    },
    {
      "geometry": {
        "type": "Point",
        "coordinates": [
          120.687222,
          24.484722
        ]
      },
      "type": "Feature",
      "properties": {
        "hierarchy": [
          "tgn:7491731",
          "tgn:7487020",
          "tgn:1000004",
          "tgn:1000141",
          "tgn:7029392"
        ],
        "placetype": [
          "aat:300008347"
        ],
        "id": 7491731,
        "name:xx": "Xiabeishi"
      }
    },
    {
      "geometry": {
        "type": "Point",
        "coordinates": [
          120.462663,
          23.960347
        ]
      },
      "type": "Feature",
      "properties": {
        "hierarchy": [
          "tgn:7491733",
          "tgn:1000004",
          "tgn:7467799",
          "tgn:1000141",
          "tgn:7029392"
        ],
        "placetype": [
          "aat:300008347"
        ],
        "id": 7491733,
        "name:xx": "Beishiwei"
      }
    },
    {
      "geometry": {
        "type": "Point",
        "coordinates": [
          120.488,
          23.6235
        ]
      },
      "type": "Feature",
      "properties": {
        "hierarchy": [
          "tgn:7491734",
          "tgn:1000004",
          "tgn:7001014",
          "tgn:1000141",
          "tgn:7029392"
        ],
        "placetype": [
          "aat:300008347"
        ],
        "id": 7491734,
        "name:xx": "Dabeishi"
      }
    },
    {
      "geometry": {
        "type": "Point",
        "coordinates": [
          120.461681,
          23.533719
        ]
      },
      "type": "Feature",
      "properties": {
        "hierarchy": [
          "tgn:7491737",
          "tgn:7468018",
          "tgn:1000004",
          "tgn:1000141",
          "tgn:7029392"
        ],
        "placetype": [
          "aat:300008347"
        ],
        "id": 7491737,
        "name:xx": "Beishizi"
      }
    },
    {
      "geometry": {
        "type": "Point",
        "coordinates": [
          120.291231,
          23.046241
        ]
      },
      "type": "Feature",
      "properties": {
        "hierarchy": [
          "tgn:7491738",
          "tgn:1000004",
          "tgn:7490934",
          "tgn:1000141",
          "tgn:7029392"
        ],
        "placetype": [
          "aat:300008347"
        ],
        "id": 7491738,
        "name:xx": "Beishi"
      }
    },
    {
      "geometry": {
        "type": "Point",
        "coordinates": [
          120.332778,
          22.964722
        ]
      },
      "type": "Feature",
      "properties": {
        "hierarchy": [
          "tgn:7491739",
          "tgn:1000004",
          "tgn:7490934",
          "tgn:1000141",
          "tgn:7029392"
        ],
        "placetype": [
          "aat:300000745"
        ],
        "id": 7491739,
        "name:xx": "Beishi"
      }
    }
  ]
}
