{
  "type": "FeatureCollection",
  "features": [
    {
      "geometry": {
        "type": "Point",
        "coordinates": [
          135.3333,
          34.5333
        ]
      },
      "type": "Feature",
      "properties": {
        "hierarchy": [
          "tgn:1112530",
          "tgn:7016674",
          "tgn:1000004",
          "tgn:1000120",
          "tgn:7029392"
        ],
        "placetype": [
          "aat:300132316"
        ],
        "id": 1112530,
        "name:xx": "Ōsaka-wan"
      }
    },
    {
      "geometry": {
        "type": "Point",
        "coordinates": [
          38.1667,
          18.3333
        ]
      },
      "type": "Feature",
      "properties": {
        "hierarchy": [
          "tgn:1112532",
          "tgn:1001069",
          "tgn:7001242",
          "tgn:1000201",
          "tgn:7029392"
        ],
        "placetype": [
          "aat:300132316"
        ],
        "id": 1112532,
        "name:xx": "ʻAqīq, Khalīj"
      }
    },
    {
      "geometry": {
        "type": "Point",
        "coordinates": [
          29.086043,
          30.916011
        ]
      },
      "type": "Feature",
      "properties": {
        "hierarchy": [
          "tgn:1112533",
          "tgn:7001242",
          "tgn:7016833",
          "tgn:1001418",
          "tgn:7029392"
        ],
        "placetype": [
          "aat:300132316",
          "aat:300132315"
        ],
        "id": 1112533,
        "name:xx": "ʻArab, Khalīj al"
      }
    },
    {
      "geometry": {
        "type": "Point",
        "coordinates": [
          32.685545,
          31.158018
        ]
      },
      "type": "Feature",
      "properties": {
        "hierarchy": [
          "tgn:1112537",
          "tgn:7001242",
          "tgn:7016833",
          "tgn:7001335",
          "tgn:7029392"
        ],
        "placetype": [
          "aat:300132316"
        ],
        "id": 1112537,
        "name:xx": "Ţīnah, Jūnah aţ"
      }
    },
    {
      "geometry": {
        "type": "Point",
        "coordinates": [
          35.05,
          32.8667
        ]
      },
      "type": "Feature",
      "properties": {
        "hierarchy": [
          "tgn:1112538",
          "tgn:1000004",
          "tgn:1000119",
          "tgn:7029392"
        ],
        "placetype": [
          "aat:300132316"
        ],
        "id": 1112538,
        "name:xx": "H̲efa, Mifraẕ"
      }
    }
  ]
}
