{
  "type": "FeatureCollection",
  "features": [
    {
      "geometry": {
        "type": "Point",
        "coordinates": [
          119.726428,
          23.535998
        ]
      },
      "type": "Feature",
      "properties": {
        "hierarchy": [
          "tgn:7467630",
          "tgn:1000004",
          "tgn:7004300",
          "tgn:1000141",
          "tgn:7029392"
        ],
        "placetype": [
          "aat:300008791"
        ],
        "id": 7467630,
        "name:xx": "Chamu Yu"
      }
    },
    {
      "geometry": {
        "type": "Point",
        "coordinates": [
          120.458333,
          24.076111
        ]
      },
      "type": "Feature",
      "properties": {
        "hierarchy": [
          "tgn:7467631",
          "tgn:1000004",
          "tgn:7467799",
          "tgn:1000141",
          "tgn:7029392"
        ],
        "placetype": [
          "aat:300008347"
        ],
        "id": 7467631,
        "name:xx": "Chamoudan"
      }
    },
    {
      "geometry": {
        "type": "Point",
        "coordinates": [
          120.792778,
          22.286667
        ]
      },
      "type": "Feature",
      "properties": {
        "hierarchy": [
          "tgn:7467632",
          "tgn:1000004",
          "tgn:7491221",
          "tgn:1000141",
          "tgn:7029392"
        ],
        "placetype": [
          "aat:300008798"
        ],
        "id": 7467632,
        "name:xx": "Chaliufan Shan"
      }
    },
    {
      "geometry": {
        "type": "Point",
        "coordinates": [
          120.734198,
          24.127235
        ]
      },
      "type": "Feature",
      "properties": {
        "hierarchy": [
          "tgn:7467633",
          "tgn:1000004",
          "tgn:7001009",
          "tgn:1000141",
          "tgn:7029392"
        ],
        "placetype": [
          "aat:300008347"
        ],
        "id": 7467633,
        "name:xx": "Chaliao"
      }
    },
    {
      "geometry": {
        "type": "Point",
        "coordinates": [
          121.506633,
          24.772662
        ]
      },
      "type": "Feature",
      "properties": {
        "hierarchy": [
          "tgn:7467634",
          "tgn:1000004",
          "tgn:1000454",
          "tgn:1000141",
          "tgn:7029392"
        ],
        "placetype": [
          "aat:300008699"
        ],
        "id": 7467634,
        "name:xx": "Zhakong Xi"
      }
    },
    {
      "geometry": {
        "type": "Point",
        "coordinates": [
          121.483333,
          24.725833
        ]
      },
      "type": "Feature",
      "properties": {
        "hierarchy": [
          "tgn:7467635",
          "tgn:1000004",
          "tgn:1000454",
          "tgn:1000141",
          "tgn:7029392"
        ],
        "placetype": [
          "aat:300387002"
        ],
        "id": 7467635,
        "name:xx": "Chaken"
      }
    },
    {
      "geometry": {
        "type": "Point",
        "coordinates": [
          121.7565,
          24.7968
        ]
      },
      "type": "Feature",
      "properties": {
        "hierarchy": [
          "tgn:7467636",
          "tgn:1000004",
          "tgn:7489179",
          "tgn:1000141",
          "tgn:7029392"
        ],
        "placetype": [
          "aat:300008347"
        ],
        "id": 7467636,
        "name:xx": "Chaiwei"
      }
    },
    {
      "geometry": {
        "type": "Point",
        "coordinates": [
          118.435613,
          24.501977
        ]
      },
      "type": "Feature",
      "properties": {
        "hierarchy": [
          "tgn:7467637",
          "tgn:7469009",
          "tgn:1000004",
          "tgn:1000141",
          "tgn:7029392"
        ],
        "placetype": [
          "aat:300008777"
        ],
        "id": 7467637,
        "name:xx": "Wuhu Shan"
      }
    },
    {
      "geometry": {
        "type": "Point",
        "coordinates": [
          120.440053,
          23.250563
        ]
      },
      "type": "Feature",
      "properties": {
        "hierarchy": [
          "tgn:7467638",
          "tgn:1000004",
          "tgn:7490934",
          "tgn:1000141",
          "tgn:7029392"
        ],
        "placetype": [
          "aat:300008347"
        ],
        "id": 7467638,
        "name:xx": "Zhaizinei"
      }
    },
    {
      "geometry": {
        "type": "Point",
        "coordinates": [
          120.2033,
          23.258707
        ]
      },
      "type": "Feature",
      "properties": {
        "hierarchy": [
          "tgn:7467639",
          "tgn:1000004",
          "tgn:7490934",
          "tgn:1000141",
          "tgn:7029392"
        ],
        "placetype": [
          "aat:300008347"
        ],
        "id": 7467639,
        "name:xx": "Zhaizigang"
      }
    }
  ]
}
