{
  "type": "FeatureCollection",
  "features": [
    {
      "geometry": {
        "type": "Point",
        "coordinates": [
          -95.406111,
          16.485278
        ]
      },
      "type": "Feature",
      "properties": {
        "hierarchy": [
          "tgn:7414771",
          "tgn:1000001",
          "tgn:7005591",
          "tgn:7005560",
          "tgn:7029392"
        ],
        "placetype": [
          "aat:300008347"
        ],
        "id": 7414771,
        "name:es": "Piedra de Cal"
      }
    },
    {
      "geometry": {
        "type": "Point",
        "coordinates": [
          -95.235278,
          16.469167
        ]
      },
      "type": "Feature",
      "properties": {
        "hierarchy": [
          "tgn:7414772",
          "tgn:1000001",
          "tgn:7005591",
          "tgn:7005560",
          "tgn:7029392"
        ],
        "placetype": [
          "aat:300008795"
        ],
        "id": 7414772,
        "name:es": "La Garza, Cerro"
      }
    },
    {
      "geometry": {
        "type": "Point",
        "coordinates": [
          -95.234167,
          16.406111
        ]
      },
      "type": "Feature",
      "properties": {
        "hierarchy": [
          "tgn:7414773",
          "tgn:1000001",
          "tgn:7005591",
          "tgn:7005560",
          "tgn:7029392"
        ],
        "placetype": [
          "aat:300008347"
        ],
        "id": 7414773,
        "name:es": "San Luis Reyes"
      }
    },
    {
      "geometry": {
        "type": "Point",
        "coordinates": [
          -95.031111,
          16.498889
        ]
      },
      "type": "Feature",
      "properties": {
        "hierarchy": [
          "tgn:7414774",
          "tgn:1000001",
          "tgn:7005591",
          "tgn:7005560",
          "tgn:7029392"
        ],
        "placetype": [
          "aat:300007783"
        ],
        "id": 7414774,
        "name:es": "Estaci贸n La Planta"
      }
    },
    {
      "geometry": {
        "type": "Point",
        "coordinates": [
          -95.029167,
          16.4925
        ]
      },
      "type": "Feature",
      "properties": {
        "hierarchy": [
          "tgn:7414775",
          "tgn:1000001",
          "tgn:7005591",
          "tgn:7005560",
          "tgn:7029392"
        ],
        "placetype": [
          "aat:300007783"
        ],
        "id": 7414775,
        "name:es": "Estaci贸n Ingenio"
      }
    },
    {
      "geometry": {
        "type": "Point",
        "coordinates": [
          -95.029167,
          16.4825
        ]
      },
      "type": "Feature",
      "properties": {
        "hierarchy": [
          "tgn:7414776",
          "tgn:1000001",
          "tgn:7005591",
          "tgn:7005560",
          "tgn:7029392"
        ],
        "placetype": [
          "aat:300007783"
        ],
        "id": 7414776,
        "name:es": "Estaci贸n Azucarero"
      }
    },
    {
      "geometry": {
        "type": "Point",
        "coordinates": [
          -94.953611,
          16.445833
        ]
      },
      "type": "Feature",
      "properties": {
        "hierarchy": [
          "tgn:7414777",
          "tgn:1000001",
          "tgn:7005591",
          "tgn:7005560",
          "tgn:7029392"
        ],
        "placetype": [
          "aat:300008347"
        ],
        "id": 7414777,
        "name:es": "Victoria"
      }
    },
    {
      "geometry": {
        "type": "Point",
        "coordinates": [
          -94.914444,
          16.475
        ]
      },
      "type": "Feature",
      "properties": {
        "hierarchy": [
          "tgn:7414778",
          "tgn:1000001",
          "tgn:7005591",
          "tgn:7005560",
          "tgn:7029392"
        ],
        "placetype": [
          "aat:300007783"
        ],
        "id": 7414778,
        "name:es": "Estaci贸n Charis"
      }
    },
    {
      "geometry": {
        "type": "Point",
        "coordinates": [
          -94.906667,
          16.536667
        ]
      },
      "type": "Feature",
      "properties": {
        "hierarchy": [
          "tgn:7414779",
          "tgn:1000001",
          "tgn:7005591",
          "tgn:7005560",
          "tgn:7029392"
        ],
        "placetype": [
          "aat:300008347"
        ],
        "id": 7414779,
        "name:es": "Piedra Larga"
      }
    }
  ]
}
