{
  "type": "FeatureCollection",
  "features": [
    {
      "geometry": {
        "type": "Point",
        "coordinates": [
          78.032137,
          33.644409
        ]
      },
      "type": "Feature",
      "properties": {
        "hierarchy": [
          "tgn:7547051",
          "tgn:1000004",
          "tgn:7000198",
          "tgn:7000799",
          "tgn:7029392"
        ],
        "placetype": [
          "aat:300008347"
        ],
        "name:en": "Argi",
        "id": 7547051
      }
    },
    {
      "geometry": {
        "type": "Point",
        "coordinates": [
          76.941285,
          21.119164
        ]
      },
      "type": "Feature",
      "properties": {
        "hierarchy": [
          "tgn:7547052",
          "tgn:1000004",
          "tgn:7000198",
          "tgn:1001895",
          "tgn:7029392"
        ],
        "placetype": [
          "aat:300008347"
        ],
        "name:en": "Argaon",
        "id": 7547052
      }
    },
    {
      "geometry": {
        "type": "Point",
        "coordinates": [
          73.866667,
          20.033333
        ]
      },
      "type": "Feature",
      "properties": {
        "hierarchy": [
          "tgn:7547053",
          "tgn:1000004",
          "tgn:7000198",
          "tgn:1001895",
          "tgn:7029392"
        ],
        "placetype": [
          "aat:300008347"
        ],
        "name:en": "Ārgaon",
        "id": 7547053
      }
    },
    {
      "geometry": {
        "type": "Point",
        "coordinates": [
          76.866667,
          19.566667
        ]
      },
      "type": "Feature",
      "properties": {
        "hierarchy": [
          "tgn:7547054",
          "tgn:1000004",
          "tgn:7000198",
          "tgn:1001895",
          "tgn:7029392"
        ],
        "placetype": [
          "aat:300008347"
        ],
        "name:en": "Argaon",
        "id": 7547054
      }
    },
    {
      "geometry": {
        "type": "Point",
        "coordinates": [
          77.783333,
          34.666667
        ]
      },
      "type": "Feature",
      "properties": {
        "hierarchy": [
          "tgn:7547055",
          "tgn:1000004",
          "tgn:7000198",
          "tgn:7000799",
          "tgn:7029392"
        ],
        "placetype": [
          "aat:300008795"
        ],
        "name:en": "Arganglas Group",
        "id": 7547055
      }
    },
    {
      "geometry": {
        "type": "Point",
        "coordinates": [
          73.166667,
          21.316667
        ]
      },
      "type": "Feature",
      "properties": {
        "hierarchy": [
          "tgn:7547056",
          "tgn:1000004",
          "tgn:1001869",
          "tgn:7000198",
          "tgn:7029392"
        ],
        "placetype": [
          "aat:300008347"
        ],
        "name:en": "Areth",
        "id": 7547056
      }
    },
    {
      "geometry": {
        "type": "Point",
        "coordinates": [
          79.885719,
          28.020056
        ]
      },
      "type": "Feature",
      "properties": {
        "hierarchy": [
          "tgn:7547057",
          "tgn:1000004",
          "tgn:7000198",
          "tgn:7016722",
          "tgn:7029392"
        ],
        "placetype": [
          "aat:300007783"
        ],
        "name:en": "Arelī",
        "id": 7547057
      }
    },
    {
      "geometry": {
        "type": "Point",
        "coordinates": [
          75.833333,
          13.05
        ]
      },
      "type": "Feature",
      "properties": {
        "hierarchy": [
          "tgn:7547058",
          "tgn:1000004",
          "tgn:7000198",
          "tgn:1001882",
          "tgn:7029392"
        ],
        "placetype": [
          "aat:300008347"
        ],
        "name:en": "Arehalli",
        "id": 7547058
      }
    },
    {
      "geometry": {
        "type": "Point",
        "coordinates": [
          78.739211,
          21.021002
        ]
      },
      "type": "Feature",
      "properties": {
        "hierarchy": [
          "tgn:7547059",
          "tgn:1000004",
          "tgn:7000198",
          "tgn:1001895",
          "tgn:7029392"
        ],
        "placetype": [
          "aat:300008347"
        ],
        "name:en": "Aregaon",
        "id": 7547059
      }
    }
  ]
}
