{
  "type": "FeatureCollection",
  "features": [
    {
      "geometry": {
        "type": "Point",
        "coordinates": [
          120.7526,
          23.8871
        ]
      },
      "type": "Feature",
      "properties": {
        "hierarchy": [
          "tgn:7476180",
          "tgn:7488858",
          "tgn:1000004",
          "tgn:1000141",
          "tgn:7029392"
        ],
        "placetype": [
          "aat:300008347"
        ],
        "id": 7476180,
        "name:xx": "Luliao"
      }
    },
    {
      "geometry": {
        "type": "Point",
        "coordinates": [
          120.757745,
          23.882297
        ]
      },
      "type": "Feature",
      "properties": {
        "hierarchy": [
          "tgn:7476181",
          "tgn:7488858",
          "tgn:1000004",
          "tgn:1000141",
          "tgn:7029392"
        ],
        "placetype": [
          "aat:300007836"
        ],
        "id": 7476181,
        "name:xx": "Zhongzheng Qiao"
      }
    },
    {
      "geometry": {
        "type": "Point",
        "coordinates": [
          120.749597,
          23.882079
        ]
      },
      "type": "Feature",
      "properties": {
        "hierarchy": [
          "tgn:7476182",
          "tgn:7488858",
          "tgn:1000004",
          "tgn:1000141",
          "tgn:7029392"
        ],
        "placetype": [
          "aat:300007836"
        ],
        "id": 7476182,
        "name:xx": "Fushou Qiao"
      }
    },
    {
      "geometry": {
        "type": "Point",
        "coordinates": [
          120.7295,
          23.8801
        ]
      },
      "type": "Feature",
      "properties": {
        "hierarchy": [
          "tgn:7476183",
          "tgn:7488858",
          "tgn:1000004",
          "tgn:1000141",
          "tgn:7029392"
        ],
        "placetype": [
          "aat:300008347"
        ],
        "id": 7476183,
        "name:xx": "Dagongdong"
      }
    },
    {
      "geometry": {
        "type": "Point",
        "coordinates": [
          120.7316,
          23.8747
        ]
      },
      "type": "Feature",
      "properties": {
        "hierarchy": [
          "tgn:7476184",
          "tgn:7488858",
          "tgn:1000004",
          "tgn:1000141",
          "tgn:7029392"
        ],
        "placetype": [
          "aat:300008347"
        ],
        "id": 7476184,
        "name:xx": "Zhonghu"
      }
    },
    {
      "geometry": {
        "type": "Point",
        "coordinates": [
          120.716733,
          23.878251
        ]
      },
      "type": "Feature",
      "properties": {
        "hierarchy": [
          "tgn:7476185",
          "tgn:7488858",
          "tgn:1000004",
          "tgn:1000141",
          "tgn:7029392"
        ],
        "placetype": [
          "aat:300007836"
        ],
        "id": 7476185,
        "name:xx": "Dongshikeng Qiao"
      }
    },
    {
      "geometry": {
        "type": "Point",
        "coordinates": [
          120.710458,
          23.878614
        ]
      },
      "type": "Feature",
      "properties": {
        "hierarchy": [
          "tgn:7476186",
          "tgn:7488858",
          "tgn:1000004",
          "tgn:1000141",
          "tgn:7029392"
        ],
        "placetype": [
          "aat:300007836"
        ],
        "id": 7476186,
        "name:xx": "Wanxing Qiao"
      }
    },
    {
      "geometry": {
        "type": "Point",
        "coordinates": [
          120.7197,
          23.8742
        ]
      },
      "type": "Feature",
      "properties": {
        "hierarchy": [
          "tgn:7476187",
          "tgn:7488858",
          "tgn:1000004",
          "tgn:1000141",
          "tgn:7029392"
        ],
        "placetype": [
          "aat:300008347"
        ],
        "id": 7476187,
        "name:xx": "Dongshikengzi"
      }
    },
    {
      "geometry": {
        "type": "Point",
        "coordinates": [
          120.713,
          23.8764
        ]
      },
      "type": "Feature",
      "properties": {
        "hierarchy": [
          "tgn:7476188",
          "tgn:7488858",
          "tgn:1000004",
          "tgn:1000141",
          "tgn:7029392"
        ],
        "placetype": [
          "aat:300008347"
        ],
        "id": 7476188,
        "name:xx": "Wushuang"
      }
    },
    {
      "geometry": {
        "type": "Point",
        "coordinates": [
          120.694411,
          23.874645
        ]
      },
      "type": "Feature",
      "properties": {
        "hierarchy": [
          "tgn:7476189",
          "tgn:7488858",
          "tgn:1000004",
          "tgn:1000141",
          "tgn:7029392"
        ],
        "placetype": [
          "aat:300008347"
        ],
        "id": 7476189,
        "name:xx": "Kezhuang"
      }
    }
  ]
}
