{
  "type": "FeatureCollection",
  "features": [
    {
      "geometry": {
        "type": "Point",
        "coordinates": [
          76.413969,
          30.896559
        ]
      },
      "type": "Feature",
      "properties": {
        "hierarchy": [
          "tgn:7549552",
          "tgn:1000004",
          "tgn:7000198",
          "tgn:7016883",
          "tgn:7029392"
        ],
        "placetype": [
          "aat:300008347"
        ],
        "name:en": "Ch훮mkor",
        "id": 7549552
      }
    },
    {
      "geometry": {
        "type": "Point",
        "coordinates": [
          79.226588,
          34.423385
        ]
      },
      "type": "Feature",
      "properties": {
        "hierarchy": [
          "tgn:7549553",
          "tgn:1000004",
          "tgn:7000198",
          "tgn:7000799",
          "tgn:7029392"
        ],
        "placetype": [
          "aat:300008795"
        ],
        "name:en": "Ch훮mkang",
        "id": 7549553
      }
    },
    {
      "geometry": {
        "type": "Point",
        "coordinates": [
          74.821191,
          31.854509
        ]
      },
      "type": "Feature",
      "properties": {
        "hierarchy": [
          "tgn:7549554",
          "tgn:1000004",
          "tgn:7000198",
          "tgn:7016883",
          "tgn:7029392"
        ],
        "placetype": [
          "aat:300008347"
        ],
        "name:en": "Chami훮ri",
        "id": 7549554
      }
    },
    {
      "geometry": {
        "type": "Point",
        "coordinates": [
          88.656753,
          27.657984
        ]
      },
      "type": "Feature",
      "properties": {
        "hierarchy": [
          "tgn:7549555",
          "tgn:1000004",
          "tgn:7000198",
          "tgn:1001977",
          "tgn:7029392"
        ],
        "placetype": [
          "aat:300008798"
        ],
        "name:en": "Chameringu",
        "id": 7549555
      }
    },
    {
      "geometry": {
        "type": "Point",
        "coordinates": [
          96.534251,
          28.078908
        ]
      },
      "type": "Feature",
      "properties": {
        "hierarchy": [
          "tgn:7549556",
          "tgn:7001819",
          "tgn:1000004",
          "tgn:7000198",
          "tgn:7029392"
        ],
        "placetype": [
          "aat:300008347"
        ],
        "name:en": "Chameliang",
        "id": 7549556
      }
    },
    {
      "geometry": {
        "type": "Point",
        "coordinates": [
          75.419743,
          23.356043
        ]
      },
      "type": "Feature",
      "properties": {
        "hierarchy": [
          "tgn:7549557",
          "tgn:1000004",
          "tgn:7000198",
          "tgn:1001894",
          "tgn:7029392"
        ],
        "placetype": [
          "aat:300008699"
        ],
        "name:en": "Chambla Nad카",
        "id": 7549557
      }
    },
    {
      "geometry": {
        "type": "Point",
        "coordinates": [
          79.248953,
          26.489287
        ]
      },
      "type": "Feature",
      "properties": {
        "hierarchy": [
          "tgn:7549558",
          "tgn:1000004",
          "tgn:7000198",
          "tgn:7016722",
          "tgn:7029392"
        ],
        "placetype": [
          "aat:300008699"
        ],
        "name:en": "Chambal River",
        "id": 7549558
      }
    },
    {
      "geometry": {
        "type": "Point",
        "coordinates": [
          75.528773,
          23.025762
        ]
      },
      "type": "Feature",
      "properties": {
        "hierarchy": [
          "tgn:7549559",
          "tgn:1000004",
          "tgn:7000198",
          "tgn:1001894",
          "tgn:7029392"
        ],
        "placetype": [
          "aat:300007783"
        ],
        "name:en": "Chambal",
        "id": 7549559
      }
    }
  ]
}
