{
  "type": "FeatureCollection",
  "features": [
    {
      "geometry": {
        "type": "Point",
        "coordinates": [
          78.703388,
          24.729111
        ]
      },
      "type": "Feature",
      "properties": {
        "hierarchy": [
          "tgn:7583500",
          "tgn:1000004",
          "tgn:7000198",
          "tgn:7016722",
          "tgn:7029392"
        ],
        "placetype": [
          "aat:300008347"
        ],
        "name:en": "Kuān",
        "id": 7583500
      }
    },
    {
      "geometry": {
        "type": "Point",
        "coordinates": [
          78.718113,
          24.726131
        ]
      },
      "type": "Feature",
      "properties": {
        "hierarchy": [
          "tgn:7583501",
          "tgn:1000004",
          "tgn:7000198",
          "tgn:7016722",
          "tgn:7029392"
        ],
        "placetype": [
          "aat:300008347"
        ],
        "name:en": "Marayya",
        "id": 7583501
      }
    },
    {
      "geometry": {
        "type": "Point",
        "coordinates": [
          78.743331,
          24.727309
        ]
      },
      "type": "Feature",
      "properties": {
        "hierarchy": [
          "tgn:7583502",
          "tgn:1000004",
          "tgn:7000198",
          "tgn:7016722",
          "tgn:7029392"
        ],
        "placetype": [
          "aat:300008347"
        ],
        "name:en": "Ganeshpur",
        "id": 7583502
      }
    },
    {
      "geometry": {
        "type": "Point",
        "coordinates": [
          78.733492,
          24.72719
        ]
      },
      "type": "Feature",
      "properties": {
        "hierarchy": [
          "tgn:7583503",
          "tgn:1000004",
          "tgn:7000198",
          "tgn:7016722",
          "tgn:7029392"
        ],
        "placetype": [
          "aat:300008680"
        ],
        "name:en": "Nav Tāl",
        "id": 7583503
      }
    },
    {
      "geometry": {
        "type": "Point",
        "coordinates": [
          78.743651,
          24.721033
        ]
      },
      "type": "Feature",
      "properties": {
        "hierarchy": [
          "tgn:7583504",
          "tgn:1000004",
          "tgn:7000198",
          "tgn:7016722",
          "tgn:7029392"
        ],
        "placetype": [
          "aat:300008680"
        ],
        "name:en": "Bara Tāl",
        "id": 7583504
      }
    },
    {
      "geometry": {
        "type": "Point",
        "coordinates": [
          78.709968,
          24.712991
        ]
      },
      "type": "Feature",
      "properties": {
        "hierarchy": [
          "tgn:7583505",
          "tgn:1000004",
          "tgn:7000198",
          "tgn:7016722",
          "tgn:7029392"
        ],
        "placetype": [
          "aat:300008347"
        ],
        "name:en": "Hansrau",
        "id": 7583505
      }
    },
    {
      "geometry": {
        "type": "Point",
        "coordinates": [
          78.700231,
          24.70719
        ]
      },
      "type": "Feature",
      "properties": {
        "hierarchy": [
          "tgn:7583506",
          "tgn:1000004",
          "tgn:7000198",
          "tgn:7016722",
          "tgn:7029392"
        ],
        "placetype": [
          "aat:300387086"
        ],
        "name:en": "Phutera Tāl",
        "id": 7583506
      }
    },
    {
      "geometry": {
        "type": "Point",
        "coordinates": [
          78.690092,
          24.710028
        ]
      },
      "type": "Feature",
      "properties": {
        "hierarchy": [
          "tgn:7583507",
          "tgn:1000004",
          "tgn:7000198",
          "tgn:7016722",
          "tgn:7029392"
        ],
        "placetype": [
          "aat:300008347"
        ],
        "name:en": "Ajnora",
        "id": 7583507
      }
    },
    {
      "geometry": {
        "type": "Point",
        "coordinates": [
          78.680751,
          24.712729
        ]
      },
      "type": "Feature",
      "properties": {
        "hierarchy": [
          "tgn:7583508",
          "tgn:1000004",
          "tgn:7000198",
          "tgn:7016722",
          "tgn:7029392"
        ],
        "placetype": [
          "aat:300008347"
        ],
        "name:en": "Khiria Misra",
        "id": 7583508
      }
    },
    {
      "geometry": {
        "type": "Point",
        "coordinates": [
          78.673315,
          24.706149
        ]
      },
      "type": "Feature",
      "properties": {
        "hierarchy": [
          "tgn:7583509",
          "tgn:1000004",
          "tgn:7000198",
          "tgn:7016722",
          "tgn:7029392"
        ],
        "placetype": [
          "aat:300266554",
          "aat:300008699"
        ],
        "name:en": "Pīparghāt Nāla",
        "id": 7583509
      }
    }
  ]
}
