{
  "type": "FeatureCollection",
  "features": [
    {
      "geometry": {
        "type": "Point",
        "coordinates": [
          -111.778333,
          25.0025
        ]
      },
      "type": "Feature",
      "properties": {
        "hierarchy": [
          "tgn:7420830",
          "tgn:1001836",
          "tgn:1000001",
          "tgn:7005560",
          "tgn:7029392"
        ],
        "placetype": [
          "aat:300008347"
        ],
        "id": 7420830,
        "name:xx": "Guanajuato"
      }
    },
    {
      "geometry": {
        "type": "Point",
        "coordinates": [
          -111.781111,
          26.203056
        ]
      },
      "type": "Feature",
      "properties": {
        "hierarchy": [
          "tgn:7420831",
          "tgn:1001836",
          "tgn:1000001",
          "tgn:7005560",
          "tgn:7029392"
        ],
        "placetype": [
          "aat:300008347"
        ],
        "id": 7420831,
        "name:xx": "San Hilario"
      }
    },
    {
      "geometry": {
        "type": "Point",
        "coordinates": [
          -111.806944,
          24.565278
        ]
      },
      "type": "Feature",
      "properties": {
        "hierarchy": [
          "tgn:7420832",
          "tgn:1001836",
          "tgn:1000001",
          "tgn:7005560",
          "tgn:7029392"
        ],
        "placetype": [
          "aat:300008347"
        ],
        "id": 7420832,
        "name:xx": "Puerto Argudin"
      }
    },
    {
      "geometry": {
        "type": "Point",
        "coordinates": [
          -111.808333,
          24.8425
        ]
      },
      "type": "Feature",
      "properties": {
        "hierarchy": [
          "tgn:7420833",
          "tgn:1001836",
          "tgn:1000001",
          "tgn:7005560",
          "tgn:7029392"
        ],
        "placetype": [
          "aat:300008347"
        ],
        "id": 7420833,
        "name:xx": "San Agustín"
      }
    },
    {
      "geometry": {
        "type": "Point",
        "coordinates": [
          -111.8125,
          25.625
        ]
      },
      "type": "Feature",
      "properties": {
        "hierarchy": [
          "tgn:7420834",
          "tgn:1001836",
          "tgn:1000001",
          "tgn:7005560",
          "tgn:7029392"
        ],
        "placetype": [
          "aat:300008347"
        ],
        "id": 7420834,
        "name:xx": "Canelo"
      }
    },
    {
      "geometry": {
        "type": "Point",
        "coordinates": [
          -111.825833,
          25.116111
        ]
      },
      "type": "Feature",
      "properties": {
        "hierarchy": [
          "tgn:7420835",
          "tgn:1001836",
          "tgn:1000001",
          "tgn:7005560",
          "tgn:7029392"
        ],
        "placetype": [
          "aat:300008347"
        ],
        "id": 7420835,
        "name:xx": "Benito Juárez"
      }
    },
    {
      "geometry": {
        "type": "Point",
        "coordinates": [
          -111.828056,
          25.203056
        ]
      },
      "type": "Feature",
      "properties": {
        "hierarchy": [
          "tgn:7420836",
          "tgn:1001836",
          "tgn:1000001",
          "tgn:7005560",
          "tgn:7029392"
        ],
        "placetype": [
          "aat:300008347"
        ],
        "id": 7420836,
        "name:xx": "Río Mayo"
      }
    },
    {
      "geometry": {
        "type": "Point",
        "coordinates": [
          -111.828056,
          26.333611
        ]
      },
      "type": "Feature",
      "properties": {
        "hierarchy": [
          "tgn:7420837",
          "tgn:1001836",
          "tgn:1000001",
          "tgn:7005560",
          "tgn:7029392"
        ],
        "placetype": [
          "aat:300008347"
        ],
        "id": 7420837,
        "name:xx": "Calaqua"
      }
    },
    {
      "geometry": {
        "type": "Point",
        "coordinates": [
          -111.843611,
          26.875
        ]
      },
      "type": "Feature",
      "properties": {
        "hierarchy": [
          "tgn:7420838",
          "tgn:1001836",
          "tgn:1000001",
          "tgn:7005560",
          "tgn:7029392"
        ],
        "placetype": [
          "aat:300386846"
        ],
        "id": 7420838,
        "name:xx": "Hornitos, Punta"
      }
    },
    {
      "geometry": {
        "type": "Point",
        "coordinates": [
          -111.843611,
          25.000556
        ]
      },
      "type": "Feature",
      "properties": {
        "hierarchy": [
          "tgn:7420839",
          "tgn:1001836",
          "tgn:1000001",
          "tgn:7005560",
          "tgn:7029392"
        ],
        "placetype": [
          "aat:300008347"
        ],
        "id": 7420839,
        "name:xx": "Josefa Ortiz de Dominguez"
      }
    }
  ]
}
