{
  "type": "FeatureCollection",
  "features": [
    {
      "geometry": {
        "type": "Point",
        "coordinates": [
          73.924253,
          34.409738
        ]
      },
      "type": "Feature",
      "properties": {
        "hierarchy": [
          "tgn:7590690",
          "tgn:1000004",
          "tgn:7000198",
          "tgn:7000799",
          "tgn:7029392"
        ],
        "placetype": [
          "aat:300008347"
        ],
        "name:en": "Udura",
        "id": 7590690
      }
    },
    {
      "geometry": {
        "type": "Point",
        "coordinates": [
          73.994338,
          34.310772
        ]
      },
      "type": "Feature",
      "properties": {
        "hierarchy": [
          "tgn:7590691",
          "tgn:1000004",
          "tgn:7000198",
          "tgn:7000799",
          "tgn:7029392"
        ],
        "placetype": [
          "aat:300008347"
        ],
        "name:en": "Uchhār",
        "id": 7590691
      }
    },
    {
      "geometry": {
        "type": "Point",
        "coordinates": [
          73.922516,
          34.468778
        ]
      },
      "type": "Feature",
      "properties": {
        "hierarchy": [
          "tgn:7590692",
          "tgn:1000004",
          "tgn:7000198",
          "tgn:7000799",
          "tgn:7029392"
        ],
        "placetype": [
          "aat:300008347"
        ],
        "name:en": "Ūndi",
        "id": 7590692
      }
    },
    {
      "geometry": {
        "type": "Point",
        "coordinates": [
          73.897377,
          34.350321
        ]
      },
      "type": "Feature",
      "properties": {
        "hierarchy": [
          "tgn:7590693",
          "tgn:1000004",
          "tgn:7000198",
          "tgn:7000799",
          "tgn:7029392"
        ],
        "placetype": [
          "aat:300008347"
        ],
        "name:en": "Tungwāli Baihk",
        "id": 7590693
      }
    },
    {
      "geometry": {
        "type": "Point",
        "coordinates": [
          73.979666,
          34.312952
        ]
      },
      "type": "Feature",
      "properties": {
        "hierarchy": [
          "tgn:7590694",
          "tgn:1000004",
          "tgn:7000198",
          "tgn:7000799",
          "tgn:7029392"
        ],
        "placetype": [
          "aat:300259572"
        ],
        "name:en": "Tūtmāri Gali",
        "id": 7590694
      }
    },
    {
      "geometry": {
        "type": "Point",
        "coordinates": [
          73.816111,
          34.422652
        ]
      },
      "type": "Feature",
      "properties": {
        "hierarchy": [
          "tgn:7590695",
          "tgn:1000004",
          "tgn:7000198",
          "tgn:7000799",
          "tgn:7029392"
        ],
        "placetype": [
          "aat:300008347"
        ],
        "name:en": "Trutti Hāji",
        "id": 7590695
      }
    },
    {
      "geometry": {
        "type": "Point",
        "coordinates": [
          73.827208,
          34.383824
        ]
      },
      "type": "Feature",
      "properties": {
        "hierarchy": [
          "tgn:7590696",
          "tgn:1000004",
          "tgn:7000198",
          "tgn:7000799",
          "tgn:7029392"
        ],
        "placetype": [
          "aat:300008347"
        ],
        "name:en": "Treboni",
        "id": 7590696
      }
    },
    {
      "geometry": {
        "type": "Point",
        "coordinates": [
          73.921494,
          34.455169
        ]
      },
      "type": "Feature",
      "properties": {
        "hierarchy": [
          "tgn:7590697",
          "tgn:1000004",
          "tgn:7000198",
          "tgn:7000799",
          "tgn:7029392"
        ],
        "placetype": [
          "aat:300008347"
        ],
        "name:en": "Tilpatra",
        "id": 7590697
      }
    },
    {
      "geometry": {
        "type": "Point",
        "coordinates": [
          73.963889,
          34.309722
        ]
      },
      "type": "Feature",
      "properties": {
        "hierarchy": [
          "tgn:7590698",
          "tgn:1000004",
          "tgn:7000198",
          "tgn:7000799",
          "tgn:7029392"
        ],
        "placetype": [
          "aat:300008347"
        ],
        "name:en": "Thanda Pāni",
        "id": 7590698
      }
    },
    {
      "geometry": {
        "type": "Point",
        "coordinates": [
          73.9125,
          34.418056
        ]
      },
      "type": "Feature",
      "properties": {
        "hierarchy": [
          "tgn:7590699",
          "tgn:1000004",
          "tgn:7000198",
          "tgn:7000799",
          "tgn:7029392"
        ],
        "placetype": [
          "aat:300008347"
        ],
        "name:en": "Taratsar",
        "id": 7590699
      }
    }
  ]
}
