{
  "type": "FeatureCollection",
  "features": [
    {
      "geometry": {
        "type": "Point",
        "coordinates": [
          74.166921,
          28.717325
        ]
      },
      "type": "Feature",
      "properties": {
        "hierarchy": [
          "tgn:7563730",
          "tgn:1000004",
          "tgn:7000198",
          "tgn:7016788",
          "tgn:7029392"
        ],
        "placetype": [
          "aat:300008347"
        ],
        "name:en": "Bakhūsar",
        "id": 7563730
      }
    },
    {
      "geometry": {
        "type": "Point",
        "coordinates": [
          74.195196,
          28.739539
        ]
      },
      "type": "Feature",
      "properties": {
        "hierarchy": [
          "tgn:7563731",
          "tgn:1000004",
          "tgn:7000198",
          "tgn:7016788",
          "tgn:7029392"
        ],
        "placetype": [
          "aat:300008347"
        ],
        "name:en": "Bhātwāla",
        "id": 7563731
      }
    },
    {
      "geometry": {
        "type": "Point",
        "coordinates": [
          74.213695,
          28.785133
        ]
      },
      "type": "Feature",
      "properties": {
        "hierarchy": [
          "tgn:7563732",
          "tgn:1000004",
          "tgn:7000198",
          "tgn:7016788",
          "tgn:7029392"
        ],
        "placetype": [
          "aat:300008347"
        ],
        "name:en": "Rolāsar",
        "id": 7563732
      }
    },
    {
      "geometry": {
        "type": "Point",
        "coordinates": [
          74.243495,
          28.75515
        ]
      },
      "type": "Feature",
      "properties": {
        "hierarchy": [
          "tgn:7563733",
          "tgn:1000004",
          "tgn:7000198",
          "tgn:7016788",
          "tgn:7029392"
        ],
        "placetype": [
          "aat:300008347"
        ],
        "name:en": "Tolāsar",
        "id": 7563733
      }
    },
    {
      "geometry": {
        "type": "Point",
        "coordinates": [
          74.254379,
          28.754394
        ]
      },
      "type": "Feature",
      "properties": {
        "hierarchy": [
          "tgn:7563734",
          "tgn:1000004",
          "tgn:7000198",
          "tgn:7016788",
          "tgn:7029392"
        ],
        "placetype": [
          "aat:300008347"
        ],
        "name:en": "Dallusar",
        "id": 7563734
      }
    },
    {
      "geometry": {
        "type": "Point",
        "coordinates": [
          74.283333,
          28.716386
        ]
      },
      "type": "Feature",
      "properties": {
        "hierarchy": [
          "tgn:7563735",
          "tgn:1000004",
          "tgn:7000198",
          "tgn:7016788",
          "tgn:7029392"
        ],
        "placetype": [
          "aat:300008688"
        ],
        "name:en": "Jamāna Johra",
        "id": 7563735
      }
    },
    {
      "geometry": {
        "type": "Point",
        "coordinates": [
          74.328745,
          28.728242
        ]
      },
      "type": "Feature",
      "properties": {
        "hierarchy": [
          "tgn:7563736",
          "tgn:1000004",
          "tgn:7000198",
          "tgn:7016788",
          "tgn:7029392"
        ],
        "placetype": [
          "aat:300008688"
        ],
        "name:en": "Dālwāna Johra",
        "id": 7563736
      }
    },
    {
      "geometry": {
        "type": "Point",
        "coordinates": [
          74.29735,
          28.741578
        ]
      },
      "type": "Feature",
      "properties": {
        "hierarchy": [
          "tgn:7563737",
          "tgn:1000004",
          "tgn:7000198",
          "tgn:7016788",
          "tgn:7029392"
        ],
        "placetype": [
          "aat:300008688"
        ],
        "name:en": "Bokhāli Johri",
        "id": 7563737
      }
    },
    {
      "geometry": {
        "type": "Point",
        "coordinates": [
          79.781789,
          26.564411
        ]
      },
      "type": "Feature",
      "properties": {
        "hierarchy": [
          "tgn:7563738",
          "tgn:1000004",
          "tgn:7000198",
          "tgn:7016722",
          "tgn:7029392"
        ],
        "placetype": [
          "aat:300008347"
        ],
        "name:en": "Naya Purwa",
        "id": 7563738
      }
    },
    {
      "geometry": {
        "type": "Point",
        "coordinates": [
          79.771215,
          26.553587
        ]
      },
      "type": "Feature",
      "properties": {
        "hierarchy": [
          "tgn:7563739",
          "tgn:1000004",
          "tgn:7000198",
          "tgn:7016722",
          "tgn:7029392"
        ],
        "placetype": [
          "aat:300008347"
        ],
        "name:en": "Purwa Sundar",
        "id": 7563739
      }
    }
  ]
}
