{
  "type": "FeatureCollection",
  "features": [
    {
      "geometry": {
        "type": "Point",
        "coordinates": [
          79.9868,
          27.1579
        ]
      },
      "type": "Feature",
      "properties": {
        "hierarchy": [
          "tgn:7562030",
          "tgn:1000004",
          "tgn:7000198",
          "tgn:7016722",
          "tgn:7029392"
        ],
        "placetype": [
          "aat:300008347"
        ],
        "name:en": "Atarchha Buzurg",
        "id": 7562030
      }
    },
    {
      "geometry": {
        "type": "Point",
        "coordinates": [
          79.9947,
          27.1652
        ]
      },
      "type": "Feature",
      "properties": {
        "hierarchy": [
          "tgn:7562031",
          "tgn:1000004",
          "tgn:7000198",
          "tgn:7016722",
          "tgn:7029392"
        ],
        "placetype": [
          "aat:300008865"
        ],
        "name:en": "Chauharpur Reserved Forest",
        "id": 7562031
      }
    },
    {
      "geometry": {
        "type": "Point",
        "coordinates": [
          79.7821,
          27.2276
        ]
      },
      "type": "Feature",
      "properties": {
        "hierarchy": [
          "tgn:7562032",
          "tgn:1000004",
          "tgn:7000198",
          "tgn:7016722",
          "tgn:7029392"
        ],
        "placetype": [
          "aat:300008347"
        ],
        "name:en": "Khimal ki Marhaiyān",
        "id": 7562032
      }
    },
    {
      "geometry": {
        "type": "Point",
        "coordinates": [
          79.9977,
          27.1751
        ]
      },
      "type": "Feature",
      "properties": {
        "hierarchy": [
          "tgn:7562033",
          "tgn:1000004",
          "tgn:7000198",
          "tgn:7016722",
          "tgn:7029392"
        ],
        "placetype": [
          "aat:300008347"
        ],
        "name:en": "Bhadāh",
        "id": 7562033
      }
    },
    {
      "geometry": {
        "type": "Point",
        "coordinates": [
          79.9786,
          27.1675
        ]
      },
      "type": "Feature",
      "properties": {
        "hierarchy": [
          "tgn:7562034",
          "tgn:1000004",
          "tgn:7000198",
          "tgn:7016722",
          "tgn:7029392"
        ],
        "placetype": [
          "aat:300008347"
        ],
        "name:en": "Birni",
        "id": 7562034
      }
    },
    {
      "geometry": {
        "type": "Point",
        "coordinates": [
          79.9694,
          27.1724
        ]
      },
      "type": "Feature",
      "properties": {
        "hierarchy": [
          "tgn:7562035",
          "tgn:1000004",
          "tgn:7000198",
          "tgn:7016722",
          "tgn:7029392"
        ],
        "placetype": [
          "aat:300008347"
        ],
        "name:en": "Karīmāpur",
        "id": 7562035
      }
    },
    {
      "geometry": {
        "type": "Point",
        "coordinates": [
          79.9587,
          27.1785
        ]
      },
      "type": "Feature",
      "properties": {
        "hierarchy": [
          "tgn:7562036",
          "tgn:1000004",
          "tgn:7000198",
          "tgn:7016722",
          "tgn:7029392"
        ],
        "placetype": [
          "aat:300008347"
        ],
        "name:en": "Bhogaitāpur",
        "id": 7562036
      }
    },
    {
      "geometry": {
        "type": "Point",
        "coordinates": [
          79.9422,
          27.1671
        ]
      },
      "type": "Feature",
      "properties": {
        "hierarchy": [
          "tgn:7562037",
          "tgn:1000004",
          "tgn:7000198",
          "tgn:7016722",
          "tgn:7029392"
        ],
        "placetype": [
          "aat:300008347"
        ],
        "name:en": "Bhuddha",
        "id": 7562037
      }
    },
    {
      "geometry": {
        "type": "Point",
        "coordinates": [
          79.9366,
          27.1696
        ]
      },
      "type": "Feature",
      "properties": {
        "hierarchy": [
          "tgn:7562038",
          "tgn:1000004",
          "tgn:7000198",
          "tgn:7016722",
          "tgn:7029392"
        ],
        "placetype": [
          "aat:300008347"
        ],
        "name:en": "Rāmpur Majhiāra",
        "id": 7562038
      }
    },
    {
      "geometry": {
        "type": "Point",
        "coordinates": [
          79.32514,
          27.056989
        ]
      },
      "type": "Feature",
      "properties": {
        "hierarchy": [
          "tgn:7562039",
          "tgn:1000004",
          "tgn:7000198",
          "tgn:7016722",
          "tgn:7029392"
        ],
        "placetype": [
          "aat:300008347"
        ],
        "name:en": "Sabhāpur",
        "id": 7562039
      }
    }
  ]
}
