{
  "type": "FeatureCollection",
  "features": [
    {
      "geometry": {
        "type": "Point",
        "coordinates": [
          121.210833,
          23.279167
        ]
      },
      "type": "Feature",
      "properties": {
        "hierarchy": [
          "tgn:7489182",
          "tgn:7001010",
          "tgn:1000004",
          "tgn:1000141",
          "tgn:7029392"
        ],
        "placetype": [
          "aat:300132356"
        ],
        "id": 7489182,
        "name:xx": "Yiku"
      }
    },
    {
      "geometry": {
        "type": "Point",
        "coordinates": [
          121.675023,
          25.014988
        ]
      },
      "type": "Feature",
      "properties": {
        "hierarchy": [
          "tgn:7489183",
          "tgn:1000004",
          "tgn:1000454",
          "tgn:1000141",
          "tgn:7029392"
        ],
        "placetype": [
          "aat:300008347"
        ],
        "id": 7489183,
        "name:xx": "Yikeng"
      }
    },
    {
      "geometry": {
        "type": "Point",
        "coordinates": [
          121.414459,
          23.844771
        ]
      },
      "type": "Feature",
      "properties": {
        "hierarchy": [
          "tgn:7489184",
          "tgn:7001010",
          "tgn:1000004",
          "tgn:1000141",
          "tgn:7029392"
        ],
        "placetype": [
          "aat:300008699"
        ],
        "id": 7489184,
        "name:xx": "Yikan Xi"
      }
    },
    {
      "geometry": {
        "type": "Point",
        "coordinates": [
          120.55,
          24.278056
        ]
      },
      "type": "Feature",
      "properties": {
        "hierarchy": [
          "tgn:7489185",
          "tgn:1000004",
          "tgn:7001009",
          "tgn:1000141",
          "tgn:7029392"
        ],
        "placetype": [
          "aat:300008347"
        ],
        "id": 7489185,
        "name:xx": "Dakanglang"
      }
    },
    {
      "geometry": {
        "type": "Point",
        "coordinates": [
          120.528839,
          23.443941
        ]
      },
      "type": "Feature",
      "properties": {
        "hierarchy": [
          "tgn:7489186",
          "tgn:7468018",
          "tgn:1000004",
          "tgn:1000141",
          "tgn:7029392"
        ],
        "placetype": [
          "aat:300008347"
        ],
        "id": 7489186,
        "name:xx": "Wazicuo"
      }
    },
    {
      "geometry": {
        "type": "Point",
        "coordinates": [
          120.507567,
          23.503999
        ]
      },
      "type": "Feature",
      "properties": {
        "hierarchy": [
          "tgn:7489187",
          "tgn:7468018",
          "tgn:1000004",
          "tgn:1000141",
          "tgn:7029392"
        ],
        "placetype": [
          "aat:300387173"
        ],
        "id": 7489187,
        "name:xx": "Yiren Cun"
      }
    },
    {
      "geometry": {
        "type": "Point",
        "coordinates": [
          120.407697,
          22.543805
        ]
      },
      "type": "Feature",
      "properties": {
        "hierarchy": [
          "tgn:7489189",
          "tgn:7001004",
          "tgn:1000004",
          "tgn:1000141",
          "tgn:7029392"
        ],
        "placetype": [
          "aat:300008347"
        ],
        "id": 7489189,
        "name:xx": "Yirencun"
      }
    }
  ]
}
