{
  "type": "FeatureCollection",
  "features": [
    {
      "geometry": {
        "type": "Point",
        "coordinates": [
          78.71721,
          29.904093
        ]
      },
      "type": "Feature",
      "properties": {
        "hierarchy": [
          "tgn:7570260",
          "tgn:1000004",
          "tgn:7000198",
          "tgn:7031786",
          "tgn:7029392"
        ],
        "placetype": [
          "aat:300008347"
        ],
        "name:en": "Gairgaon",
        "id": 7570260
      }
    },
    {
      "geometry": {
        "type": "Point",
        "coordinates": [
          78.695293,
          29.902888
        ]
      },
      "type": "Feature",
      "properties": {
        "hierarchy": [
          "tgn:7570261",
          "tgn:1000004",
          "tgn:7000198",
          "tgn:7031786",
          "tgn:7029392"
        ],
        "placetype": [
          "aat:300008347"
        ],
        "name:en": "Raitpur",
        "id": 7570261
      }
    },
    {
      "geometry": {
        "type": "Point",
        "coordinates": [
          78.675937,
          29.905092
        ]
      },
      "type": "Feature",
      "properties": {
        "hierarchy": [
          "tgn:7570262",
          "tgn:1000004",
          "tgn:7000198",
          "tgn:7031786",
          "tgn:7029392"
        ],
        "placetype": [
          "aat:300008347"
        ],
        "name:en": "Garh",
        "id": 7570262
      }
    },
    {
      "geometry": {
        "type": "Point",
        "coordinates": [
          78.672459,
          29.903143
        ]
      },
      "type": "Feature",
      "properties": {
        "hierarchy": [
          "tgn:7570263",
          "tgn:1000004",
          "tgn:7000198",
          "tgn:7031786",
          "tgn:7029392"
        ],
        "placetype": [
          "aat:300008347"
        ],
        "name:en": "Kotalmanda",
        "id": 7570263
      }
    },
    {
      "geometry": {
        "type": "Point",
        "coordinates": [
          78.649515,
          29.907242
        ]
      },
      "type": "Feature",
      "properties": {
        "hierarchy": [
          "tgn:7570264",
          "tgn:1000004",
          "tgn:7000198",
          "tgn:7031786",
          "tgn:7029392"
        ],
        "placetype": [
          "aat:300008347"
        ],
        "name:en": "Shimalya",
        "id": 7570264
      }
    },
    {
      "geometry": {
        "type": "Point",
        "coordinates": [
          78.640804,
          29.899998
        ]
      },
      "type": "Feature",
      "properties": {
        "hierarchy": [
          "tgn:7570265",
          "tgn:1000004",
          "tgn:7000198",
          "tgn:7031786",
          "tgn:7029392"
        ],
        "placetype": [
          "aat:300008347"
        ],
        "name:en": "Langūri",
        "id": 7570265
      }
    },
    {
      "geometry": {
        "type": "Point",
        "coordinates": [
          78.635576,
          29.905317
        ]
      },
      "type": "Feature",
      "properties": {
        "hierarchy": [
          "tgn:7570266",
          "tgn:1000004",
          "tgn:7000198",
          "tgn:7031786",
          "tgn:7029392"
        ],
        "placetype": [
          "aat:300008347"
        ],
        "name:en": "Dābar",
        "id": 7570266
      }
    },
    {
      "geometry": {
        "type": "Point",
        "coordinates": [
          80.224722,
          13.021111
        ]
      },
      "type": "Feature",
      "properties": {
        "hierarchy": [
          "tgn:7570267",
          "tgn:1000004",
          "tgn:7000198",
          "tgn:7001797",
          "tgn:7029392"
        ],
        "placetype": [
          "aat:300007783"
        ],
        "name:en": "Saidapet",
        "id": 7570267
      }
    },
    {
      "geometry": {
        "type": "Point",
        "coordinates": [
          80.226111,
          13.015833
        ]
      },
      "type": "Feature",
      "properties": {
        "hierarchy": [
          "tgn:7570268",
          "tgn:1000004",
          "tgn:7000198",
          "tgn:7001797",
          "tgn:7029392"
        ],
        "placetype": [
          "aat:300007836"
        ],
        "name:en": "Marmalang Bridge",
        "id": 7570268
      }
    },
    {
      "geometry": {
        "type": "Point",
        "coordinates": [
          80.229722,
          12.998056
        ]
      },
      "type": "Feature",
      "properties": {
        "hierarchy": [
          "tgn:7570269",
          "tgn:1000004",
          "tgn:7000198",
          "tgn:7001797",
          "tgn:7029392"
        ],
        "placetype": [
          "aat:300008187"
        ],
        "name:en": "Guindy National Park",
        "id": 7570269
      }
    }
  ]
}
