{
  "type": "FeatureCollection",
  "features": [
    {
      "geometry": {
        "type": "Point",
        "coordinates": [
          -114.283889,
          27.171944
        ]
      },
      "type": "Feature",
      "properties": {
        "hierarchy": [
          "tgn:7421530",
          "tgn:1001836",
          "tgn:1000001",
          "tgn:7005560",
          "tgn:7029392"
        ],
        "placetype": [
          "aat:300008347"
        ],
        "id": 7421530,
        "name:xx": "El Pocito"
      }
    },
    {
      "geometry": {
        "type": "Point",
        "coordinates": [
          -114.296667,
          27.140556
        ]
      },
      "type": "Feature",
      "properties": {
        "hierarchy": [
          "tgn:7421531",
          "tgn:1001836",
          "tgn:1000001",
          "tgn:7005560",
          "tgn:7029392"
        ],
        "placetype": [
          "aat:300008347"
        ],
        "id": 7421531,
        "name:xx": "Bahía Asunción"
      }
    },
    {
      "geometry": {
        "type": "Point",
        "coordinates": [
          -114.375,
          27.296667
        ]
      },
      "type": "Feature",
      "properties": {
        "hierarchy": [
          "tgn:7421532",
          "tgn:1001836",
          "tgn:1000001",
          "tgn:7005560",
          "tgn:7029392"
        ],
        "placetype": [
          "aat:300008795"
        ],
        "id": 7421532,
        "name:xx": "El Elefante, Cerro"
      }
    },
    {
      "geometry": {
        "type": "Point",
        "coordinates": [
          -114.375,
          27.343611
        ]
      },
      "type": "Feature",
      "properties": {
        "hierarchy": [
          "tgn:7421533",
          "tgn:1001836",
          "tgn:1000001",
          "tgn:7005560",
          "tgn:7029392"
        ],
        "placetype": [
          "aat:300266554",
          "aat:300008699"
        ],
        "id": 7421533,
        "name:xx": "El Coyote, Arroyo"
      }
    },
    {
      "geometry": {
        "type": "Point",
        "coordinates": [
          -114.375,
          27.593611
        ]
      },
      "type": "Feature",
      "properties": {
        "hierarchy": [
          "tgn:7421534",
          "tgn:1001836",
          "tgn:1000001",
          "tgn:7005560",
          "tgn:7029392"
        ],
        "placetype": [
          "aat:300266554",
          "aat:300008699"
        ],
        "id": 7421534,
        "name:xx": "La Magnesita, Arroyo"
      }
    },
    {
      "geometry": {
        "type": "Point",
        "coordinates": [
          -114.406111,
          27.656111
        ]
      },
      "type": "Feature",
      "properties": {
        "hierarchy": [
          "tgn:7421535",
          "tgn:1001836",
          "tgn:1000001",
          "tgn:7005560",
          "tgn:7029392"
        ],
        "placetype": [
          "aat:300266554",
          "aat:300008699"
        ],
        "id": 7421535,
        "name:xx": "San José, Arroyo"
      }
    },
    {
      "geometry": {
        "type": "Point",
        "coordinates": [
          -102.745833,
          21.795833
        ]
      },
      "type": "Feature",
      "properties": {
        "hierarchy": [
          "tgn:7421536",
          "tgn:7005579",
          "tgn:1000001",
          "tgn:7005560",
          "tgn:7029392"
        ],
        "placetype": [
          "aat:300008347"
        ],
        "id": 7421536,
        "name:xx": "La Calera"
      }
    },
    {
      "geometry": {
        "type": "Point",
        "coordinates": [
          -102.747222,
          21.8875
        ]
      },
      "type": "Feature",
      "properties": {
        "hierarchy": [
          "tgn:7421537",
          "tgn:7005579",
          "tgn:1000001",
          "tgn:7005560",
          "tgn:7029392"
        ],
        "placetype": [
          "aat:300008347"
        ],
        "id": 7421537,
        "name:xx": "Peña Blanca"
      }
    },
    {
      "geometry": {
        "type": "Point",
        "coordinates": [
          -102.747222,
          21.768056
        ]
      },
      "type": "Feature",
      "properties": {
        "hierarchy": [
          "tgn:7421538",
          "tgn:7005579",
          "tgn:1000001",
          "tgn:7005560",
          "tgn:7029392"
        ],
        "placetype": [
          "aat:300008347"
        ],
        "id": 7421538,
        "name:xx": "Barranca del Roble"
      }
    },
    {
      "geometry": {
        "type": "Point",
        "coordinates": [
          -102.748611,
          21.866667
        ]
      },
      "type": "Feature",
      "properties": {
        "hierarchy": [
          "tgn:7421539",
          "tgn:7005579",
          "tgn:1000001",
          "tgn:7005560",
          "tgn:7029392"
        ],
        "placetype": [
          "aat:300008347"
        ],
        "id": 7421539,
        "name:xx": "El Rodeo"
      }
    }
  ]
}
