{
  "type": "FeatureCollection",
  "features": [
    {
      "geometry": {
        "type": "Point",
        "coordinates": [
          120.451049,
          23.770905
        ]
      },
      "type": "Feature",
      "properties": {
        "hierarchy": [
          "tgn:7473630",
          "tgn:1000004",
          "tgn:7001014",
          "tgn:1000141",
          "tgn:7029392"
        ],
        "placetype": [
          "aat:300008347"
        ],
        "id": 7473630,
        "name:xx": "Dingnan"
      }
    },
    {
      "geometry": {
        "type": "Point",
        "coordinates": [
          120.380662,
          22.502056
        ]
      },
      "type": "Feature",
      "properties": {
        "hierarchy": [
          "tgn:7473631",
          "tgn:7001004",
          "tgn:1000004",
          "tgn:1000141",
          "tgn:7029392"
        ],
        "placetype": [
          "aat:300008347"
        ],
        "id": 7473631,
        "name:xx": "Dingcuo"
      }
    },
    {
      "geometry": {
        "type": "Point",
        "coordinates": [
          120.473025,
          23.768451
        ]
      },
      "type": "Feature",
      "properties": {
        "hierarchy": [
          "tgn:7473632",
          "tgn:1000004",
          "tgn:7467799",
          "tgn:1000141",
          "tgn:7029392"
        ],
        "placetype": [
          "aat:300008347"
        ],
        "id": 7473632,
        "name:xx": "Dinglunzi"
      }
    },
    {
      "geometry": {
        "type": "Point",
        "coordinates": [
          120.6873,
          24.086
        ]
      },
      "type": "Feature",
      "properties": {
        "hierarchy": [
          "tgn:7473634",
          "tgn:1000004",
          "tgn:7001009",
          "tgn:1000141",
          "tgn:7029392"
        ],
        "placetype": [
          "aat:300008347"
        ],
        "id": 7473634,
        "name:xx": "Dinglun"
      }
    },
    {
      "geometry": {
        "type": "Point",
        "coordinates": [
          120.436773,
          23.567934
        ]
      },
      "type": "Feature",
      "properties": {
        "hierarchy": [
          "tgn:7473637",
          "tgn:7468018",
          "tgn:1000004",
          "tgn:1000141",
          "tgn:7029392"
        ],
        "placetype": [
          "aat:300008347"
        ],
        "id": 7473637,
        "name:xx": "Lunziding"
      }
    },
    {
      "geometry": {
        "type": "Point",
        "coordinates": [
          120.246944,
          23.625556
        ]
      },
      "type": "Feature",
      "properties": {
        "hierarchy": [
          "tgn:7473638",
          "tgn:1000004",
          "tgn:7001014",
          "tgn:1000141",
          "tgn:7029392"
        ],
        "placetype": [
          "aat:300008347"
        ],
        "id": 7473638,
        "name:xx": "Dingluchang"
      }
    },
    {
      "geometry": {
        "type": "Point",
        "coordinates": [
          121.611039,
          25.221724
        ]
      },
      "type": "Feature",
      "properties": {
        "hierarchy": [
          "tgn:7473639",
          "tgn:1000004",
          "tgn:1000454",
          "tgn:1000141",
          "tgn:7029392"
        ],
        "placetype": [
          "aat:300008347"
        ],
        "id": 7473639,
        "name:xx": "Dingliugu"
      }
    }
  ]
}
