{
  "type": "FeatureCollection",
  "features": [
    {
      "geometry": {
        "type": "Point",
        "coordinates": [
          -96.283333,
          18.370833
        ]
      },
      "type": "Feature",
      "properties": {
        "hierarchy": [
          "tgn:7400600",
          "tgn:1000001",
          "tgn:7005599",
          "tgn:7005560",
          "tgn:7029392"
        ],
        "placetype": [
          "aat:300008347"
        ],
        "id": 7400600,
        "name:xx": "Loma del Manantial"
      }
    },
    {
      "geometry": {
        "type": "Point",
        "coordinates": [
          -96.316667,
          18.416667
        ]
      },
      "type": "Feature",
      "properties": {
        "hierarchy": [
          "tgn:7400601",
          "tgn:1000001",
          "tgn:7005599",
          "tgn:7005560",
          "tgn:7029392"
        ],
        "placetype": [
          "aat:300007783"
        ],
        "id": 7400601,
        "name:xx": "Estaci贸n El Cien"
      }
    },
    {
      "geometry": {
        "type": "Point",
        "coordinates": [
          -96.291667,
          18.408333
        ]
      },
      "type": "Feature",
      "properties": {
        "hierarchy": [
          "tgn:7400602",
          "tgn:1000001",
          "tgn:7005599",
          "tgn:7005560",
          "tgn:7029392"
        ],
        "placetype": [
          "aat:300008347"
        ],
        "id": 7400602,
        "name:xx": "La Atalaya"
      }
    },
    {
      "geometry": {
        "type": "Point",
        "coordinates": [
          -96.373611,
          18.475
        ]
      },
      "type": "Feature",
      "properties": {
        "hierarchy": [
          "tgn:7400603",
          "tgn:1000001",
          "tgn:7005599",
          "tgn:7005560",
          "tgn:7029392"
        ],
        "placetype": [
          "aat:300007783"
        ],
        "id": 7400603,
        "name:xx": "Estaci贸n Chicalon"
      }
    },
    {
      "geometry": {
        "type": "Point",
        "coordinates": [
          -97.325,
          18.75
        ]
      },
      "type": "Feature",
      "properties": {
        "hierarchy": [
          "tgn:7400604",
          "tgn:1000001",
          "tgn:7005599",
          "tgn:7005560",
          "tgn:7029392"
        ],
        "placetype": [
          "aat:300008347"
        ],
        "id": 7400604,
        "name:xx": "Vistahermosa"
      }
    },
    {
      "geometry": {
        "type": "Point",
        "coordinates": [
          -97.258333,
          18.666667
        ]
      },
      "type": "Feature",
      "properties": {
        "hierarchy": [
          "tgn:7400605",
          "tgn:1000001",
          "tgn:7005599",
          "tgn:7005560",
          "tgn:7029392"
        ],
        "placetype": [
          "aat:300008347"
        ],
        "id": 7400605,
        "name:xx": "L贸pez Arias"
      }
    },
    {
      "geometry": {
        "type": "Point",
        "coordinates": [
          -97.325,
          18.683333
        ]
      },
      "type": "Feature",
      "properties": {
        "hierarchy": [
          "tgn:7400606",
          "tgn:1000001",
          "tgn:7005599",
          "tgn:7005560",
          "tgn:7029392"
        ],
        "placetype": [
          "aat:300008347"
        ],
        "id": 7400606,
        "name:xx": "El Sumidero"
      }
    },
    {
      "geometry": {
        "type": "Point",
        "coordinates": [
          -97.247222,
          18.683333
        ]
      },
      "type": "Feature",
      "properties": {
        "hierarchy": [
          "tgn:7400607",
          "tgn:1000001",
          "tgn:7005599",
          "tgn:7005560",
          "tgn:7029392"
        ],
        "placetype": [
          "aat:300008347"
        ],
        "id": 7400607,
        "name:xx": "El Potrero"
      }
    },
    {
      "geometry": {
        "type": "Point",
        "coordinates": [
          -97.25,
          18.716667
        ]
      },
      "type": "Feature",
      "properties": {
        "hierarchy": [
          "tgn:7400608",
          "tgn:1000001",
          "tgn:7005599",
          "tgn:7005560",
          "tgn:7029392"
        ],
        "placetype": [
          "aat:300008347"
        ],
        "id": 7400608,
        "name:xx": "Rinc贸n El Lobo"
      }
    },
    {
      "geometry": {
        "type": "Point",
        "coordinates": [
          -97.173611,
          18.683333
        ]
      },
      "type": "Feature",
      "properties": {
        "hierarchy": [
          "tgn:7400609",
          "tgn:1000001",
          "tgn:7005599",
          "tgn:7005560",
          "tgn:7029392"
        ],
        "placetype": [
          "aat:300008347"
        ],
        "id": 7400609,
        "name:xx": "Ahuacuitlapa"
      }
    }
  ]
}
