{
  "type": "FeatureCollection",
  "features": [
    {
      "geometry": {
        "type": "Point",
        "coordinates": [
          120.890633,
          24.475806
        ]
      },
      "type": "Feature",
      "properties": {
        "hierarchy": [
          "tgn:7496230",
          "tgn:7487020",
          "tgn:1000004",
          "tgn:1000141",
          "tgn:7029392"
        ],
        "placetype": [
          "aat:300006495"
        ],
        "id": 7496230,
        "name:xx": "Fenglin Guoxiao"
      }
    },
    {
      "geometry": {
        "type": "Point",
        "coordinates": [
          120.8653,
          24.4062
        ]
      },
      "type": "Feature",
      "properties": {
        "hierarchy": [
          "tgn:7496231",
          "tgn:7487020",
          "tgn:1000004",
          "tgn:1000141",
          "tgn:7029392"
        ],
        "placetype": [
          "aat:300007836"
        ],
        "id": 7496231,
        "name:xx": "Shuitouliao Qiao"
      }
    },
    {
      "geometry": {
        "type": "Point",
        "coordinates": [
          120.871344,
          24.439457
        ]
      },
      "type": "Feature",
      "properties": {
        "hierarchy": [
          "tgn:7496232",
          "tgn:7487020",
          "tgn:1000004",
          "tgn:1000141",
          "tgn:7029392"
        ],
        "placetype": [
          "aat:300008699"
        ],
        "id": 7496232,
        "name:xx": "Jiuliao Xi"
      }
    },
    {
      "geometry": {
        "type": "Point",
        "coordinates": [
          120.967659,
          24.27035
        ]
      },
      "type": "Feature",
      "properties": {
        "hierarchy": [
          "tgn:7496233",
          "tgn:1000004",
          "tgn:7001009",
          "tgn:1000141",
          "tgn:7029392"
        ],
        "placetype": [
          "aat:300008699"
        ],
        "id": 7496233,
        "name:xx": "Gan Xi"
      }
    },
    {
      "geometry": {
        "type": "Point",
        "coordinates": [
          120.970834,
          24.469484
        ]
      },
      "type": "Feature",
      "properties": {
        "hierarchy": [
          "tgn:7496234",
          "tgn:7487020",
          "tgn:1000004",
          "tgn:1000141",
          "tgn:7029392"
        ],
        "placetype": [
          "aat:300008699"
        ],
        "id": 7496234,
        "name:xx": "Ma'ao Xi"
      }
    },
    {
      "geometry": {
        "type": "Point",
        "coordinates": [
          120.300099,
          23.557924
        ]
      },
      "type": "Feature",
      "properties": {
        "hierarchy": [
          "tgn:7496235",
          "tgn:7468018",
          "tgn:1000004",
          "tgn:1000141",
          "tgn:7029392"
        ],
        "placetype": [
          "aat:300007836"
        ],
        "id": 7496235,
        "name:xx": "Sucuoliao Qiao"
      }
    },
    {
      "geometry": {
        "type": "Point",
        "coordinates": [
          120.284906,
          23.642196
        ]
      },
      "type": "Feature",
      "properties": {
        "hierarchy": [
          "tgn:7496236",
          "tgn:1000004",
          "tgn:7001014",
          "tgn:1000141",
          "tgn:7029392"
        ],
        "placetype": [
          "aat:300387033"
        ],
        "id": 7496236,
        "name:xx": "Tannei"
      }
    },
    {
      "geometry": {
        "type": "Point",
        "coordinates": [
          120.260651,
          23.697684
        ]
      },
      "type": "Feature",
      "properties": {
        "hierarchy": [
          "tgn:7496238",
          "tgn:1000004",
          "tgn:7001014",
          "tgn:1000141",
          "tgn:7029392"
        ],
        "placetype": [
          "aat:300387033"
        ],
        "id": 7496238,
        "name:xx": "Changnan"
      }
    },
    {
      "geometry": {
        "type": "Point",
        "coordinates": [
          120.364103,
          23.564505
        ]
      },
      "type": "Feature",
      "properties": {
        "hierarchy": [
          "tgn:7496239",
          "tgn:7468018",
          "tgn:1000004",
          "tgn:1000141",
          "tgn:7029392"
        ],
        "placetype": [
          "aat:300387033"
        ],
        "id": 7496239,
        "name:xx": "Tandizi"
      }
    }
  ]
}
