{
  "type": "FeatureCollection",
  "features": [
    {
      "geometry": {
        "type": "Point",
        "coordinates": [
          71.95,
          21.683333
        ]
      },
      "type": "Feature",
      "properties": {
        "hierarchy": [
          "tgn:7551560",
          "tgn:1000004",
          "tgn:1001869",
          "tgn:7000198",
          "tgn:7029392"
        ],
        "placetype": [
          "aat:300008347"
        ],
        "name:en": "Dātha",
        "id": 7551560
      }
    },
    {
      "geometry": {
        "type": "Point",
        "coordinates": [
          75.621041,
          29.890613
        ]
      },
      "type": "Feature",
      "properties": {
        "hierarchy": [
          "tgn:7551561",
          "tgn:1000004",
          "tgn:7000198",
          "tgn:7016883",
          "tgn:7029392"
        ],
        "placetype": [
          "aat:300007783"
        ],
        "name:en": "Dātewas",
        "id": 7551561
      }
    },
    {
      "geometry": {
        "type": "Point",
        "coordinates": [
          75.805493,
          31.936811
        ]
      },
      "type": "Feature",
      "properties": {
        "hierarchy": [
          "tgn:7551562",
          "tgn:1000004",
          "tgn:7000198",
          "tgn:7016883",
          "tgn:7029392"
        ],
        "placetype": [
          "aat:300008347"
        ],
        "name:en": "Datārpur Rakri",
        "id": 7551562
      }
    },
    {
      "geometry": {
        "type": "Point",
        "coordinates": [
          82.115021,
          21.536673
        ]
      },
      "type": "Feature",
      "properties": {
        "hierarchy": [
          "tgn:7551563",
          "tgn:1000004",
          "tgn:7031781",
          "tgn:7000198",
          "tgn:7029392"
        ],
        "placetype": [
          "aat:300008347"
        ],
        "name:en": "Datān",
        "id": 7551563
      }
    },
    {
      "geometry": {
        "type": "Point",
        "coordinates": [
          79.405277,
          28.025204
        ]
      },
      "type": "Feature",
      "properties": {
        "hierarchy": [
          "tgn:7551564",
          "tgn:1000004",
          "tgn:7000198",
          "tgn:7016722",
          "tgn:7029392"
        ],
        "placetype": [
          "aat:300008347"
        ],
        "name:en": "Dātāganj",
        "id": 7551564
      }
    },
    {
      "geometry": {
        "type": "Point",
        "coordinates": [
          86.451635,
          20.831878
        ]
      },
      "type": "Feature",
      "properties": {
        "hierarchy": [
          "tgn:7551566",
          "tgn:1000004",
          "tgn:7000198",
          "tgn:7016694",
          "tgn:7029392"
        ],
        "placetype": [
          "aat:300008347"
        ],
        "name:en": "Dasrathpur",
        "id": 7551566
      }
    },
    {
      "geometry": {
        "type": "Point",
        "coordinates": [
          81.366667,
          21.883333
        ]
      },
      "type": "Feature",
      "properties": {
        "hierarchy": [
          "tgn:7551567",
          "tgn:1000004",
          "tgn:7031781",
          "tgn:7000198",
          "tgn:7029392"
        ],
        "placetype": [
          "aat:300008347"
        ],
        "name:en": "Dasrangpur",
        "id": 7551567
      }
    },
    {
      "geometry": {
        "type": "Point",
        "coordinates": [
          87.723314,
          22.606909
        ]
      },
      "type": "Feature",
      "properties": {
        "hierarchy": [
          "tgn:7551568",
          "tgn:1000004",
          "tgn:7000198",
          "tgn:1001977",
          "tgn:7029392"
        ],
        "placetype": [
          "aat:300008347"
        ],
        "name:en": "Dāspur",
        "id": 7551568
      }
    },
    {
      "geometry": {
        "type": "Point",
        "coordinates": [
          82.866667,
          19.966667
        ]
      },
      "type": "Feature",
      "properties": {
        "hierarchy": [
          "tgn:7551569",
          "tgn:1000004",
          "tgn:7031781",
          "tgn:7000198",
          "tgn:7029392"
        ],
        "placetype": [
          "aat:300008347"
        ],
        "name:en": "Dāspur",
        "id": 7551569
      }
    }
  ]
}
