{
  "type": "FeatureCollection",
  "features": [
    {
      "geometry": {
        "type": "Point",
        "coordinates": [
          28.616667,
          30.75
        ]
      },
      "type": "Feature",
      "properties": {
        "hierarchy": [
          "tgn:7537240",
          "tgn:7001242",
          "tgn:7016833",
          "tgn:1001418",
          "tgn:7029392"
        ],
        "placetype": [
          "aat:300132353"
        ],
        "name:en": "Mirbāţ Kāmilī",
        "id": 7537240
      }
    },
    {
      "geometry": {
        "type": "Point",
        "coordinates": [
          29.25,
          30.45
        ]
      },
      "type": "Feature",
      "properties": {
        "hierarchy": [
          "tgn:7537241",
          "tgn:7001242",
          "tgn:7016833",
          "tgn:1001418",
          "tgn:7029392"
        ],
        "placetype": [
          "aat:300055621"
        ],
        "name:en": "Mirbat el-Yidmih",
        "id": 7537241
      }
    },
    {
      "geometry": {
        "type": "Point",
        "coordinates": [
          29.033333,
          30.55
        ]
      },
      "type": "Feature",
      "properties": {
        "hierarchy": [
          "tgn:7537242",
          "tgn:7001242",
          "tgn:7016833",
          "tgn:1001418",
          "tgn:7029392"
        ],
        "placetype": [
          "aat:300055621"
        ],
        "name:en": "Mirbâṭ 'Aza",
        "id": 7537242
      }
    },
    {
      "geometry": {
        "type": "Point",
        "coordinates": [
          31.75,
          30.966667
        ]
      },
      "type": "Feature",
      "properties": {
        "hierarchy": [
          "tgn:7537243",
          "tgn:7001242",
          "tgn:7016833",
          "tgn:1001113",
          "tgn:7029392"
        ],
        "placetype": [
          "aat:300008777"
        ],
        "name:en": "Miranjū, Tall",
        "id": 7537243
      }
    },
    {
      "geometry": {
        "type": "Point",
        "coordinates": [
          34.29778,
          28.568044
        ]
      },
      "type": "Feature",
      "properties": {
        "hierarchy": [
          "tgn:7537244",
          "tgn:7001242",
          "tgn:7016833",
          "tgn:7001336",
          "tgn:7029392"
        ],
        "placetype": [
          "aat:300379998"
        ],
        "name:en": "Mīr, Wādī",
        "id": 7537244
      }
    },
    {
      "geometry": {
        "type": "Point",
        "coordinates": [
          33.613316,
          28.340845
        ]
      },
      "type": "Feature",
      "properties": {
        "hierarchy": [
          "tgn:7537245",
          "tgn:7001242",
          "tgn:7016833",
          "tgn:7001336",
          "tgn:7029392"
        ],
        "placetype": [
          "aat:300379998"
        ],
        "name:en": "Mab'ar, Wādī",
        "id": 7537245
      }
    },
    {
      "geometry": {
        "type": "Point",
        "coordinates": [
          34.241239,
          28.582943
        ]
      },
      "type": "Feature",
      "properties": {
        "hierarchy": [
          "tgn:7537246",
          "tgn:7001242",
          "tgn:7016833",
          "tgn:7001336",
          "tgn:7029392"
        ],
        "placetype": [
          "aat:300008795"
        ],
        "name:en": "Mīr, Jabal",
        "id": 7537246
      }
    },
    {
      "geometry": {
        "type": "Point",
        "coordinates": [
          33.690911,
          28.439796
        ]
      },
      "type": "Feature",
      "properties": {
        "hierarchy": [
          "tgn:7537247",
          "tgn:7001242",
          "tgn:7016833",
          "tgn:7001336",
          "tgn:7029392"
        ],
        "placetype": [
          "aat:300386961",
          "aat:300006207"
        ],
        "name:en": "Bi'r Mab'ar",
        "id": 7537247
      }
    },
    {
      "geometry": {
        "type": "Point",
        "coordinates": [
          34.17098,
          30.144599
        ]
      },
      "type": "Feature",
      "properties": {
        "hierarchy": [
          "tgn:7537248",
          "tgn:7001242",
          "tgn:7016833",
          "tgn:7001335",
          "tgn:7029392"
        ],
        "placetype": [
          "aat:300379998"
        ],
        "id": 7537248,
        "name:xx": "Shemia, Wadi el"
      }
    },
    {
      "geometry": {
        "type": "Point",
        "coordinates": [
          30.25,
          30.666667
        ]
      },
      "type": "Feature",
      "properties": {
        "hierarchy": [
          "tgn:7537249",
          "tgn:7001242",
          "tgn:1001075",
          "tgn:7016833",
          "tgn:7029392"
        ],
        "placetype": [
          "aat:300008777"
        ],
        "name:en": "Shāmikh, Tallāt",
        "id": 7537249
      }
    }
  ]
}
