{
  "type": "FeatureCollection",
  "features": [
    {
      "geometry": {
        "type": "Point",
        "coordinates": [
          88.445833,
          22.638611
        ]
      },
      "type": "Feature",
      "properties": {
        "hierarchy": [
          "tgn:7586351",
          "tgn:1000004",
          "tgn:7000198",
          "tgn:1001977",
          "tgn:7029392"
        ],
        "placetype": [
          "aat:300008347"
        ],
        "name:en": "Salua",
        "id": 7586351
      }
    },
    {
      "geometry": {
        "type": "Point",
        "coordinates": [
          88.471944,
          22.643333
        ]
      },
      "type": "Feature",
      "properties": {
        "hierarchy": [
          "tgn:7586352",
          "tgn:1000004",
          "tgn:7000198",
          "tgn:1001977",
          "tgn:7029392"
        ],
        "placetype": [
          "aat:300008347"
        ],
        "name:en": "Jojera",
        "id": 7586352
      }
    },
    {
      "geometry": {
        "type": "Point",
        "coordinates": [
          88.460833,
          22.650833
        ]
      },
      "type": "Feature",
      "properties": {
        "hierarchy": [
          "tgn:7586353",
          "tgn:1000004",
          "tgn:7000198",
          "tgn:1001977",
          "tgn:7029392"
        ],
        "placetype": [
          "aat:300008347"
        ],
        "name:en": "Kedihāti",
        "id": 7586353
      }
    },
    {
      "geometry": {
        "type": "Point",
        "coordinates": [
          88.4875,
          22.6575
        ]
      },
      "type": "Feature",
      "properties": {
        "hierarchy": [
          "tgn:7586354",
          "tgn:1000004",
          "tgn:7000198",
          "tgn:1001977",
          "tgn:7029392"
        ],
        "placetype": [
          "aat:300008347"
        ],
        "name:en": "Rohand",
        "id": 7586354
      }
    },
    {
      "geometry": {
        "type": "Point",
        "coordinates": [
          88.488333,
          22.670833
        ]
      },
      "type": "Feature",
      "properties": {
        "hierarchy": [
          "tgn:7586355",
          "tgn:1000004",
          "tgn:7000198",
          "tgn:1001977",
          "tgn:7029392"
        ],
        "placetype": [
          "aat:300008347"
        ],
        "name:en": "Bānspul",
        "id": 7586355
      }
    },
    {
      "geometry": {
        "type": "Point",
        "coordinates": [
          88.469444,
          22.672778
        ]
      },
      "type": "Feature",
      "properties": {
        "hierarchy": [
          "tgn:7586356",
          "tgn:1000004",
          "tgn:7000198",
          "tgn:1001977",
          "tgn:7029392"
        ],
        "placetype": [
          "aat:300008347"
        ],
        "name:en": "Napara",
        "id": 7586356
      }
    },
    {
      "geometry": {
        "type": "Point",
        "coordinates": [
          88.462397,
          22.681177
        ]
      },
      "type": "Feature",
      "properties": {
        "hierarchy": [
          "tgn:7586357",
          "tgn:1000004",
          "tgn:7000198",
          "tgn:1001977",
          "tgn:7029392"
        ],
        "placetype": [
          "aat:300008347"
        ],
        "name:en": "Dohāri",
        "id": 7586357
      }
    },
    {
      "geometry": {
        "type": "Point",
        "coordinates": [
          88.348611,
          22.632222
        ]
      },
      "type": "Feature",
      "properties": {
        "hierarchy": [
          "tgn:7586358",
          "tgn:1000004",
          "tgn:7000198",
          "tgn:1001977",
          "tgn:7029392"
        ],
        "placetype": [
          "aat:300008347"
        ],
        "name:en": "Chakapara",
        "id": 7586358
      }
    }
  ]
}
