{
  "type": "FeatureCollection",
  "features": [
    {
      "geometry": {
        "type": "Point",
        "coordinates": [
          120.3539,
          22.5165
        ]
      },
      "type": "Feature",
      "properties": {
        "hierarchy": [
          "tgn:7471180",
          "tgn:7001004",
          "tgn:1000004",
          "tgn:1000141",
          "tgn:7029392"
        ],
        "placetype": [
          "aat:300008347"
        ],
        "id": 7471180,
        "name:xx": "Fangkengzi"
      }
    },
    {
      "geometry": {
        "type": "Point",
        "coordinates": [
          120.607495,
          24.021754
        ]
      },
      "type": "Feature",
      "properties": {
        "hierarchy": [
          "tgn:7471181",
          "tgn:1000004",
          "tgn:7467799",
          "tgn:1000141",
          "tgn:7029392"
        ],
        "placetype": [
          "aat:300387173"
        ],
        "id": 7471181,
        "name:xx": "Fengkeng Cun"
      }
    },
    {
      "geometry": {
        "type": "Point",
        "coordinates": [
          121.912647,
          25.019581
        ]
      },
      "type": "Feature",
      "properties": {
        "hierarchy": [
          "tgn:7471182",
          "tgn:1000004",
          "tgn:1000454",
          "tgn:1000141",
          "tgn:7029392"
        ],
        "placetype": [
          "aat:300008699"
        ],
        "id": 7471182,
        "name:xx": "Fangjiao Xi"
      }
    },
    {
      "geometry": {
        "type": "Point",
        "coordinates": [
          121.890307,
          25.006574
        ]
      },
      "type": "Feature",
      "properties": {
        "hierarchy": [
          "tgn:7471183",
          "tgn:1000004",
          "tgn:1000454",
          "tgn:1000141",
          "tgn:7029392"
        ],
        "placetype": [
          "aat:300008347"
        ],
        "id": 7471183,
        "name:xx": "Fangjiao"
      }
    },
    {
      "geometry": {
        "type": "Point",
        "coordinates": [
          120.582437,
          23.916918
        ]
      },
      "type": "Feature",
      "properties": {
        "hierarchy": [
          "tgn:7471184",
          "tgn:1000004",
          "tgn:7467799",
          "tgn:1000141",
          "tgn:7029392"
        ],
        "placetype": [
          "aat:300008347"
        ],
        "id": 7471184,
        "name:xx": "Qiaotou"
      }
    },
    {
      "geometry": {
        "type": "Point",
        "coordinates": [
          120.891677,
          24.565231
        ]
      },
      "type": "Feature",
      "properties": {
        "hierarchy": [
          "tgn:7471185",
          "tgn:7487020",
          "tgn:1000004",
          "tgn:1000141",
          "tgn:7029392"
        ],
        "placetype": [
          "aat:300008347"
        ],
        "id": 7471185,
        "name:xx": "Fangliaokeng"
      }
    },
    {
      "geometry": {
        "type": "Point",
        "coordinates": [
          120.838253,
          24.235553
        ]
      },
      "type": "Feature",
      "properties": {
        "hierarchy": [
          "tgn:7471186",
          "tgn:1000004",
          "tgn:7001009",
          "tgn:1000141",
          "tgn:7029392"
        ],
        "placetype": [
          "aat:300008347"
        ],
        "id": 7471186,
        "name:xx": "Fanshe"
      }
    },
    {
      "geometry": {
        "type": "Point",
        "coordinates": [
          121.526015,
          24.613343
        ]
      },
      "type": "Feature",
      "properties": {
        "hierarchy": [
          "tgn:7471187",
          "tgn:1000004",
          "tgn:7489179",
          "tgn:1000141",
          "tgn:7029392"
        ],
        "placetype": [
          "aat:300008347"
        ],
        "id": 7471187,
        "name:xx": "Pengpeng"
      }
    },
    {
      "geometry": {
        "type": "Point",
        "coordinates": [
          121.509167,
          22.634444
        ]
      },
      "type": "Feature",
      "properties": {
        "hierarchy": [
          "tgn:7471188",
          "tgn:1000004",
          "tgn:7491221",
          "tgn:1000141",
          "tgn:7029392"
        ],
        "placetype": [
          "aat:300386846"
        ],
        "id": 7471188,
        "name:xx": "Fanchuan Bi"
      }
    }
  ]
}
