{
  "type": "FeatureCollection",
  "features": [
    {
      "geometry": {
        "type": "Point",
        "coordinates": [
          120.644199,
          22.930696
        ]
      },
      "type": "Feature",
      "properties": {
        "hierarchy": [
          "tgn:7498940",
          "tgn:7001004",
          "tgn:1000004",
          "tgn:1000141",
          "tgn:7029392"
        ],
        "placetype": [
          "aat:300007836"
        ],
        "id": 7498940,
        "name:xx": "Erpo Qiao"
      }
    },
    {
      "geometry": {
        "type": "Point",
        "coordinates": [
          120.558536,
          22.790031
        ]
      },
      "type": "Feature",
      "properties": {
        "hierarchy": [
          "tgn:7498941",
          "tgn:1000004",
          "tgn:7492971",
          "tgn:1000141",
          "tgn:7029392"
        ],
        "placetype": [
          "aat:300007836"
        ],
        "id": 7498941,
        "name:xx": "Xiezhong Qiao"
      }
    },
    {
      "geometry": {
        "type": "Point",
        "coordinates": [
          120.560245,
          24.079709
        ]
      },
      "type": "Feature",
      "properties": {
        "hierarchy": [
          "tgn:7498942",
          "tgn:1000004",
          "tgn:7467799",
          "tgn:1000141",
          "tgn:7029392"
        ],
        "placetype": [
          "aat:300000745"
        ],
        "id": 7498942,
        "name:xx": "Kengzinei"
      }
    },
    {
      "geometry": {
        "type": "Point",
        "coordinates": [
          120.564315,
          24.082523
        ]
      },
      "type": "Feature",
      "properties": {
        "hierarchy": [
          "tgn:7498943",
          "tgn:1000004",
          "tgn:7467799",
          "tgn:1000141",
          "tgn:7029392"
        ],
        "placetype": [
          "aat:300000745"
        ],
        "id": 7498943,
        "name:xx": "Xiashanjiao"
      }
    },
    {
      "geometry": {
        "type": "Point",
        "coordinates": [
          120.584568,
          24.137808
        ]
      },
      "type": "Feature",
      "properties": {
        "hierarchy": [
          "tgn:7498944",
          "tgn:1000004",
          "tgn:7001009",
          "tgn:1000141",
          "tgn:7029392"
        ],
        "placetype": [
          "aat:300008777"
        ],
        "id": 7498944,
        "name:xx": "Wangtian Shan"
      }
    },
    {
      "geometry": {
        "type": "Point",
        "coordinates": [
          120.560033,
          24.11978
        ]
      },
      "type": "Feature",
      "properties": {
        "hierarchy": [
          "tgn:7498945",
          "tgn:1000004",
          "tgn:7001009",
          "tgn:1000141",
          "tgn:7029392"
        ],
        "placetype": [
          "aat:300008347"
        ],
        "id": 7498945,
        "name:xx": "Yingpanbu"
      }
    },
    {
      "geometry": {
        "type": "Point",
        "coordinates": [
          120.543952,
          24.037937
        ]
      },
      "type": "Feature",
      "properties": {
        "hierarchy": [
          "tgn:7498946",
          "tgn:1000004",
          "tgn:7467799",
          "tgn:1000141",
          "tgn:7029392"
        ],
        "placetype": [
          "aat:300008347"
        ],
        "id": 7498946,
        "name:xx": "Baishakeng"
      }
    },
    {
      "geometry": {
        "type": "Point",
        "coordinates": [
          120.534989,
          24.115659
        ]
      },
      "type": "Feature",
      "properties": {
        "hierarchy": [
          "tgn:7498947",
          "tgn:1000004",
          "tgn:7001009",
          "tgn:1000141",
          "tgn:7029392"
        ],
        "placetype": [
          "aat:300008347"
        ],
        "id": 7498947,
        "name:xx": "Xizhou"
      }
    },
    {
      "geometry": {
        "type": "Point",
        "coordinates": [
          120.55354,
          24.202932
        ]
      },
      "type": "Feature",
      "properties": {
        "hierarchy": [
          "tgn:7498948",
          "tgn:1000004",
          "tgn:7001009",
          "tgn:1000141",
          "tgn:7029392"
        ],
        "placetype": [
          "aat:300387033"
        ],
        "id": 7498948,
        "name:xx": "Longmujing"
      }
    },
    {
      "geometry": {
        "type": "Point",
        "coordinates": [
          120.518764,
          24.066027
        ]
      },
      "type": "Feature",
      "properties": {
        "hierarchy": [
          "tgn:7498949",
          "tgn:1000004",
          "tgn:7467799",
          "tgn:1000141",
          "tgn:7029392"
        ],
        "placetype": [
          "aat:300008347"
        ],
        "id": 7498949,
        "name:xx": "Citongjiao"
      }
    }
  ]
}
