{
  "type": "FeatureCollection",
  "features": [
    {
      "geometry": {
        "type": "Point",
        "coordinates": [
          79.478972,
          27.96636
        ]
      },
      "type": "Feature",
      "properties": {
        "hierarchy": [
          "tgn:7561970",
          "tgn:1000004",
          "tgn:7000198",
          "tgn:7016722",
          "tgn:7029392"
        ],
        "placetype": [
          "aat:300008347"
        ],
        "name:en": "Rapra",
        "id": 7561970
      }
    },
    {
      "geometry": {
        "type": "Point",
        "coordinates": [
          79.474776,
          27.968927
        ]
      },
      "type": "Feature",
      "properties": {
        "hierarchy": [
          "tgn:7561971",
          "tgn:1000004",
          "tgn:7000198",
          "tgn:7016722",
          "tgn:7029392"
        ],
        "placetype": [
          "aat:300008347"
        ],
        "name:en": "Parsidhpur",
        "id": 7561971
      }
    },
    {
      "geometry": {
        "type": "Point",
        "coordinates": [
          79.469967,
          27.970284
        ]
      },
      "type": "Feature",
      "properties": {
        "hierarchy": [
          "tgn:7561972",
          "tgn:1000004",
          "tgn:7000198",
          "tgn:7016722",
          "tgn:7029392"
        ],
        "placetype": [
          "aat:300008347"
        ],
        "name:en": "Bari",
        "id": 7561972
      }
    },
    {
      "geometry": {
        "type": "Point",
        "coordinates": [
          79.495844,
          27.970556
        ]
      },
      "type": "Feature",
      "properties": {
        "hierarchy": [
          "tgn:7561973",
          "tgn:1000004",
          "tgn:7000198",
          "tgn:7016722",
          "tgn:7029392"
        ],
        "placetype": [
          "aat:300008347"
        ],
        "name:en": "Naugaw훮n",
        "id": 7561973
      }
    },
    {
      "geometry": {
        "type": "Point",
        "coordinates": [
          79.479465,
          27.972694
        ]
      },
      "type": "Feature",
      "properties": {
        "hierarchy": [
          "tgn:7561974",
          "tgn:1000004",
          "tgn:7000198",
          "tgn:7016722",
          "tgn:7029392"
        ],
        "placetype": [
          "aat:300008347"
        ],
        "name:en": "M훮war",
        "id": 7561974
      }
    },
    {
      "geometry": {
        "type": "Point",
        "coordinates": [
          79.493144,
          27.976381
        ]
      },
      "type": "Feature",
      "properties": {
        "hierarchy": [
          "tgn:7561975",
          "tgn:1000004",
          "tgn:7000198",
          "tgn:7016722",
          "tgn:7029392"
        ],
        "placetype": [
          "aat:300008347"
        ],
        "name:en": "Gauntia Atu",
        "id": 7561975
      }
    },
    {
      "geometry": {
        "type": "Point",
        "coordinates": [
          79.49531,
          27.977831
        ]
      },
      "type": "Feature",
      "properties": {
        "hierarchy": [
          "tgn:7561976",
          "tgn:1000004",
          "tgn:7000198",
          "tgn:7016722",
          "tgn:7029392"
        ],
        "placetype": [
          "aat:300008347"
        ],
        "name:en": "Simra",
        "id": 7561976
      }
    },
    {
      "geometry": {
        "type": "Point",
        "coordinates": [
          79.490513,
          27.977959
        ]
      },
      "type": "Feature",
      "properties": {
        "hierarchy": [
          "tgn:7561977",
          "tgn:1000004",
          "tgn:7000198",
          "tgn:7016722",
          "tgn:7029392"
        ],
        "placetype": [
          "aat:300008347"
        ],
        "name:en": "Gauntia Gh훮ram",
        "id": 7561977
      }
    },
    {
      "geometry": {
        "type": "Point",
        "coordinates": [
          79.486375,
          27.979451
        ]
      },
      "type": "Feature",
      "properties": {
        "hierarchy": [
          "tgn:7561978",
          "tgn:1000004",
          "tgn:7000198",
          "tgn:7016722",
          "tgn:7029392"
        ],
        "placetype": [
          "aat:300008347"
        ],
        "name:en": "Ehtm훮li",
        "id": 7561978
      }
    },
    {
      "geometry": {
        "type": "Point",
        "coordinates": [
          79.488848,
          27.981422
        ]
      },
      "type": "Feature",
      "properties": {
        "hierarchy": [
          "tgn:7561979",
          "tgn:1000004",
          "tgn:7000198",
          "tgn:7016722",
          "tgn:7029392"
        ],
        "placetype": [
          "aat:300008347"
        ],
        "name:en": "Kainaini",
        "id": 7561979
      }
    }
  ]
}
