{
  "type": "FeatureCollection",
  "features": [
    {
      "geometry": {
        "type": "Point",
        "coordinates": [
          79.389234,
          27.095333
        ]
      },
      "type": "Feature",
      "properties": {
        "hierarchy": [
          "tgn:7561320",
          "tgn:1000004",
          "tgn:7000198",
          "tgn:7016722",
          "tgn:7029392"
        ],
        "placetype": [
          "aat:300008347"
        ],
        "name:en": "Mahkampur",
        "id": 7561320
      }
    },
    {
      "geometry": {
        "type": "Point",
        "coordinates": [
          79.374651,
          27.098873
        ]
      },
      "type": "Feature",
      "properties": {
        "hierarchy": [
          "tgn:7561321",
          "tgn:1000004",
          "tgn:7000198",
          "tgn:7016722",
          "tgn:7029392"
        ],
        "placetype": [
          "aat:300008347"
        ],
        "name:en": "Baharāpur Chhota",
        "id": 7561321
      }
    },
    {
      "geometry": {
        "type": "Point",
        "coordinates": [
          79.37255,
          27.099402
        ]
      },
      "type": "Feature",
      "properties": {
        "hierarchy": [
          "tgn:7561322",
          "tgn:1000004",
          "tgn:7000198",
          "tgn:7016722",
          "tgn:7029392"
        ],
        "placetype": [
          "aat:300008347"
        ],
        "name:en": "Baharāpur Bara",
        "id": 7561322
      }
    },
    {
      "geometry": {
        "type": "Point",
        "coordinates": [
          79.377189,
          27.10001
        ]
      },
      "type": "Feature",
      "properties": {
        "hierarchy": [
          "tgn:7561323",
          "tgn:1000004",
          "tgn:7000198",
          "tgn:7016722",
          "tgn:7029392"
        ],
        "placetype": [
          "aat:300008347"
        ],
        "name:en": "Hindūpur",
        "id": 7561323
      }
    },
    {
      "geometry": {
        "type": "Point",
        "coordinates": [
          79.382402,
          27.102788
        ]
      },
      "type": "Feature",
      "properties": {
        "hierarchy": [
          "tgn:7561324",
          "tgn:1000004",
          "tgn:7000198",
          "tgn:7016722",
          "tgn:7029392"
        ],
        "placetype": [
          "aat:300008347"
        ],
        "name:en": "Diurānia",
        "id": 7561324
      }
    },
    {
      "geometry": {
        "type": "Point",
        "coordinates": [
          79.387919,
          27.108122
        ]
      },
      "type": "Feature",
      "properties": {
        "hierarchy": [
          "tgn:7561325",
          "tgn:1000004",
          "tgn:7000198",
          "tgn:7016722",
          "tgn:7029392"
        ],
        "placetype": [
          "aat:300008347"
        ],
        "name:en": "Nagla Kanj",
        "id": 7561325
      }
    },
    {
      "geometry": {
        "type": "Point",
        "coordinates": [
          79.374293,
          27.10785
        ]
      },
      "type": "Feature",
      "properties": {
        "hierarchy": [
          "tgn:7561326",
          "tgn:1000004",
          "tgn:7000198",
          "tgn:7016722",
          "tgn:7029392"
        ],
        "placetype": [
          "aat:300008347"
        ],
        "name:en": "Nandulia",
        "id": 7561326
      }
    },
    {
      "geometry": {
        "type": "Point",
        "coordinates": [
          79.374918,
          27.109738
        ]
      },
      "type": "Feature",
      "properties": {
        "hierarchy": [
          "tgn:7561327",
          "tgn:1000004",
          "tgn:7000198",
          "tgn:7016722",
          "tgn:7029392"
        ],
        "placetype": [
          "aat:300008347"
        ],
        "name:en": "Nagla Kundan",
        "id": 7561327
      }
    },
    {
      "geometry": {
        "type": "Point",
        "coordinates": [
          79.395262,
          27.111548
        ]
      },
      "type": "Feature",
      "properties": {
        "hierarchy": [
          "tgn:7561328",
          "tgn:1000004",
          "tgn:7000198",
          "tgn:7016722",
          "tgn:7029392"
        ],
        "placetype": [
          "aat:300008347"
        ],
        "name:en": "Dānda",
        "id": 7561328
      }
    },
    {
      "geometry": {
        "type": "Point",
        "coordinates": [
          79.388384,
          27.118712
        ]
      },
      "type": "Feature",
      "properties": {
        "hierarchy": [
          "tgn:7561329",
          "tgn:1000004",
          "tgn:7000198",
          "tgn:7016722",
          "tgn:7029392"
        ],
        "placetype": [
          "aat:300008347"
        ],
        "name:en": "Saraiya",
        "id": 7561329
      }
    }
  ]
}
