{
  "type": "FeatureCollection",
  "features": [
    {
      "geometry": {
        "type": "Point",
        "coordinates": [
          74.141667,
          33.763889
        ]
      },
      "type": "Feature",
      "properties": {
        "hierarchy": [
          "tgn:7588490",
          "tgn:1000004",
          "tgn:7000198",
          "tgn:7000799",
          "tgn:7029392"
        ],
        "placetype": [
          "aat:300008347"
        ],
        "name:en": "Goah",
        "id": 7588490
      }
    },
    {
      "geometry": {
        "type": "Point",
        "coordinates": [
          74.241667,
          33.822222
        ]
      },
      "type": "Feature",
      "properties": {
        "hierarchy": [
          "tgn:7588491",
          "tgn:1000004",
          "tgn:7000198",
          "tgn:7000799",
          "tgn:7029392"
        ],
        "placetype": [
          "aat:300008347"
        ],
        "name:en": "Gheta",
        "id": 7588491
      }
    },
    {
      "geometry": {
        "type": "Point",
        "coordinates": [
          74.196324,
          33.772831
        ]
      },
      "type": "Feature",
      "properties": {
        "hierarchy": [
          "tgn:7588492",
          "tgn:1000004",
          "tgn:7000198",
          "tgn:7000799",
          "tgn:7029392"
        ],
        "placetype": [
          "aat:300008347"
        ],
        "name:en": "Galināg",
        "id": 7588492
      }
    },
    {
      "geometry": {
        "type": "Point",
        "coordinates": [
          74.230556,
          33.761111
        ]
      },
      "type": "Feature",
      "properties": {
        "hierarchy": [
          "tgn:7588493",
          "tgn:1000004",
          "tgn:7000198",
          "tgn:7000799",
          "tgn:7029392"
        ],
        "placetype": [
          "aat:300008347"
        ],
        "name:en": "Fatehpur",
        "id": 7588493
      }
    },
    {
      "geometry": {
        "type": "Point",
        "coordinates": [
          74.021998,
          33.759082
        ]
      },
      "type": "Feature",
      "properties": {
        "hierarchy": [
          "tgn:7588494",
          "tgn:1000004",
          "tgn:7000198",
          "tgn:7000799",
          "tgn:7029392"
        ],
        "placetype": [
          "aat:300008347"
        ],
        "name:en": "Fakīr Dorax",
        "id": 7588494
      }
    },
    {
      "geometry": {
        "type": "Point",
        "coordinates": [
          74.252927,
          33.838316
        ]
      },
      "type": "Feature",
      "properties": {
        "hierarchy": [
          "tgn:7588495",
          "tgn:1000004",
          "tgn:7000198",
          "tgn:7000799",
          "tgn:7029392"
        ],
        "placetype": [
          "aat:300008347"
        ],
        "name:en": "Dunnu",
        "id": 7588495
      }
    },
    {
      "geometry": {
        "type": "Point",
        "coordinates": [
          74.097222,
          33.763889
        ]
      },
      "type": "Feature",
      "properties": {
        "hierarchy": [
          "tgn:7588496",
          "tgn:1000004",
          "tgn:7000198",
          "tgn:7000799",
          "tgn:7029392"
        ],
        "placetype": [
          "aat:300008347"
        ],
        "name:en": "Dūngas",
        "id": 7588496
      }
    },
    {
      "geometry": {
        "type": "Point",
        "coordinates": [
          74.219419,
          33.855282
        ]
      },
      "type": "Feature",
      "properties": {
        "hierarchy": [
          "tgn:7588497",
          "tgn:1000004",
          "tgn:7000198",
          "tgn:7000799",
          "tgn:7029392"
        ],
        "placetype": [
          "aat:300008347"
        ],
        "name:en": "Doda",
        "id": 7588497
      }
    },
    {
      "geometry": {
        "type": "Point",
        "coordinates": [
          74.22613,
          33.761547
        ]
      },
      "type": "Feature",
      "properties": {
        "hierarchy": [
          "tgn:7588498",
          "tgn:1000004",
          "tgn:7000198",
          "tgn:7000799",
          "tgn:7029392"
        ],
        "placetype": [
          "aat:300008347"
        ],
        "name:en": "Djara",
        "id": 7588498
      }
    },
    {
      "geometry": {
        "type": "Point",
        "coordinates": [
          74.169988,
          33.772527
        ]
      },
      "type": "Feature",
      "properties": {
        "hierarchy": [
          "tgn:7588499",
          "tgn:1000004",
          "tgn:7000198",
          "tgn:7000799",
          "tgn:7029392"
        ],
        "placetype": [
          "aat:300008347"
        ],
        "name:en": "Dingle",
        "id": 7588499
      }
    }
  ]
}
