{
  "type": "FeatureCollection",
  "features": [
    {
      "geometry": {
        "type": "Point",
        "coordinates": [
          120.926354,
          24.328438
        ]
      },
      "type": "Feature",
      "properties": {
        "hierarchy": [
          "tgn:7491480",
          "tgn:1000004",
          "tgn:7001009",
          "tgn:1000141",
          "tgn:7029392"
        ],
        "placetype": [
          "aat:300387173"
        ],
        "id": 7491480,
        "name:xx": "Daguan Cun"
      }
    },
    {
      "geometry": {
        "type": "Point",
        "coordinates": [
          121.384012,
          23.922426
        ]
      },
      "type": "Feature",
      "properties": {
        "hierarchy": [
          "tgn:7491481",
          "tgn:7001010",
          "tgn:1000004",
          "tgn:1000141",
          "tgn:7029392"
        ],
        "placetype": [
          "aat:300008795"
        ],
        "id": 7491481,
        "name:xx": "Dakuai Shan"
      }
    },
    {
      "geometry": {
        "type": "Point",
        "coordinates": [
          121.311526,
          25.015958
        ]
      },
      "type": "Feature",
      "properties": {
        "hierarchy": [
          "tgn:7491482",
          "tgn:1000004",
          "tgn:7001013",
          "tgn:1000141",
          "tgn:7029392"
        ],
        "placetype": [
          "aat:300008347"
        ],
        "id": 7491482,
        "name:xx": "Dakuaixi"
      }
    },
    {
      "geometry": {
        "type": "Point",
        "coordinates": [
          121.965378,
          24.987384
        ]
      },
      "type": "Feature",
      "properties": {
        "hierarchy": [
          "tgn:7491483",
          "tgn:1000004",
          "tgn:1000454",
          "tgn:1000141",
          "tgn:7029392"
        ],
        "placetype": [
          "aat:300008347"
        ],
        "id": 7491483,
        "name:xx": "Daku"
      }
    },
    {
      "geometry": {
        "type": "Point",
        "coordinates": [
          121.129943,
          25.001514
        ]
      },
      "type": "Feature",
      "properties": {
        "hierarchy": [
          "tgn:7491484",
          "tgn:1000004",
          "tgn:7001013",
          "tgn:1000141",
          "tgn:7029392"
        ],
        "placetype": [
          "aat:300387173"
        ],
        "id": 7491484,
        "name:xx": "Daku Cun"
      }
    },
    {
      "geometry": {
        "type": "Point",
        "coordinates": [
          120.684676,
          23.992119
        ]
      },
      "type": "Feature",
      "properties": {
        "hierarchy": [
          "tgn:7491485",
          "tgn:7488858",
          "tgn:1000004",
          "tgn:1000141",
          "tgn:7029392"
        ],
        "placetype": [
          "aat:300008347"
        ],
        "id": 7491485,
        "name:xx": "Daku"
      }
    },
    {
      "geometry": {
        "type": "Point",
        "coordinates": [
          121.708436,
          24.614833
        ]
      },
      "type": "Feature",
      "properties": {
        "hierarchy": [
          "tgn:7491488",
          "tgn:1000004",
          "tgn:7489179",
          "tgn:1000141",
          "tgn:7029392"
        ],
        "placetype": [
          "aat:300008699"
        ],
        "id": 7491488,
        "name:xx": "Dagou Xi"
      }
    },
    {
      "geometry": {
        "type": "Point",
        "coordinates": [
          120.906787,
          24.321833
        ]
      },
      "type": "Feature",
      "properties": {
        "hierarchy": [
          "tgn:7491489",
          "tgn:1000004",
          "tgn:7001009",
          "tgn:1000141",
          "tgn:7029392"
        ],
        "placetype": [
          "aat:300008795"
        ],
        "id": 7491489,
        "name:xx": "Dake Shan"
      }
    }
  ]
}
