{
  "type": "FeatureCollection",
  "features": [
    {
      "geometry": {
        "type": "Point",
        "coordinates": [
          -110.796667,
          23.906111
        ]
      },
      "type": "Feature",
      "properties": {
        "hierarchy": [
          "tgn:7420140",
          "tgn:1001836",
          "tgn:1000001",
          "tgn:7005560",
          "tgn:7029392"
        ],
        "placetype": [
          "aat:300008699"
        ],
        "id": 7420140,
        "name:xx": "El Cuñano, Río"
      }
    },
    {
      "geometry": {
        "type": "Point",
        "coordinates": [
          -110.8125,
          24.0625
        ]
      },
      "type": "Feature",
      "properties": {
        "hierarchy": [
          "tgn:7420141",
          "tgn:1001836",
          "tgn:1000001",
          "tgn:7005560",
          "tgn:7029392"
        ],
        "placetype": [
          "aat:300008699"
        ],
        "id": 7420141,
        "name:xx": "La Agua, Río"
      }
    },
    {
      "geometry": {
        "type": "Point",
        "coordinates": [
          -110.8125,
          24.718611
        ]
      },
      "type": "Feature",
      "properties": {
        "hierarchy": [
          "tgn:7420142",
          "tgn:1001836",
          "tgn:1000001",
          "tgn:7005560",
          "tgn:7029392"
        ],
        "placetype": [
          "aat:300008699"
        ],
        "id": 7420142,
        "name:xx": "El Carrizalito, Río"
      }
    },
    {
      "geometry": {
        "type": "Point",
        "coordinates": [
          -110.818056,
          24.625
        ]
      },
      "type": "Feature",
      "properties": {
        "hierarchy": [
          "tgn:7420143",
          "tgn:1001836",
          "tgn:1000001",
          "tgn:7005560",
          "tgn:7029392"
        ],
        "placetype": [
          "aat:300008795"
        ],
        "id": 7420143,
        "name:xx": "Tarabillas, Sierra"
      }
    },
    {
      "geometry": {
        "type": "Point",
        "coordinates": [
          -110.859167,
          23.968611
        ]
      },
      "type": "Feature",
      "properties": {
        "hierarchy": [
          "tgn:7420144",
          "tgn:1001836",
          "tgn:1000001",
          "tgn:7005560",
          "tgn:7029392"
        ],
        "placetype": [
          "aat:300266554",
          "aat:300008699"
        ],
        "id": 7420144,
        "name:xx": "Seco, Arroyo"
      }
    },
    {
      "geometry": {
        "type": "Point",
        "coordinates": [
          -110.859167,
          24.625
        ]
      },
      "type": "Feature",
      "properties": {
        "hierarchy": [
          "tgn:7420145",
          "tgn:1001836",
          "tgn:1000001",
          "tgn:7005560",
          "tgn:7029392"
        ],
        "placetype": [
          "aat:300008699"
        ],
        "id": 7420145,
        "name:xx": "San Francisco, Río"
      }
    },
    {
      "geometry": {
        "type": "Point",
        "coordinates": [
          -110.872222,
          24.989722
        ]
      },
      "type": "Feature",
      "properties": {
        "hierarchy": [
          "tgn:7420146",
          "tgn:1001836",
          "tgn:1000001",
          "tgn:7005560",
          "tgn:7029392"
        ],
        "placetype": [
          "aat:300008347"
        ],
        "id": 7420146,
        "name:xx": "Llano de Caquiqui"
      }
    },
    {
      "geometry": {
        "type": "Point",
        "coordinates": [
          -110.875,
          23.965833
        ]
      },
      "type": "Feature",
      "properties": {
        "hierarchy": [
          "tgn:7420147",
          "tgn:1001836",
          "tgn:1000001",
          "tgn:7005560",
          "tgn:7029392"
        ],
        "placetype": [
          "aat:300386846"
        ],
        "id": 7420147,
        "name:xx": "Bentonita, Punta"
      }
    },
    {
      "geometry": {
        "type": "Point",
        "coordinates": [
          -110.875,
          24.1875
        ]
      },
      "type": "Feature",
      "properties": {
        "hierarchy": [
          "tgn:7420148",
          "tgn:1001836",
          "tgn:1000001",
          "tgn:7005560",
          "tgn:7029392"
        ],
        "placetype": [
          "aat:300008699"
        ],
        "id": 7420148,
        "name:xx": "Los Pozos, Río"
      }
    },
    {
      "geometry": {
        "type": "Point",
        "coordinates": [
          -110.906111,
          24.468056
        ]
      },
      "type": "Feature",
      "properties": {
        "hierarchy": [
          "tgn:7420149",
          "tgn:1001836",
          "tgn:1000001",
          "tgn:7005560",
          "tgn:7029392"
        ],
        "placetype": [
          "aat:300008699"
        ],
        "id": 7420149,
        "name:xx": "San Hilario, Río"
      }
    }
  ]
}
