{
  "type": "FeatureCollection",
  "features": [
    {
      "geometry": {
        "type": "Point",
        "coordinates": [
          120.6632,
          24.046
        ]
      },
      "type": "Feature",
      "properties": {
        "hierarchy": [
          "tgn:7496881",
          "tgn:1000004",
          "tgn:7001009",
          "tgn:1000141",
          "tgn:7029392"
        ],
        "placetype": [
          "aat:300008347"
        ],
        "id": 7496881,
        "name:xx": "Shulianhuajiao"
      }
    },
    {
      "geometry": {
        "type": "Point",
        "coordinates": [
          120.6919,
          24.0437
        ]
      },
      "type": "Feature",
      "properties": {
        "hierarchy": [
          "tgn:7496882",
          "tgn:1000004",
          "tgn:7001009",
          "tgn:1000141",
          "tgn:7029392"
        ],
        "placetype": [
          "aat:300007836"
        ],
        "id": 7496882,
        "name:xx": "Qianxi Qiao"
      }
    },
    {
      "geometry": {
        "type": "Point",
        "coordinates": [
          120.68876,
          24.064396
        ]
      },
      "type": "Feature",
      "properties": {
        "hierarchy": [
          "tgn:7496883",
          "tgn:1000004",
          "tgn:7001009",
          "tgn:1000141",
          "tgn:7029392"
        ],
        "placetype": [
          "aat:300000498"
        ],
        "id": 7496883,
        "name:xx": "Jiaxing Xincun"
      }
    },
    {
      "geometry": {
        "type": "Point",
        "coordinates": [
          120.716321,
          24.074955
        ]
      },
      "type": "Feature",
      "properties": {
        "hierarchy": [
          "tgn:7496886",
          "tgn:1000004",
          "tgn:7001009",
          "tgn:1000141",
          "tgn:7029392"
        ],
        "placetype": [
          "aat:300005768"
        ],
        "id": 7496886,
        "name:xx": "Taiwan Dianying Wenhuacheng"
      }
    },
    {
      "geometry": {
        "type": "Point",
        "coordinates": [
          120.7023,
          24.0832
        ]
      },
      "type": "Feature",
      "properties": {
        "hierarchy": [
          "tgn:7496887",
          "tgn:1000004",
          "tgn:7001009",
          "tgn:1000141",
          "tgn:7029392"
        ],
        "placetype": [
          "aat:300387027"
        ],
        "id": 7496887,
        "name:xx": "Gongmaiju Yanye Shiyansuo"
      }
    },
    {
      "geometry": {
        "type": "Point",
        "coordinates": [
          120.6855,
          24.0893
        ]
      },
      "type": "Feature",
      "properties": {
        "hierarchy": [
          "tgn:7496888",
          "tgn:1000004",
          "tgn:7001009",
          "tgn:1000141",
          "tgn:7029392"
        ],
        "placetype": [
          "aat:300007836"
        ],
        "id": 7496888,
        "name:xx": "Dawei Qiao"
      }
    },
    {
      "geometry": {
        "type": "Point",
        "coordinates": [
          120.6475,
          24.0988
        ]
      },
      "type": "Feature",
      "properties": {
        "hierarchy": [
          "tgn:7496889",
          "tgn:1000004",
          "tgn:7001009",
          "tgn:1000141",
          "tgn:7029392"
        ],
        "placetype": [
          "aat:300007836"
        ],
        "id": 7496889,
        "name:xx": "Guangming Yihao Qiao"
      }
    }
  ]
}
