{
  "type": "FeatureCollection",
  "features": [
    {
      "geometry": {
        "type": "Point",
        "coordinates": [
          75.558119,
          24.287628
        ]
      },
      "type": "Feature",
      "properties": {
        "hierarchy": [
          "tgn:7556060",
          "tgn:1000004",
          "tgn:7000198",
          "tgn:1001894",
          "tgn:7029392"
        ],
        "placetype": [
          "aat:300008347"
        ],
        "name:en": "Sāthkhera",
        "id": 7556060
      }
    },
    {
      "geometry": {
        "type": "Point",
        "coordinates": [
          73.572763,
          26.455618
        ]
      },
      "type": "Feature",
      "properties": {
        "hierarchy": [
          "tgn:7556061",
          "tgn:1000004",
          "tgn:7000198",
          "tgn:7016788",
          "tgn:7029392"
        ],
        "placetype": [
          "aat:300008347"
        ],
        "name:en": "Sāthin",
        "id": 7556061
      }
    },
    {
      "geometry": {
        "type": "Point",
        "coordinates": [
          80.630499,
          28.547084
        ]
      },
      "type": "Feature",
      "properties": {
        "hierarchy": [
          "tgn:7556062",
          "tgn:1000004",
          "tgn:7000198",
          "tgn:7016722",
          "tgn:7029392"
        ],
        "placetype": [
          "aat:300008865"
        ],
        "name:en": "Sathiāna Reserved Forest",
        "id": 7556062
      }
    },
    {
      "geometry": {
        "type": "Point",
        "coordinates": [
          75.29554,
          31.584439
        ]
      },
      "type": "Feature",
      "properties": {
        "hierarchy": [
          "tgn:7556063",
          "tgn:1000004",
          "tgn:7000198",
          "tgn:7016883",
          "tgn:7029392"
        ],
        "placetype": [
          "aat:300008347"
        ],
        "name:en": "Sathiāla",
        "id": 7556063
      }
    },
    {
      "geometry": {
        "type": "Point",
        "coordinates": [
          77.703371,
          29.265027
        ]
      },
      "type": "Feature",
      "properties": {
        "hierarchy": [
          "tgn:7556064",
          "tgn:1000004",
          "tgn:7000198",
          "tgn:7016722",
          "tgn:7029392"
        ],
        "placetype": [
          "aat:300008347"
        ],
        "name:en": "Satheri",
        "id": 7556064
      }
    },
    {
      "geometry": {
        "type": "Point",
        "coordinates": [
          94.362543,
          25.760208
        ]
      },
      "type": "Feature",
      "properties": {
        "hierarchy": [
          "tgn:7556065",
          "tgn:1000004",
          "tgn:7000198",
          "tgn:1001905",
          "tgn:7029392"
        ],
        "placetype": [
          "aat:300008347"
        ],
        "name:en": "Sathazumi",
        "id": 7556065
      }
    },
    {
      "geometry": {
        "type": "Point",
        "coordinates": [
          74.626571,
          25.979176
        ]
      },
      "type": "Feature",
      "properties": {
        "hierarchy": [
          "tgn:7556066",
          "tgn:1000004",
          "tgn:7000198",
          "tgn:7016788",
          "tgn:7029392"
        ],
        "placetype": [
          "aat:300008347"
        ],
        "name:en": "Sathāna",
        "id": 7556066
      }
    },
    {
      "geometry": {
        "type": "Point",
        "coordinates": [
          73.333333,
          23.166667
        ]
      },
      "type": "Feature",
      "properties": {
        "hierarchy": [
          "tgn:7556067",
          "tgn:1000004",
          "tgn:1001869",
          "tgn:7000198",
          "tgn:7029392"
        ],
        "placetype": [
          "aat:300008347"
        ],
        "name:en": "Sāthamba",
        "id": 7556067
      }
    },
    {
      "geometry": {
        "type": "Point",
        "coordinates": [
          76.022778,
          12.868889
        ]
      },
      "type": "Feature",
      "properties": {
        "hierarchy": [
          "tgn:7556068",
          "tgn:1000004",
          "tgn:7000198",
          "tgn:1001882",
          "tgn:7029392"
        ],
        "placetype": [
          "aat:300008347"
        ],
        "name:en": "Sattihalli",
        "id": 7556068
      }
    },
    {
      "geometry": {
        "type": "Point",
        "coordinates": [
          85.776471,
          24.74452
        ]
      },
      "type": "Feature",
      "properties": {
        "hierarchy": [
          "tgn:7556069",
          "tgn:1000004",
          "tgn:7000198",
          "tgn:7031783",
          "tgn:7029392"
        ],
        "placetype": [
          "aat:300008347"
        ],
        "name:en": "Sātgawān",
        "id": 7556069
      }
    }
  ]
}
