{
  "type": "FeatureCollection",
  "features": [
    {
      "geometry": {
        "type": "Point",
        "coordinates": [
          120.361651,
          23.676413
        ]
      },
      "type": "Feature",
      "properties": {
        "hierarchy": [
          "tgn:7486221",
          "tgn:1000004",
          "tgn:7001014",
          "tgn:1000141",
          "tgn:7029392"
        ],
        "placetype": [
          "aat:300008347"
        ],
        "id": 7486221,
        "name:xx": "Fuchao"
      }
    },
    {
      "geometry": {
        "type": "Point",
        "coordinates": [
          120.454167,
          23.411111
        ]
      },
      "type": "Feature",
      "properties": {
        "hierarchy": [
          "tgn:7486222",
          "tgn:7468018",
          "tgn:1000004",
          "tgn:1000141",
          "tgn:7029392"
        ],
        "placetype": [
          "aat:300008347"
        ],
        "id": 7486222,
        "name:xx": "Niuchoubu"
      }
    },
    {
      "geometry": {
        "type": "Point",
        "coordinates": [
          120.372459,
          23.092563
        ]
      },
      "type": "Feature",
      "properties": {
        "hierarchy": [
          "tgn:7486224",
          "tgn:1000004",
          "tgn:7490934",
          "tgn:1000141",
          "tgn:7029392"
        ],
        "placetype": [
          "aat:300008347"
        ],
        "id": 7486224,
        "name:xx": "Niuchoubu"
      }
    },
    {
      "geometry": {
        "type": "Point",
        "coordinates": [
          120.330833,
          22.975556
        ]
      },
      "type": "Feature",
      "properties": {
        "hierarchy": [
          "tgn:7486225",
          "tgn:1000004",
          "tgn:7490934",
          "tgn:1000141",
          "tgn:7029392"
        ],
        "placetype": [
          "aat:300008347"
        ],
        "id": 7486225,
        "name:xx": "Niuchoubu"
      }
    },
    {
      "geometry": {
        "type": "Point",
        "coordinates": [
          120.372844,
          22.639244
        ]
      },
      "type": "Feature",
      "properties": {
        "hierarchy": [
          "tgn:7486226",
          "tgn:7001004",
          "tgn:1000004",
          "tgn:1000141",
          "tgn:7029392"
        ],
        "placetype": [
          "aat:300008347"
        ],
        "id": 7486226,
        "name:xx": "Niuchoubu"
      }
    },
    {
      "geometry": {
        "type": "Point",
        "coordinates": [
          121.791335,
          25.142418
        ]
      },
      "type": "Feature",
      "properties": {
        "hierarchy": [
          "tgn:7486227",
          "tgn:1000957",
          "tgn:1000004",
          "tgn:1000141",
          "tgn:7029392"
        ],
        "placetype": [
          "aat:300008347"
        ],
        "id": 7486227,
        "name:xx": "Niuchouling"
      }
    },
    {
      "geometry": {
        "type": "Point",
        "coordinates": [
          120.766385,
          24.306767
        ]
      },
      "type": "Feature",
      "properties": {
        "hierarchy": [
          "tgn:7486228",
          "tgn:1000004",
          "tgn:7001009",
          "tgn:1000141",
          "tgn:7029392"
        ],
        "placetype": [
          "aat:300008347"
        ],
        "id": 7486228,
        "name:xx": "Niuchoukeng"
      }
    },
    {
      "geometry": {
        "type": "Point",
        "coordinates": [
          121.733333,
          25.15
        ]
      },
      "type": "Feature",
      "properties": {
        "hierarchy": [
          "tgn:7486229",
          "tgn:1000957",
          "tgn:1000004",
          "tgn:1000141",
          "tgn:7029392"
        ],
        "placetype": [
          "aat:300008347"
        ],
        "id": 7486229,
        "name:xx": "Niuchougang"
      }
    }
  ]
}
