{
  "type": "FeatureCollection",
  "features": [
    {
      "geometry": {
        "type": "Point",
        "coordinates": [
          121.428483,
          25.126067
        ]
      },
      "type": "Feature",
      "properties": {
        "hierarchy": [
          "tgn:7496960",
          "tgn:1000004",
          "tgn:1000454",
          "tgn:1000141",
          "tgn:7029392"
        ],
        "placetype": [
          "aat:300008798"
        ],
        "id": 7496960,
        "name:xx": "Yingzi Feng"
      }
    },
    {
      "geometry": {
        "type": "Point",
        "coordinates": [
          121.477652,
          25.144216
        ]
      },
      "type": "Feature",
      "properties": {
        "hierarchy": [
          "tgn:7496961",
          "tgn:1000004",
          "tgn:1000959",
          "tgn:1000141",
          "tgn:7029392"
        ],
        "placetype": [
          "aat:300008777"
        ],
        "id": 7496961,
        "name:xx": "Zhongyi Shan"
      }
    },
    {
      "geometry": {
        "type": "Point",
        "coordinates": [
          121.411346,
          25.146784
        ]
      },
      "type": "Feature",
      "properties": {
        "hierarchy": [
          "tgn:7496962",
          "tgn:1000004",
          "tgn:1000454",
          "tgn:1000141",
          "tgn:7029392"
        ],
        "placetype": [
          "aat:300387002"
        ],
        "id": 7496962,
        "name:xx": "Taiping Shan"
      }
    },
    {
      "geometry": {
        "type": "Point",
        "coordinates": [
          121.474033,
          25.155085
        ]
      },
      "type": "Feature",
      "properties": {
        "hierarchy": [
          "tgn:7496963",
          "tgn:1000004",
          "tgn:1000959",
          "tgn:1000141",
          "tgn:7029392"
        ],
        "placetype": [
          "aat:300008777"
        ],
        "id": 7496963,
        "name:xx": "Dongpingding Shan"
      }
    },
    {
      "geometry": {
        "type": "Point",
        "coordinates": [
          121.476544,
          25.174109
        ]
      },
      "type": "Feature",
      "properties": {
        "hierarchy": [
          "tgn:7496964",
          "tgn:1000004",
          "tgn:1000454",
          "tgn:1000141",
          "tgn:7029392"
        ],
        "placetype": [
          "aat:300008777"
        ],
        "id": 7496964,
        "name:xx": "Shulinkou"
      }
    },
    {
      "geometry": {
        "type": "Point",
        "coordinates": [
          121.43124,
          25.18016
        ]
      },
      "type": "Feature",
      "properties": {
        "hierarchy": [
          "tgn:7496965",
          "tgn:1000004",
          "tgn:1000454",
          "tgn:1000141",
          "tgn:7029392"
        ],
        "placetype": [
          "aat:300387033"
        ],
        "id": 7496965,
        "name:xx": "Jiupaotai"
      }
    },
    {
      "geometry": {
        "type": "Point",
        "coordinates": [
          121.454708,
          25.185907
        ]
      },
      "type": "Feature",
      "properties": {
        "hierarchy": [
          "tgn:7496966",
          "tgn:1000004",
          "tgn:1000454",
          "tgn:1000141",
          "tgn:7029392"
        ],
        "placetype": [
          "aat:300008777"
        ],
        "id": 7496966,
        "name:xx": "Fanshejiao Shan"
      }
    },
    {
      "geometry": {
        "type": "Point",
        "coordinates": [
          121.429389,
          25.204083
        ]
      },
      "type": "Feature",
      "properties": {
        "hierarchy": [
          "tgn:7496967",
          "tgn:1000004",
          "tgn:1000454",
          "tgn:1000141",
          "tgn:7029392"
        ],
        "placetype": [
          "aat:300387033"
        ],
        "id": 7496967,
        "name:xx": "Yangchao Shan"
      }
    },
    {
      "geometry": {
        "type": "Point",
        "coordinates": [
          121.459072,
          25.043016
        ]
      },
      "type": "Feature",
      "properties": {
        "hierarchy": [
          "tgn:7496968",
          "tgn:1000004",
          "tgn:1000454",
          "tgn:1000141",
          "tgn:7029392"
        ],
        "placetype": [
          "aat:300006676"
        ],
        "id": 7496968,
        "name:xx": "Taibei Yiyuan"
      }
    },
    {
      "geometry": {
        "type": "Point",
        "coordinates": [
          121.507907,
          25.009287
        ]
      },
      "type": "Feature",
      "properties": {
        "hierarchy": [
          "tgn:7496969",
          "tgn:1000004",
          "tgn:1000959",
          "tgn:1000141",
          "tgn:7029392"
        ],
        "placetype": [
          "aat:300006495"
        ],
        "id": 7496969,
        "name:xx": "Yongping Guozhong"
      }
    }
  ]
}
