{
  "type": "FeatureCollection",
  "features": [
    {
      "geometry": {
        "type": "Point",
        "coordinates": [
          120.150278,
          23.056944
        ]
      },
      "type": "Feature",
      "properties": {
        "hierarchy": [
          "tgn:7479170",
          "tgn:1000004",
          "tgn:7490934",
          "tgn:1000141",
          "tgn:7029392"
        ],
        "placetype": [
          "aat:300008187"
        ],
        "id": 7479170,
        "name:xx": "Qihai Yileyuan"
      }
    },
    {
      "geometry": {
        "type": "Point",
        "coordinates": [
          120.052222,
          23.065833
        ]
      },
      "type": "Feature",
      "properties": {
        "hierarchy": [
          "tgn:7479171",
          "tgn:1000004",
          "tgn:7490934",
          "tgn:1000141",
          "tgn:7029392"
        ],
        "placetype": [
          "aat:300387302"
        ],
        "id": 7479171,
        "name:xx": "Qigu Gongye Kaifaqu"
      }
    },
    {
      "geometry": {
        "type": "Point",
        "coordinates": [
          120.051944,
          23.1125
        ]
      },
      "type": "Feature",
      "properties": {
        "hierarchy": [
          "tgn:7479172",
          "tgn:1000004",
          "tgn:7490934",
          "tgn:1000141",
          "tgn:7029392"
        ],
        "placetype": [
          "aat:300006082"
        ],
        "id": 7479172,
        "name:xx": "Shiwu Shuizha"
      }
    },
    {
      "geometry": {
        "type": "Point",
        "coordinates": [
          120.123333,
          23.103889
        ]
      },
      "type": "Feature",
      "properties": {
        "hierarchy": [
          "tgn:7479173",
          "tgn:1000004",
          "tgn:7490934",
          "tgn:1000141",
          "tgn:7029392"
        ],
        "placetype": [
          "aat:300005433"
        ],
        "id": 7479173,
        "name:xx": "Jiali Rongminzhijia"
      }
    },
    {
      "geometry": {
        "type": "Point",
        "coordinates": [
          120.2425,
          23.01
        ]
      },
      "type": "Feature",
      "properties": {
        "hierarchy": [
          "tgn:7479174",
          "tgn:1000004",
          "tgn:7490934",
          "tgn:1000141",
          "tgn:7029392"
        ],
        "placetype": [
          "aat:300266755"
        ],
        "id": 7479174,
        "name:xx": "Yongkang Diyi Gongmu"
      }
    },
    {
      "geometry": {
        "type": "Point",
        "coordinates": [
          120.079167,
          23.0575
        ]
      },
      "type": "Feature",
      "properties": {
        "hierarchy": [
          "tgn:7479175",
          "tgn:1000004",
          "tgn:7490934",
          "tgn:1000141",
          "tgn:7029392"
        ],
        "placetype": [
          "aat:300007595"
        ],
        "id": 7479175,
        "name:xx": "Zhenhai Gong"
      }
    },
    {
      "geometry": {
        "type": "Point",
        "coordinates": [
          120.100556,
          23.0725
        ]
      },
      "type": "Feature",
      "properties": {
        "hierarchy": [
          "tgn:7479176",
          "tgn:1000004",
          "tgn:7490934",
          "tgn:1000141",
          "tgn:7029392"
        ],
        "placetype": [
          "aat:300007595"
        ],
        "id": 7479176,
        "name:xx": "Beishanwei Chenghuangmiao"
      }
    },
    {
      "geometry": {
        "type": "Point",
        "coordinates": [
          120.1275,
          23.068056
        ]
      },
      "type": "Feature",
      "properties": {
        "hierarchy": [
          "tgn:7479177",
          "tgn:1000004",
          "tgn:7490934",
          "tgn:1000141",
          "tgn:7029392"
        ],
        "placetype": [
          "aat:300007595"
        ],
        "id": 7479177,
        "name:xx": "Shengmu Miao"
      }
    },
    {
      "geometry": {
        "type": "Point",
        "coordinates": [
          120.236111,
          23.008056
        ]
      },
      "type": "Feature",
      "properties": {
        "hierarchy": [
          "tgn:7479178",
          "tgn:1000004",
          "tgn:7490934",
          "tgn:1000141",
          "tgn:7029392"
        ],
        "placetype": [
          "aat:300007595"
        ],
        "id": 7479178,
        "name:xx": "Wuwang Gong"
      }
    },
    {
      "geometry": {
        "type": "Point",
        "coordinates": [
          120.178333,
          23.012778
        ]
      },
      "type": "Feature",
      "properties": {
        "hierarchy": [
          "tgn:7479179",
          "tgn:1000004",
          "tgn:7490934",
          "tgn:1000141",
          "tgn:7029392"
        ],
        "placetype": [
          "aat:300007595"
        ],
        "id": 7479179,
        "name:xx": "Chenghuang Miao"
      }
    }
  ]
}
