{
  "type": "FeatureCollection",
  "features": [
    {
      "geometry": {
        "type": "Point",
        "coordinates": [
          120.517639,
          23.760594
        ]
      },
      "type": "Feature",
      "properties": {
        "hierarchy": [
          "tgn:7475640",
          "tgn:1000004",
          "tgn:7001014",
          "tgn:1000141",
          "tgn:7029392"
        ],
        "placetype": [
          "aat:300007836"
        ],
        "id": 7475640,
        "name:xx": "Xiamayuan Qiao"
      }
    },
    {
      "geometry": {
        "type": "Point",
        "coordinates": [
          120.569466,
          23.970627
        ]
      },
      "type": "Feature",
      "properties": {
        "hierarchy": [
          "tgn:7475641",
          "tgn:1000004",
          "tgn:7467799",
          "tgn:1000141",
          "tgn:7029392"
        ],
        "placetype": [
          "aat:300007836"
        ],
        "id": 7475641,
        "name:xx": "Yuanlin Luqiao"
      }
    },
    {
      "geometry": {
        "type": "Point",
        "coordinates": [
          120.62948,
          23.80946
        ]
      },
      "type": "Feature",
      "properties": {
        "hierarchy": [
          "tgn:7475642",
          "tgn:1000004",
          "tgn:7467799",
          "tgn:1000141",
          "tgn:7029392"
        ],
        "placetype": [
          "aat:300007836"
        ],
        "id": 7475642,
        "name:xx": "Liukeng Qiao"
      }
    },
    {
      "geometry": {
        "type": "Point",
        "coordinates": [
          120.609891,
          23.822525
        ]
      },
      "type": "Feature",
      "properties": {
        "hierarchy": [
          "tgn:7475643",
          "tgn:1000004",
          "tgn:7467799",
          "tgn:1000141",
          "tgn:7029392"
        ],
        "placetype": [
          "aat:300007836"
        ],
        "id": 7475643,
        "name:xx": "Dafeng Qiao"
      }
    },
    {
      "geometry": {
        "type": "Point",
        "coordinates": [
          120.528721,
          23.783514
        ]
      },
      "type": "Feature",
      "properties": {
        "hierarchy": [
          "tgn:7475644",
          "tgn:1000004",
          "tgn:7001014",
          "tgn:1000141",
          "tgn:7029392"
        ],
        "placetype": [
          "aat:300006156"
        ],
        "id": 7475644,
        "name:xx": "Mayuan Ti"
      }
    },
    {
      "geometry": {
        "type": "Point",
        "coordinates": [
          120.6408,
          23.7748
        ]
      },
      "type": "Feature",
      "properties": {
        "hierarchy": [
          "tgn:7475645",
          "tgn:7488858",
          "tgn:1000004",
          "tgn:1000141",
          "tgn:7029392"
        ],
        "placetype": [
          "aat:300006156"
        ],
        "id": 7475645,
        "name:xx": "Linnei Tifang"
      }
    },
    {
      "geometry": {
        "type": "Point",
        "coordinates": [
          120.61,
          23.8128
        ]
      },
      "type": "Feature",
      "properties": {
        "hierarchy": [
          "tgn:7475646",
          "tgn:1000004",
          "tgn:7467799",
          "tgn:1000141",
          "tgn:7029392"
        ],
        "placetype": [
          "aat:300006156"
        ],
        "id": 7475646,
        "name:xx": "Ershui Tifang"
      }
    },
    {
      "geometry": {
        "type": "Point",
        "coordinates": [
          120.642566,
          23.772976
        ]
      },
      "type": "Feature",
      "properties": {
        "hierarchy": [
          "tgn:7475647",
          "tgn:7488858",
          "tgn:1000004",
          "tgn:1000141",
          "tgn:7029392"
        ],
        "placetype": [
          "aat:300008699"
        ],
        "id": 7475647,
        "name:xx": "Pingding Xi"
      }
    },
    {
      "geometry": {
        "type": "Point",
        "coordinates": [
          120.522206,
          23.848258
        ]
      },
      "type": "Feature",
      "properties": {
        "hierarchy": [
          "tgn:7475648",
          "tgn:1000004",
          "tgn:7467799",
          "tgn:1000141",
          "tgn:7029392"
        ],
        "placetype": [
          "aat:300008688"
        ],
        "id": 7475648,
        "name:xx": "Baodao Dayuchi"
      }
    },
    {
      "geometry": {
        "type": "Point",
        "coordinates": [
          120.512582,
          23.750681
        ]
      },
      "type": "Feature",
      "properties": {
        "hierarchy": [
          "tgn:7475649",
          "tgn:1000004",
          "tgn:7001014",
          "tgn:1000141",
          "tgn:7029392"
        ],
        "placetype": [
          "aat:300007836"
        ],
        "id": 7475649,
        "name:xx": "Nancun Qiao"
      }
    }
  ]
}
