{
  "type": "FeatureCollection",
  "features": [
    {
      "geometry": {
        "type": "Point",
        "coordinates": [
          120.72,
          22.284167
        ]
      },
      "type": "Feature",
      "properties": {
        "hierarchy": [
          "tgn:7484390",
          "tgn:1000004",
          "tgn:7492971",
          "tgn:1000141",
          "tgn:7029392"
        ],
        "placetype": [
          "aat:300007899"
        ],
        "id": 7484390,
        "name:xx": "Fangye Erhao Suidao"
      }
    },
    {
      "geometry": {
        "type": "Point",
        "coordinates": [
          120.730278,
          22.269444
        ]
      },
      "type": "Feature",
      "properties": {
        "hierarchy": [
          "tgn:7484391",
          "tgn:1000004",
          "tgn:7492971",
          "tgn:1000141",
          "tgn:7029392"
        ],
        "placetype": [
          "aat:300386990"
        ],
        "id": 7484391,
        "name:xx": "Mingming Muyangchang"
      }
    },
    {
      "geometry": {
        "type": "Point",
        "coordinates": [
          120.591389,
          22.432778
        ]
      },
      "type": "Feature",
      "properties": {
        "hierarchy": [
          "tgn:7484392",
          "tgn:1000004",
          "tgn:7492971",
          "tgn:1000141",
          "tgn:7029392"
        ],
        "placetype": [
          "aat:300387033"
        ],
        "id": 7484392,
        "name:xx": "Daxiangying"
      }
    },
    {
      "geometry": {
        "type": "Point",
        "coordinates": [
          120.595,
          22.417778
        ]
      },
      "type": "Feature",
      "properties": {
        "hierarchy": [
          "tgn:7484393",
          "tgn:1000004",
          "tgn:7492971",
          "tgn:1000141",
          "tgn:7029392"
        ],
        "placetype": [
          "aat:300000206"
        ],
        "id": 7484393,
        "name:xx": "Taitang Taiyuan Nongchang"
      }
    },
    {
      "geometry": {
        "type": "Point",
        "coordinates": [
          120.593889,
          22.406389
        ]
      },
      "type": "Feature",
      "properties": {
        "hierarchy": [
          "tgn:7484394",
          "tgn:1000004",
          "tgn:7492971",
          "tgn:1000141",
          "tgn:7029392"
        ],
        "placetype": [
          "aat:300006495"
        ],
        "id": 7484394,
        "name:xx": "Donghai Guoxiao Fenxiao"
      }
    },
    {
      "geometry": {
        "type": "Point",
        "coordinates": [
          120.591111,
          23.081389
        ]
      },
      "type": "Feature",
      "properties": {
        "hierarchy": [
          "tgn:7484395",
          "tgn:7001004",
          "tgn:1000004",
          "tgn:1000141",
          "tgn:7029392"
        ],
        "placetype": [
          "aat:300008187"
        ],
        "id": 7484395,
        "name:xx": "Jiaxian Gongyuan"
      }
    },
    {
      "geometry": {
        "type": "Point",
        "coordinates": [
          120.596389,
          23.075278
        ]
      },
      "type": "Feature",
      "properties": {
        "hierarchy": [
          "tgn:7484397",
          "tgn:7001004",
          "tgn:1000004",
          "tgn:1000141",
          "tgn:7029392"
        ],
        "placetype": [
          "aat:300008347"
        ],
        "id": 7484397,
        "name:xx": "Renfushan"
      }
    },
    {
      "geometry": {
        "type": "Point",
        "coordinates": [
          120.594444,
          23.070833
        ]
      },
      "type": "Feature",
      "properties": {
        "hierarchy": [
          "tgn:7484398",
          "tgn:7001004",
          "tgn:1000004",
          "tgn:1000141",
          "tgn:7029392"
        ],
        "placetype": [
          "aat:300008798"
        ],
        "id": 7484398,
        "name:xx": "Jiaxianbu Shan"
      }
    },
    {
      "geometry": {
        "type": "Point",
        "coordinates": [
          120.611944,
          23.074722
        ]
      },
      "type": "Feature",
      "properties": {
        "hierarchy": [
          "tgn:7484399",
          "tgn:7001004",
          "tgn:1000004",
          "tgn:1000141",
          "tgn:7029392"
        ],
        "placetype": [
          "aat:300008347"
        ],
        "id": 7484399,
        "name:xx": "Kafeixiang"
      }
    }
  ]
}
