{
  "type": "FeatureCollection",
  "features": [
    {
      "geometry": {
        "type": "Point",
        "coordinates": [
          120.469722,
          22.930556
        ]
      },
      "type": "Feature",
      "properties": {
        "hierarchy": [
          "tgn:7503580",
          "tgn:7001004",
          "tgn:1000004",
          "tgn:1000141",
          "tgn:7029392"
        ],
        "placetype": [
          "aat:300008347"
        ],
        "id": 7503580,
        "name:xx": "Wujia'er"
      }
    },
    {
      "geometry": {
        "type": "Point",
        "coordinates": [
          120.458611,
          22.921111
        ]
      },
      "type": "Feature",
      "properties": {
        "hierarchy": [
          "tgn:7503581",
          "tgn:7001004",
          "tgn:1000004",
          "tgn:1000141",
          "tgn:7029392"
        ],
        "placetype": [
          "aat:300008347"
        ],
        "id": 7503581,
        "name:xx": "Qixingyang"
      }
    },
    {
      "geometry": {
        "type": "Point",
        "coordinates": [
          120.470833,
          22.923889
        ]
      },
      "type": "Feature",
      "properties": {
        "hierarchy": [
          "tgn:7503582",
          "tgn:7001004",
          "tgn:1000004",
          "tgn:1000141",
          "tgn:7029392"
        ],
        "placetype": [
          "aat:300008347"
        ],
        "id": 7503582,
        "name:xx": "Hunei"
      }
    },
    {
      "geometry": {
        "type": "Point",
        "coordinates": [
          120.482778,
          22.925278
        ]
      },
      "type": "Feature",
      "properties": {
        "hierarchy": [
          "tgn:7503583",
          "tgn:7001004",
          "tgn:1000004",
          "tgn:1000141",
          "tgn:7029392"
        ],
        "placetype": [
          "aat:300008777"
        ],
        "id": 7503583,
        "name:xx": "Da Shan"
      }
    },
    {
      "geometry": {
        "type": "Point",
        "coordinates": [
          120.473333,
          22.94
        ]
      },
      "type": "Feature",
      "properties": {
        "hierarchy": [
          "tgn:7503584",
          "tgn:7001004",
          "tgn:1000004",
          "tgn:1000141",
          "tgn:7029392"
        ],
        "placetype": [
          "aat:300008347"
        ],
        "id": 7503584,
        "name:xx": "Zhongmu"
      }
    },
    {
      "geometry": {
        "type": "Point",
        "coordinates": [
          120.479722,
          22.941944
        ]
      },
      "type": "Feature",
      "properties": {
        "hierarchy": [
          "tgn:7503585",
          "tgn:7001004",
          "tgn:1000004",
          "tgn:1000141",
          "tgn:7029392"
        ],
        "placetype": [
          "aat:300008777"
        ],
        "id": 7503585,
        "name:xx": "Nanlong Shan"
      }
    },
    {
      "geometry": {
        "type": "Point",
        "coordinates": [
          120.471389,
          22.966111
        ]
      },
      "type": "Feature",
      "properties": {
        "hierarchy": [
          "tgn:7503586",
          "tgn:7001004",
          "tgn:1000004",
          "tgn:1000141",
          "tgn:7029392"
        ],
        "placetype": [
          "aat:300008347"
        ],
        "id": 7503586,
        "name:xx": "Suyuanbu"
      }
    },
    {
      "geometry": {
        "type": "Point",
        "coordinates": [
          120.486111,
          22.970278
        ]
      },
      "type": "Feature",
      "properties": {
        "hierarchy": [
          "tgn:7503587",
          "tgn:7001004",
          "tgn:1000004",
          "tgn:1000141",
          "tgn:7029392"
        ],
        "placetype": [
          "aat:300008795"
        ],
        "id": 7503587,
        "name:xx": "Jinshuiliao"
      }
    },
    {
      "geometry": {
        "type": "Point",
        "coordinates": [
          120.486667,
          22.968611
        ]
      },
      "type": "Feature",
      "properties": {
        "hierarchy": [
          "tgn:7503588",
          "tgn:7001004",
          "tgn:1000004",
          "tgn:1000141",
          "tgn:7029392"
        ],
        "placetype": [
          "aat:300266640"
        ],
        "id": 7503588,
        "name:xx": "Long Shan"
      }
    },
    {
      "geometry": {
        "type": "Point",
        "coordinates": [
          120.446667,
          22.885556
        ]
      },
      "type": "Feature",
      "properties": {
        "hierarchy": [
          "tgn:7503589",
          "tgn:7001004",
          "tgn:1000004",
          "tgn:1000141",
          "tgn:7029392"
        ],
        "placetype": [
          "aat:300008347"
        ],
        "id": 7503589,
        "name:xx": "Qitingxiang"
      }
    }
  ]
}
