{
  "type": "FeatureCollection",
  "features": [
    {
      "geometry": {
        "type": "Point",
        "coordinates": [
          120.933001,
          24.707917
        ]
      },
      "type": "Feature",
      "properties": {
        "hierarchy": [
          "tgn:7475720",
          "tgn:1000004",
          "tgn:7471332",
          "tgn:1000141",
          "tgn:7029392"
        ],
        "placetype": [
          "aat:300008347"
        ],
        "id": 7475720,
        "name:xx": "Xiaping"
      }
    },
    {
      "geometry": {
        "type": "Point",
        "coordinates": [
          120.9126,
          24.7162
        ]
      },
      "type": "Feature",
      "properties": {
        "hierarchy": [
          "tgn:7475721",
          "tgn:1000004",
          "tgn:7471332",
          "tgn:1000141",
          "tgn:7029392"
        ],
        "placetype": [
          "aat:300387302"
        ],
        "id": 7475721,
        "name:xx": "Dabu Gongyequ"
      }
    },
    {
      "geometry": {
        "type": "Point",
        "coordinates": [
          120.6824,
          23.752177
        ]
      },
      "type": "Feature",
      "properties": {
        "hierarchy": [
          "tgn:7475722",
          "tgn:7488858",
          "tgn:1000004",
          "tgn:1000141",
          "tgn:7029392"
        ],
        "placetype": [
          "aat:300006495"
        ],
        "id": 7475722,
        "name:xx": "Yanhe Guozhong"
      }
    },
    {
      "geometry": {
        "type": "Point",
        "coordinates": [
          120.680534,
          23.760045
        ]
      },
      "type": "Feature",
      "properties": {
        "hierarchy": [
          "tgn:7475724",
          "tgn:7488858",
          "tgn:1000004",
          "tgn:1000141",
          "tgn:7029392"
        ],
        "placetype": [
          "aat:300006495"
        ],
        "id": 7475724,
        "name:xx": "Zhushan Gaozhong"
      }
    },
    {
      "geometry": {
        "type": "Point",
        "coordinates": [
          120.677411,
          23.756018
        ]
      },
      "type": "Feature",
      "properties": {
        "hierarchy": [
          "tgn:7475725",
          "tgn:7488858",
          "tgn:1000004",
          "tgn:1000141",
          "tgn:7029392"
        ],
        "placetype": [
          "aat:300006495"
        ],
        "id": 7475725,
        "name:xx": "Yunlin Guoxiao"
      }
    },
    {
      "geometry": {
        "type": "Point",
        "coordinates": [
          120.669939,
          23.753947
        ]
      },
      "type": "Feature",
      "properties": {
        "hierarchy": [
          "tgn:7475726",
          "tgn:7488858",
          "tgn:1000004",
          "tgn:1000141",
          "tgn:7029392"
        ],
        "placetype": [
          "aat:300008347"
        ],
        "id": 7475726,
        "name:xx": "Shentan"
      }
    },
    {
      "geometry": {
        "type": "Point",
        "coordinates": [
          120.668039,
          23.757664
        ]
      },
      "type": "Feature",
      "properties": {
        "hierarchy": [
          "tgn:7475727",
          "tgn:7488858",
          "tgn:1000004",
          "tgn:1000141",
          "tgn:7029392"
        ],
        "placetype": [
          "aat:300006495"
        ],
        "id": 7475727,
        "name:xx": "Zhonghe Guoxiao"
      }
    },
    {
      "geometry": {
        "type": "Point",
        "coordinates": [
          120.640065,
          23.756686
        ]
      },
      "type": "Feature",
      "properties": {
        "hierarchy": [
          "tgn:7475729",
          "tgn:7488858",
          "tgn:1000004",
          "tgn:1000141",
          "tgn:7029392"
        ],
        "placetype": [
          "aat:300006495"
        ],
        "id": 7475729,
        "name:xx": "Chenggong Guoxiao"
      }
    }
  ]
}
