{
  "type": "FeatureCollection",
  "features": [
    {
      "geometry": {
        "type": "Point",
        "coordinates": [
          -99.25,
          21.5625
        ]
      },
      "type": "Feature",
      "properties": {
        "hierarchy": [
          "tgn:7400120",
          "tgn:1000001",
          "tgn:7005593",
          "tgn:7005560",
          "tgn:7029392"
        ],
        "placetype": [
          "aat:300008347"
        ],
        "id": 7400120,
        "name:xx": "El Rodeo"
      }
    },
    {
      "geometry": {
        "type": "Point",
        "coordinates": [
          -99.194444,
          21.552778
        ]
      },
      "type": "Feature",
      "properties": {
        "hierarchy": [
          "tgn:7400121",
          "tgn:1000001",
          "tgn:7005593",
          "tgn:7005560",
          "tgn:7029392"
        ],
        "placetype": [
          "aat:300008347"
        ],
        "id": 7400121,
        "name:xx": "Ojo de Agua de San Francisco"
      }
    },
    {
      "geometry": {
        "type": "Point",
        "coordinates": [
          -99.198611,
          21.593056
        ]
      },
      "type": "Feature",
      "properties": {
        "hierarchy": [
          "tgn:7400122",
          "tgn:1000001",
          "tgn:7005593",
          "tgn:7005560",
          "tgn:7029392"
        ],
        "placetype": [
          "aat:300008347"
        ],
        "id": 7400122,
        "name:xx": "Laguna de San Martín"
      }
    },
    {
      "geometry": {
        "type": "Point",
        "coordinates": [
          -99.225,
          21.616667
        ]
      },
      "type": "Feature",
      "properties": {
        "hierarchy": [
          "tgn:7400123",
          "tgn:1000001",
          "tgn:7005593",
          "tgn:7005560",
          "tgn:7029392"
        ],
        "placetype": [
          "aat:300008767"
        ],
        "id": 7400123,
        "name:xx": "Carrizal, Barranca"
      }
    },
    {
      "geometry": {
        "type": "Point",
        "coordinates": [
          -99.216667,
          21.627778
        ]
      },
      "type": "Feature",
      "properties": {
        "hierarchy": [
          "tgn:7400124",
          "tgn:1000001",
          "tgn:7005593",
          "tgn:7005560",
          "tgn:7029392"
        ],
        "placetype": [
          "aat:300008347"
        ],
        "id": 7400124,
        "name:xx": "Tanquizul"
      }
    },
    {
      "geometry": {
        "type": "Point",
        "coordinates": [
          -99.220833,
          21.6375
        ]
      },
      "type": "Feature",
      "properties": {
        "hierarchy": [
          "tgn:7400125",
          "tgn:1000001",
          "tgn:7005593",
          "tgn:7005560",
          "tgn:7029392"
        ],
        "placetype": [
          "aat:300008347"
        ],
        "id": 7400125,
        "name:xx": "Tanchabaquito"
      }
    },
    {
      "geometry": {
        "type": "Point",
        "coordinates": [
          -99.2625,
          21.595833
        ]
      },
      "type": "Feature",
      "properties": {
        "hierarchy": [
          "tgn:7400126",
          "tgn:1000001",
          "tgn:7005593",
          "tgn:7005560",
          "tgn:7029392"
        ],
        "placetype": [
          "aat:300008347"
        ],
        "id": 7400126,
        "name:xx": "Tapanquito"
      }
    },
    {
      "geometry": {
        "type": "Point",
        "coordinates": [
          -99.252778,
          21.575
        ]
      },
      "type": "Feature",
      "properties": {
        "hierarchy": [
          "tgn:7400127",
          "tgn:1000001",
          "tgn:7005593",
          "tgn:7005560",
          "tgn:7029392"
        ],
        "placetype": [
          "aat:300008347"
        ],
        "id": 7400127,
        "name:xx": "Laguna del Hueso"
      }
    },
    {
      "geometry": {
        "type": "Point",
        "coordinates": [
          -99.279167,
          21.566667
        ]
      },
      "type": "Feature",
      "properties": {
        "hierarchy": [
          "tgn:7400128",
          "tgn:1000001",
          "tgn:7005593",
          "tgn:7005560",
          "tgn:7029392"
        ],
        "placetype": [
          "aat:300008699"
        ],
        "id": 7400128,
        "name:xx": "El Venado, Río"
      }
    },
    {
      "geometry": {
        "type": "Point",
        "coordinates": [
          -99.2625,
          21.533333
        ]
      },
      "type": "Feature",
      "properties": {
        "hierarchy": [
          "tgn:7400129",
          "tgn:1000001",
          "tgn:7005593",
          "tgn:7005560",
          "tgn:7029392"
        ],
        "placetype": [
          "aat:300008347"
        ],
        "id": 7400129,
        "name:xx": "Jagüeycito"
      }
    }
  ]
}
