{
  "type": "FeatureCollection",
  "features": [
    {
      "geometry": {
        "type": "Point",
        "coordinates": [
          79.122576,
          24.035566
        ]
      },
      "type": "Feature",
      "properties": {
        "hierarchy": [
          "tgn:7563560",
          "tgn:1000004",
          "tgn:7000198",
          "tgn:1001894",
          "tgn:7029392"
        ],
        "placetype": [
          "aat:300008347"
        ],
        "name:en": "Tarauli",
        "id": 7563560
      }
    },
    {
      "geometry": {
        "type": "Point",
        "coordinates": [
          79.123671,
          24.039199
        ]
      },
      "type": "Feature",
      "properties": {
        "hierarchy": [
          "tgn:7563561",
          "tgn:1000004",
          "tgn:7000198",
          "tgn:1001894",
          "tgn:7029392"
        ],
        "placetype": [
          "aat:300008347"
        ],
        "name:en": "Avadāpur",
        "id": 7563561
      }
    },
    {
      "geometry": {
        "type": "Point",
        "coordinates": [
          79.122535,
          24.044087
        ]
      },
      "type": "Feature",
      "properties": {
        "hierarchy": [
          "tgn:7563562",
          "tgn:1000004",
          "tgn:7000198",
          "tgn:1001894",
          "tgn:7029392"
        ],
        "placetype": [
          "aat:300008347"
        ],
        "name:en": "Atāri",
        "id": 7563562
      }
    },
    {
      "geometry": {
        "type": "Point",
        "coordinates": [
          79.151386,
          24.031811
        ]
      },
      "type": "Feature",
      "properties": {
        "hierarchy": [
          "tgn:7563563",
          "tgn:1000004",
          "tgn:7000198",
          "tgn:1001894",
          "tgn:7029392"
        ],
        "placetype": [
          "aat:300008347"
        ],
        "name:en": "Bara",
        "id": 7563563
      }
    },
    {
      "geometry": {
        "type": "Point",
        "coordinates": [
          79.173576,
          24.03965
        ]
      },
      "type": "Feature",
      "properties": {
        "hierarchy": [
          "tgn:7563564",
          "tgn:1000004",
          "tgn:7000198",
          "tgn:1001894",
          "tgn:7029392"
        ],
        "placetype": [
          "aat:300008347"
        ],
        "name:en": "Niwāri",
        "id": 7563564
      }
    },
    {
      "geometry": {
        "type": "Point",
        "coordinates": [
          79.229848,
          24.030094
        ]
      },
      "type": "Feature",
      "properties": {
        "hierarchy": [
          "tgn:7563565",
          "tgn:1000004",
          "tgn:7000198",
          "tgn:1001894",
          "tgn:7029392"
        ],
        "placetype": [
          "aat:300008347"
        ],
        "name:en": "Kirola",
        "id": 7563565
      }
    },
    {
      "geometry": {
        "type": "Point",
        "coordinates": [
          79.238615,
          24.029008
        ]
      },
      "type": "Feature",
      "properties": {
        "hierarchy": [
          "tgn:7563566",
          "tgn:1000004",
          "tgn:7000198",
          "tgn:1001894",
          "tgn:7029392"
        ],
        "placetype": [
          "aat:300167671"
        ],
        "name:en": "Gugri",
        "id": 7563566
      }
    },
    {
      "geometry": {
        "type": "Point",
        "coordinates": [
          79.2234,
          24.044603
        ]
      },
      "type": "Feature",
      "properties": {
        "hierarchy": [
          "tgn:7563567",
          "tgn:1000004",
          "tgn:7000198",
          "tgn:1001894",
          "tgn:7029392"
        ],
        "placetype": [
          "aat:300008347"
        ],
        "name:en": "Gūgra Kalān",
        "id": 7563567
      }
    },
    {
      "geometry": {
        "type": "Point",
        "coordinates": [
          79.167013,
          24.059721
        ]
      },
      "type": "Feature",
      "properties": {
        "hierarchy": [
          "tgn:7563568",
          "tgn:1000004",
          "tgn:7000198",
          "tgn:1001894",
          "tgn:7029392"
        ],
        "placetype": [
          "aat:300167671"
        ],
        "name:en": "Panchamnagar",
        "id": 7563568
      }
    },
    {
      "geometry": {
        "type": "Point",
        "coordinates": [
          79.167399,
          24.073424
        ]
      },
      "type": "Feature",
      "properties": {
        "hierarchy": [
          "tgn:7563569",
          "tgn:1000004",
          "tgn:7000198",
          "tgn:1001894",
          "tgn:7029392"
        ],
        "placetype": [
          "aat:300008865"
        ],
        "name:en": "Panchamnagar Reserved Forest",
        "id": 7563569
      }
    }
  ]
}
