{
  "type": "FeatureCollection",
  "features": [
    {
      "geometry": {
        "type": "Point",
        "coordinates": [
          6.031111,
          50.207778
        ]
      },
      "type": "Feature",
      "properties": {
        "hierarchy": [
          "tgn:7239320",
          "tgn:7003460",
          "tgn:1000003",
          "tgn:1000063",
          "tgn:4012014",
          "tgn:7029392"
        ],
        "placetype": [
          "aat:300008777"
        ],
        "id": 7239320,
        "name:xx": "Heckenberg"
      }
    },
    {
      "geometry": {
        "type": "Point",
        "coordinates": [
          6.033333,
          50.266667
        ]
      },
      "type": "Feature",
      "properties": {
        "hierarchy": [
          "tgn:7239321",
          "tgn:7003460",
          "tgn:1000003",
          "tgn:1000063",
          "tgn:4012014",
          "tgn:7029392"
        ],
        "placetype": [
          "aat:300008347"
        ],
        "id": 7239321,
        "name:xx": "Hecken"
      }
    },
    {
      "geometry": {
        "type": "Point",
        "coordinates": [
          5.866667,
          49.716667
        ]
      },
      "type": "Feature",
      "properties": {
        "hierarchy": [
          "tgn:7239322",
          "tgn:7003465",
          "tgn:1000003",
          "tgn:1000063",
          "tgn:4012014",
          "tgn:7029392"
        ],
        "placetype": [
          "aat:300008347"
        ],
        "id": 7239322,
        "name:xx": "Heckbous"
      }
    },
    {
      "geometry": {
        "type": "Point",
        "coordinates": [
          5.333333,
          51.116667
        ]
      },
      "type": "Feature",
      "properties": {
        "hierarchy": [
          "tgn:7239323",
          "tgn:7003461",
          "tgn:1000003",
          "tgn:1000063",
          "tgn:7018236",
          "tgn:7029392"
        ],
        "placetype": [
          "aat:300386887"
        ],
        "id": 7239323,
        "name:xx": "Hechtelse Heide"
      }
    },
    {
      "geometry": {
        "type": "Point",
        "coordinates": [
          4.641677,
          51.384963
        ]
      },
      "type": "Feature",
      "properties": {
        "hierarchy": [
          "tgn:7239326",
          "tgn:7003456",
          "tgn:1000003",
          "tgn:1000063",
          "tgn:7018236",
          "tgn:7029392"
        ],
        "placetype": [
          "aat:300008347"
        ],
        "id": 7239326,
        "name:xx": "Hecht"
      }
    },
    {
      "geometry": {
        "type": "Point",
        "coordinates": [
          5.816667,
          50.25
        ]
      },
      "type": "Feature",
      "properties": {
        "hierarchy": [
          "tgn:7239327",
          "tgn:7003465",
          "tgn:1000003",
          "tgn:1000063",
          "tgn:4012014",
          "tgn:7029392"
        ],
        "placetype": [
          "aat:300008347"
        ],
        "id": 7239327,
        "name:xx": "Hebronval"
      }
    },
    {
      "geometry": {
        "type": "Point",
        "coordinates": [
          5.15,
          50.583333
        ]
      },
      "type": "Feature",
      "properties": {
        "hierarchy": [
          "tgn:7239328",
          "tgn:7003460",
          "tgn:1000003",
          "tgn:1000063",
          "tgn:4012014",
          "tgn:7029392"
        ],
        "placetype": [
          "aat:300008347"
        ],
        "id": 7239328,
        "name:xx": "Hebret"
      }
    },
    {
      "geometry": {
        "type": "Point",
        "coordinates": [
          4.146519,
          51.066667
        ]
      },
      "type": "Feature",
      "properties": {
        "hierarchy": [
          "tgn:7239329",
          "tgn:7003457",
          "tgn:1000003",
          "tgn:1000063",
          "tgn:7018236",
          "tgn:7029392"
        ],
        "placetype": [
          "aat:300008347"
        ],
        "id": 7239329,
        "name:xx": "Hebbe"
      }
    }
  ]
}
