{
  "type": "FeatureCollection",
  "features": [
    {
      "geometry": {
        "type": "Point",
        "coordinates": [
          121.177778,
          24.860556
        ]
      },
      "type": "Feature",
      "properties": {
        "hierarchy": [
          "tgn:7481920",
          "tgn:1000004",
          "tgn:7001013",
          "tgn:1000141",
          "tgn:7029392"
        ],
        "placetype": [
          "aat:300008795"
        ],
        "id": 7481920,
        "name:xx": "Fanziwo Shan"
      }
    },
    {
      "geometry": {
        "type": "Point",
        "coordinates": [
          121.098889,
          24.861667
        ]
      },
      "type": "Feature",
      "properties": {
        "hierarchy": [
          "tgn:7481921",
          "tgn:1000004",
          "tgn:7471332",
          "tgn:1000141",
          "tgn:7029392"
        ],
        "placetype": [
          "aat:300008777"
        ],
        "id": 7481921,
        "name:xx": "Zhaomen Shan"
      }
    },
    {
      "geometry": {
        "type": "Point",
        "coordinates": [
          121.110556,
          24.862778
        ]
      },
      "type": "Feature",
      "properties": {
        "hierarchy": [
          "tgn:7481922",
          "tgn:1000004",
          "tgn:7471332",
          "tgn:1000141",
          "tgn:7029392"
        ],
        "placetype": [
          "aat:300008777"
        ],
        "id": 7481922,
        "name:xx": "Zhaojing Shan"
      }
    },
    {
      "geometry": {
        "type": "Point",
        "coordinates": [
          121.195278,
          24.968056
        ]
      },
      "type": "Feature",
      "properties": {
        "hierarchy": [
          "tgn:7481923",
          "tgn:1000004",
          "tgn:7001013",
          "tgn:1000141",
          "tgn:7029392"
        ],
        "placetype": [
          "aat:300387033"
        ],
        "id": 7481923,
        "name:xx": "Sanzuo Shan"
      }
    },
    {
      "geometry": {
        "type": "Point",
        "coordinates": [
          121.226111,
          24.976111
        ]
      },
      "type": "Feature",
      "properties": {
        "hierarchy": [
          "tgn:7481924",
          "tgn:1000004",
          "tgn:7001013",
          "tgn:1000141",
          "tgn:7029392"
        ],
        "placetype": [
          "aat:300387033"
        ],
        "id": 7481924,
        "name:xx": "Shuiwei"
      }
    },
    {
      "geometry": {
        "type": "Point",
        "coordinates": [
          121.241111,
          24.768611
        ]
      },
      "type": "Feature",
      "properties": {
        "hierarchy": [
          "tgn:7481925",
          "tgn:1000004",
          "tgn:7471332",
          "tgn:1000141",
          "tgn:7029392"
        ],
        "placetype": [
          "aat:300008798"
        ],
        "id": 7481925,
        "name:xx": "Tangliao Shan"
      }
    },
    {
      "geometry": {
        "type": "Point",
        "coordinates": [
          121.237222,
          24.756111
        ]
      },
      "type": "Feature",
      "properties": {
        "hierarchy": [
          "tgn:7481926",
          "tgn:1000004",
          "tgn:7471332",
          "tgn:1000141",
          "tgn:7029392"
        ],
        "placetype": [
          "aat:300008798"
        ],
        "id": 7481926,
        "name:xx": "Dapingding Shan"
      }
    },
    {
      "geometry": {
        "type": "Point",
        "coordinates": [
          121.255833,
          24.7725
        ]
      },
      "type": "Feature",
      "properties": {
        "hierarchy": [
          "tgn:7481927",
          "tgn:1000004",
          "tgn:7471332",
          "tgn:1000141",
          "tgn:7029392"
        ],
        "placetype": [
          "aat:300008798"
        ],
        "id": 7481927,
        "name:xx": "Erwanwo Shan"
      }
    },
    {
      "geometry": {
        "type": "Point",
        "coordinates": [
          121.224722,
          24.763333
        ]
      },
      "type": "Feature",
      "properties": {
        "hierarchy": [
          "tgn:7481928",
          "tgn:1000004",
          "tgn:7471332",
          "tgn:1000141",
          "tgn:7029392"
        ],
        "placetype": [
          "aat:300008795"
        ],
        "id": 7481928,
        "name:xx": "Jin Shan"
      }
    },
    {
      "geometry": {
        "type": "Point",
        "coordinates": [
          121.219444,
          24.759167
        ]
      },
      "type": "Feature",
      "properties": {
        "hierarchy": [
          "tgn:7481929",
          "tgn:1000004",
          "tgn:7471332",
          "tgn:1000141",
          "tgn:7029392"
        ],
        "placetype": [
          "aat:300008795"
        ],
        "id": 7481929,
        "name:xx": "Baishixia Shan"
      }
    }
  ]
}
