{
  "type": "FeatureCollection",
  "features": [
    {
      "geometry": {
        "type": "Point",
        "coordinates": [
          121.87999,
          25.020976
        ]
      },
      "type": "Feature",
      "properties": {
        "hierarchy": [
          "tgn:7477830",
          "tgn:1000004",
          "tgn:1000454",
          "tgn:1000141",
          "tgn:7029392"
        ],
        "placetype": [
          "aat:300007836"
        ],
        "id": 7477830,
        "name:xx": "Gongguan Daqiao"
      }
    },
    {
      "geometry": {
        "type": "Point",
        "coordinates": [
          121.791205,
          25.02276
        ]
      },
      "type": "Feature",
      "properties": {
        "hierarchy": [
          "tgn:7477831",
          "tgn:1000004",
          "tgn:1000454",
          "tgn:1000141",
          "tgn:7029392"
        ],
        "placetype": [
          "aat:300008798"
        ],
        "id": 7477831,
        "name:xx": "Dakeng Shan"
      }
    },
    {
      "geometry": {
        "type": "Point",
        "coordinates": [
          121.816618,
          25.017124
        ]
      },
      "type": "Feature",
      "properties": {
        "hierarchy": [
          "tgn:7477832",
          "tgn:1000004",
          "tgn:1000454",
          "tgn:1000141",
          "tgn:7029392"
        ],
        "placetype": [
          "aat:300387002"
        ],
        "id": 7477832,
        "name:xx": "Dong Shan"
      }
    },
    {
      "geometry": {
        "type": "Point",
        "coordinates": [
          121.823888,
          25.027636
        ]
      },
      "type": "Feature",
      "properties": {
        "hierarchy": [
          "tgn:7477833",
          "tgn:1000004",
          "tgn:1000454",
          "tgn:1000141",
          "tgn:7029392"
        ],
        "placetype": [
          "aat:300008347"
        ],
        "id": 7477833,
        "name:xx": "Wanqiong"
      }
    },
    {
      "geometry": {
        "type": "Point",
        "coordinates": [
          121.758777,
          25.017562
        ]
      },
      "type": "Feature",
      "properties": {
        "hierarchy": [
          "tgn:7477834",
          "tgn:1000004",
          "tgn:1000454",
          "tgn:1000141",
          "tgn:7029392"
        ],
        "placetype": [
          "aat:300008798"
        ],
        "id": 7477834,
        "name:xx": "Pingxizi Shan"
      }
    },
    {
      "geometry": {
        "type": "Point",
        "coordinates": [
          121.786962,
          25.031973
        ]
      },
      "type": "Feature",
      "properties": {
        "hierarchy": [
          "tgn:7477835",
          "tgn:1000004",
          "tgn:1000454",
          "tgn:1000141",
          "tgn:7029392"
        ],
        "placetype": [
          "aat:300008798"
        ],
        "id": 7477835,
        "name:xx": "Fanzikeng Shan"
      }
    },
    {
      "geometry": {
        "type": "Point",
        "coordinates": [
          121.806956,
          25.058388
        ]
      },
      "type": "Feature",
      "properties": {
        "hierarchy": [
          "tgn:7477836",
          "tgn:1000004",
          "tgn:1000454",
          "tgn:1000141",
          "tgn:7029392"
        ],
        "placetype": [
          "aat:300008798"
        ],
        "id": 7477836,
        "name:xx": "Wufenliao Shan"
      }
    },
    {
      "geometry": {
        "type": "Point",
        "coordinates": [
          121.886423,
          25.060534
        ]
      },
      "type": "Feature",
      "properties": {
        "hierarchy": [
          "tgn:7477837",
          "tgn:1000004",
          "tgn:1000454",
          "tgn:1000141",
          "tgn:7029392"
        ],
        "placetype": [
          "aat:300008777"
        ],
        "id": 7477837,
        "name:xx": "Tudigong Ling"
      }
    },
    {
      "geometry": {
        "type": "Point",
        "coordinates": [
          121.890703,
          25.053352
        ]
      },
      "type": "Feature",
      "properties": {
        "hierarchy": [
          "tgn:7477838",
          "tgn:1000004",
          "tgn:1000454",
          "tgn:1000141",
          "tgn:7029392"
        ],
        "placetype": [
          "aat:300008798"
        ],
        "id": 7477838,
        "name:xx": "Guanri Feng"
      }
    },
    {
      "geometry": {
        "type": "Point",
        "coordinates": [
          121.907461,
          25.055913
        ]
      },
      "type": "Feature",
      "properties": {
        "hierarchy": [
          "tgn:7477839",
          "tgn:1000004",
          "tgn:1000454",
          "tgn:1000141",
          "tgn:7029392"
        ],
        "placetype": [
          "aat:300008777"
        ],
        "id": 7477839,
        "name:xx": "Danli Shan"
      }
    }
  ]
}
