{
  "type": "FeatureCollection",
  "features": [
    {
      "geometry": {
        "type": "Point",
        "coordinates": [
          -101.904722,
          20.3675
        ]
      },
      "type": "Feature",
      "properties": {
        "hierarchy": [
          "tgn:7414890",
          "tgn:7005584",
          "tgn:1000001",
          "tgn:7005560",
          "tgn:7029392"
        ],
        "placetype": [
          "aat:300008347"
        ],
        "id": 7414890,
        "name:xx": "Morelos"
      }
    },
    {
      "geometry": {
        "type": "Point",
        "coordinates": [
          -101.868056,
          20.375
        ]
      },
      "type": "Feature",
      "properties": {
        "hierarchy": [
          "tgn:7414891",
          "tgn:7005584",
          "tgn:1000001",
          "tgn:7005560",
          "tgn:7029392"
        ],
        "placetype": [
          "aat:300008347"
        ],
        "id": 7414891,
        "name:xx": "Buenavista de Cortés"
      }
    },
    {
      "geometry": {
        "type": "Point",
        "coordinates": [
          -101.808611,
          20.367222
        ]
      },
      "type": "Feature",
      "properties": {
        "hierarchy": [
          "tgn:7414892",
          "tgn:7005584",
          "tgn:1000001",
          "tgn:7005560",
          "tgn:7029392"
        ],
        "placetype": [
          "aat:300006191"
        ],
        "id": 7414892,
        "name:xx": "Presa Palo Alto"
      }
    },
    {
      "geometry": {
        "type": "Point",
        "coordinates": [
          -101.753889,
          20.378889
        ]
      },
      "type": "Feature",
      "properties": {
        "hierarchy": [
          "tgn:7414893",
          "tgn:7005584",
          "tgn:1000001",
          "tgn:7005560",
          "tgn:7029392"
        ],
        "placetype": [
          "aat:300008347"
        ],
        "id": 7414893,
        "name:xx": "Sauz de Villaseñor"
      }
    },
    {
      "geometry": {
        "type": "Point",
        "coordinates": [
          -101.753889,
          20.355278
        ]
      },
      "type": "Feature",
      "properties": {
        "hierarchy": [
          "tgn:7414894",
          "tgn:7005584",
          "tgn:1000001",
          "tgn:7005560",
          "tgn:7029392"
        ],
        "placetype": [
          "aat:300008347"
        ],
        "id": 7414894,
        "name:xx": "Colorado Saavedra"
      }
    },
    {
      "geometry": {
        "type": "Point",
        "coordinates": [
          -101.778333,
          20.335833
        ]
      },
      "type": "Feature",
      "properties": {
        "hierarchy": [
          "tgn:7414895",
          "tgn:7005584",
          "tgn:1000001",
          "tgn:7005560",
          "tgn:7029392"
        ],
        "placetype": [
          "aat:300006191"
        ],
        "id": 7414895,
        "name:xx": "Presa Las Trojes"
      }
    },
    {
      "geometry": {
        "type": "Point",
        "coordinates": [
          -101.797778,
          20.343611
        ]
      },
      "type": "Feature",
      "properties": {
        "hierarchy": [
          "tgn:7414896",
          "tgn:7005584",
          "tgn:1000001",
          "tgn:7005560",
          "tgn:7029392"
        ],
        "placetype": [
          "aat:300008347"
        ],
        "id": 7414896,
        "name:xx": "San Fernando"
      }
    },
    {
      "geometry": {
        "type": "Point",
        "coordinates": [
          -101.747778,
          20.372778
        ]
      },
      "type": "Feature",
      "properties": {
        "hierarchy": [
          "tgn:7414897",
          "tgn:7005584",
          "tgn:1000001",
          "tgn:7005560",
          "tgn:7029392"
        ],
        "placetype": [
          "aat:300008347"
        ],
        "id": 7414897,
        "name:xx": "El Sauz"
      }
    },
    {
      "geometry": {
        "type": "Point",
        "coordinates": [
          -101.897222,
          20.378611
        ]
      },
      "type": "Feature",
      "properties": {
        "hierarchy": [
          "tgn:7414898",
          "tgn:7005584",
          "tgn:1000001",
          "tgn:7005560",
          "tgn:7029392"
        ],
        "placetype": [
          "aat:300008347"
        ],
        "id": 7414898,
        "name:xx": "San Miguel de Camarena"
      }
    },
    {
      "geometry": {
        "type": "Point",
        "coordinates": [
          -101.851389,
          20.320278
        ]
      },
      "type": "Feature",
      "properties": {
        "hierarchy": [
          "tgn:7414899",
          "tgn:7005584",
          "tgn:1000001",
          "tgn:7005560",
          "tgn:7029392"
        ],
        "placetype": [
          "aat:300008347"
        ],
        "id": 7414899,
        "name:xx": "Palo Verde"
      }
    }
  ]
}
