{
  "type": "FeatureCollection",
  "features": [
    {
      "geometry": {
        "type": "Point",
        "coordinates": [
          -100.201111,
          21.022222
        ]
      },
      "type": "Feature",
      "properties": {
        "hierarchy": [
          "tgn:7418930",
          "tgn:7005584",
          "tgn:1000001",
          "tgn:7005560",
          "tgn:7029392"
        ],
        "placetype": [
          "aat:300008347"
        ],
        "id": 7418930,
        "name:xx": "El Zapote"
      }
    },
    {
      "geometry": {
        "type": "Point",
        "coordinates": [
          -100.171944,
          21.033889
        ]
      },
      "type": "Feature",
      "properties": {
        "hierarchy": [
          "tgn:7418931",
          "tgn:7005584",
          "tgn:1000001",
          "tgn:7005560",
          "tgn:7029392"
        ],
        "placetype": [
          "aat:300008347"
        ],
        "id": 7418931,
        "name:xx": "Las Adjuntas"
      }
    },
    {
      "geometry": {
        "type": "Point",
        "coordinates": [
          -100.156111,
          24.448333
        ]
      },
      "type": "Feature",
      "properties": {
        "hierarchy": [
          "tgn:7418932",
          "tgn:1000001",
          "tgn:7005589",
          "tgn:7005560",
          "tgn:7029392"
        ],
        "placetype": [
          "aat:300008347"
        ],
        "id": 7418932,
        "name:es": "La Presita de Berlanga"
      }
    },
    {
      "geometry": {
        "type": "Point",
        "coordinates": [
          -100.093611,
          24.414444
        ]
      },
      "type": "Feature",
      "properties": {
        "hierarchy": [
          "tgn:7418933",
          "tgn:1000001",
          "tgn:7005589",
          "tgn:7005560",
          "tgn:7029392"
        ],
        "placetype": [
          "aat:300008699"
        ],
        "id": 7418933,
        "name:es": "Las Piletas, Río"
      }
    },
    {
      "geometry": {
        "type": "Point",
        "coordinates": [
          -100.347778,
          24.384722
        ]
      },
      "type": "Feature",
      "properties": {
        "hierarchy": [
          "tgn:7418934",
          "tgn:1000001",
          "tgn:7005589",
          "tgn:7005560",
          "tgn:7029392"
        ],
        "placetype": [
          "aat:300008347"
        ],
        "id": 7418934,
        "name:es": "Purísima"
      }
    },
    {
      "geometry": {
        "type": "Point",
        "coordinates": [
          -100.506944,
          24.366111
        ]
      },
      "type": "Feature",
      "properties": {
        "hierarchy": [
          "tgn:7418936",
          "tgn:1000001",
          "tgn:7005589",
          "tgn:7005560",
          "tgn:7029392"
        ],
        "placetype": [
          "aat:300008347"
        ],
        "id": 7418936,
        "name:es": "La Boquilla"
      }
    },
    {
      "geometry": {
        "type": "Point",
        "coordinates": [
          -100.569444,
          24.315556
        ]
      },
      "type": "Feature",
      "properties": {
        "hierarchy": [
          "tgn:7418937",
          "tgn:1000001",
          "tgn:7005589",
          "tgn:7005560",
          "tgn:7029392"
        ],
        "placetype": [
          "aat:300008347"
        ],
        "id": 7418937,
        "name:es": "San José del Palmar"
      }
    },
    {
      "geometry": {
        "type": "Point",
        "coordinates": [
          -100.514167,
          24.299444
        ]
      },
      "type": "Feature",
      "properties": {
        "hierarchy": [
          "tgn:7418938",
          "tgn:1000001",
          "tgn:7005589",
          "tgn:7005560",
          "tgn:7029392"
        ],
        "placetype": [
          "aat:300008347"
        ],
        "id": 7418938,
        "name:es": "El Venadito"
      }
    },
    {
      "geometry": {
        "type": "Point",
        "coordinates": [
          -100.391111,
          24.305
        ]
      },
      "type": "Feature",
      "properties": {
        "hierarchy": [
          "tgn:7418939",
          "tgn:1000001",
          "tgn:7005589",
          "tgn:7005560",
          "tgn:7029392"
        ],
        "placetype": [
          "aat:300008347"
        ],
        "id": 7418939,
        "name:es": "San Vicente de González"
      }
    }
  ]
}
