{
  "type": "FeatureCollection",
  "features": [
    {
      "geometry": {
        "type": "Point",
        "coordinates": [
          34.107364,
          28.756583
        ]
      },
      "type": "Feature",
      "properties": {
        "hierarchy": [
          "tgn:7544390",
          "tgn:7001242",
          "tgn:7016833",
          "tgn:7001336",
          "tgn:7029392"
        ],
        "placetype": [
          "aat:300008795"
        ],
        "name:en": "Themila, Gebel",
        "id": 7544390
      }
    },
    {
      "geometry": {
        "type": "Point",
        "coordinates": [
          34.110264,
          28.76861
        ]
      },
      "type": "Feature",
      "properties": {
        "hierarchy": [
          "tgn:7544391",
          "tgn:7001242",
          "tgn:7016833",
          "tgn:7001336",
          "tgn:7029392"
        ],
        "placetype": [
          "aat:300379998"
        ],
        "name:en": "Tabaiq, Wādī",
        "id": 7544391
      }
    },
    {
      "geometry": {
        "type": "Point",
        "coordinates": [
          34.095937,
          28.764075
        ]
      },
      "type": "Feature",
      "properties": {
        "hierarchy": [
          "tgn:7544392",
          "tgn:7001242",
          "tgn:7016833",
          "tgn:7001336",
          "tgn:7029392"
        ],
        "placetype": [
          "aat:300379998"
        ],
        "name:en": "Ratam, Wādī",
        "id": 7544392
      }
    },
    {
      "geometry": {
        "type": "Point",
        "coordinates": [
          34.13409,
          28.791393
        ]
      },
      "type": "Feature",
      "properties": {
        "hierarchy": [
          "tgn:7544393",
          "tgn:7001242",
          "tgn:7016833",
          "tgn:7001336",
          "tgn:7029392"
        ],
        "placetype": [
          "aat:300055621"
        ],
        "name:en": "El-Amadan",
        "id": 7544393
      }
    },
    {
      "geometry": {
        "type": "Point",
        "coordinates": [
          34.044736,
          28.691289
        ]
      },
      "type": "Feature",
      "properties": {
        "hierarchy": [
          "tgn:7544394",
          "tgn:7001242",
          "tgn:7016833",
          "tgn:7001336",
          "tgn:7029392"
        ],
        "placetype": [
          "aat:300008777"
        ],
        "name:en": "Abū Hassar, 'Urf",
        "id": 7544394
      }
    },
    {
      "geometry": {
        "type": "Point",
        "coordinates": [
          34.066667,
          28.710833
        ]
      },
      "type": "Feature",
      "properties": {
        "hierarchy": [
          "tgn:7544395",
          "tgn:7001242",
          "tgn:7016833",
          "tgn:7001336",
          "tgn:7029392"
        ],
        "placetype": [
          "aat:300008795"
        ],
        "name:en": "Minidri, Gebel",
        "id": 7544395
      }
    },
    {
      "geometry": {
        "type": "Point",
        "coordinates": [
          34.108333,
          28.771944
        ]
      },
      "type": "Feature",
      "properties": {
        "hierarchy": [
          "tgn:7544396",
          "tgn:7001242",
          "tgn:7016833",
          "tgn:7001336",
          "tgn:7029392"
        ],
        "placetype": [
          "aat:300379998"
        ],
        "name:en": "Daisa, Wādī",
        "id": 7544396
      }
    },
    {
      "geometry": {
        "type": "Point",
        "coordinates": [
          34.143322,
          28.752443
        ]
      },
      "type": "Feature",
      "properties": {
        "hierarchy": [
          "tgn:7544397",
          "tgn:7001242",
          "tgn:7016833",
          "tgn:7001336",
          "tgn:7029392"
        ],
        "placetype": [
          "aat:300379998"
        ],
        "name:en": "Birādī, Wādī",
        "id": 7544397
      }
    },
    {
      "geometry": {
        "type": "Point",
        "coordinates": [
          34.118527,
          28.7872
        ]
      },
      "type": "Feature",
      "properties": {
        "hierarchy": [
          "tgn:7544398",
          "tgn:7001242",
          "tgn:7016833",
          "tgn:7001336",
          "tgn:7029392"
        ],
        "placetype": [
          "aat:300008697"
        ],
        "name:en": "Mukāz̧, Maiyat",
        "id": 7544398
      }
    },
    {
      "geometry": {
        "type": "Point",
        "coordinates": [
          34.157778,
          28.967222
        ]
      },
      "type": "Feature",
      "properties": {
        "hierarchy": [
          "tgn:7544399",
          "tgn:7001242",
          "tgn:7016833",
          "tgn:7001336",
          "tgn:7029392"
        ],
        "placetype": [
          "aat:300379998"
        ],
        "name:en": "Mifigi, Wādī",
        "id": 7544399
      }
    }
  ]
}
