{
  "type": "FeatureCollection",
  "features": [
    {
      "geometry": {
        "type": "Point",
        "coordinates": [
          74.539566,
          28.503802
        ]
      },
      "type": "Feature",
      "properties": {
        "hierarchy": [
          "tgn:7568720",
          "tgn:1000004",
          "tgn:7000198",
          "tgn:7016788",
          "tgn:7029392"
        ],
        "placetype": [
          "aat:300008347"
        ],
        "name:en": "Bukansar",
        "id": 7568720
      }
    },
    {
      "geometry": {
        "type": "Point",
        "coordinates": [
          74.732288,
          28.504316
        ]
      },
      "type": "Feature",
      "properties": {
        "hierarchy": [
          "tgn:7568721",
          "tgn:1000004",
          "tgn:7000198",
          "tgn:7016788",
          "tgn:7029392"
        ],
        "placetype": [
          "aat:300008347"
        ],
        "name:en": "Melusar",
        "id": 7568721
      }
    },
    {
      "geometry": {
        "type": "Point",
        "coordinates": [
          74.542252,
          28.496146
        ]
      },
      "type": "Feature",
      "properties": {
        "hierarchy": [
          "tgn:7568722",
          "tgn:1000004",
          "tgn:7000198",
          "tgn:7016788",
          "tgn:7029392"
        ],
        "placetype": [
          "aat:300008347"
        ],
        "name:en": "Punsisar",
        "id": 7568722
      }
    },
    {
      "geometry": {
        "type": "Point",
        "coordinates": [
          74.552629,
          28.482826
        ]
      },
      "type": "Feature",
      "properties": {
        "hierarchy": [
          "tgn:7568723",
          "tgn:1000004",
          "tgn:7000198",
          "tgn:7016788",
          "tgn:7029392"
        ],
        "placetype": [
          "aat:300008347"
        ],
        "name:en": "Bhimsar",
        "id": 7568723
      }
    },
    {
      "geometry": {
        "type": "Point",
        "coordinates": [
          74.705793,
          28.475891
        ]
      },
      "type": "Feature",
      "properties": {
        "hierarchy": [
          "tgn:7568724",
          "tgn:1000004",
          "tgn:7000198",
          "tgn:7016788",
          "tgn:7029392"
        ],
        "placetype": [
          "aat:300008347"
        ],
        "name:en": "Jorāwarpura",
        "id": 7568724
      }
    },
    {
      "geometry": {
        "type": "Point",
        "coordinates": [
          74.685595,
          28.48158
        ]
      },
      "type": "Feature",
      "properties": {
        "hierarchy": [
          "tgn:7568725",
          "tgn:1000004",
          "tgn:7000198",
          "tgn:7016788",
          "tgn:7029392"
        ],
        "placetype": [
          "aat:300008347"
        ],
        "name:en": "Naiyāsar",
        "id": 7568725
      }
    },
    {
      "geometry": {
        "type": "Point",
        "coordinates": [
          74.649031,
          28.483845
        ]
      },
      "type": "Feature",
      "properties": {
        "hierarchy": [
          "tgn:7568726",
          "tgn:1000004",
          "tgn:7000198",
          "tgn:7016788",
          "tgn:7029392"
        ],
        "placetype": [
          "aat:300008347"
        ],
        "name:en": "Naināsar",
        "id": 7568726
      }
    },
    {
      "geometry": {
        "type": "Point",
        "coordinates": [
          74.640028,
          28.453052
        ]
      },
      "type": "Feature",
      "properties": {
        "hierarchy": [
          "tgn:7568727",
          "tgn:1000004",
          "tgn:7000198",
          "tgn:7016788",
          "tgn:7029392"
        ],
        "placetype": [
          "aat:300008347"
        ],
        "name:en": "Jaisingāsar",
        "id": 7568727
      }
    },
    {
      "geometry": {
        "type": "Point",
        "coordinates": [
          74.692455,
          28.457369
        ]
      },
      "type": "Feature",
      "properties": {
        "hierarchy": [
          "tgn:7568728",
          "tgn:1000004",
          "tgn:7000198",
          "tgn:7016788",
          "tgn:7029392"
        ],
        "placetype": [
          "aat:300008347"
        ],
        "name:en": "Chārsar",
        "id": 7568728
      }
    },
    {
      "geometry": {
        "type": "Point",
        "coordinates": [
          74.714614,
          28.435651
        ]
      },
      "type": "Feature",
      "properties": {
        "hierarchy": [
          "tgn:7568729",
          "tgn:1000004",
          "tgn:7000198",
          "tgn:7016788",
          "tgn:7029392"
        ],
        "placetype": [
          "aat:300008347"
        ],
        "name:en": "Mehrāwansar",
        "id": 7568729
      }
    }
  ]
}
