{
  "type": "FeatureCollection",
  "features": [
    {
      "geometry": {
        "type": "Point",
        "coordinates": [
          88.639167,
          22.501944
        ]
      },
      "type": "Feature",
      "properties": {
        "hierarchy": [
          "tgn:7588330",
          "tgn:1000004",
          "tgn:7000198",
          "tgn:1001977",
          "tgn:7029392"
        ],
        "placetype": [
          "aat:300008347"
        ],
        "name:en": "Bhatkuri",
        "id": 7588330
      }
    },
    {
      "geometry": {
        "type": "Point",
        "coordinates": [
          88.556944,
          22.457778
        ]
      },
      "type": "Feature",
      "properties": {
        "hierarchy": [
          "tgn:7588331",
          "tgn:1000004",
          "tgn:7000198",
          "tgn:1001977",
          "tgn:7029392"
        ],
        "placetype": [
          "aat:300008347"
        ],
        "name:en": "Banok",
        "id": 7588331
      }
    },
    {
      "geometry": {
        "type": "Point",
        "coordinates": [
          88.503611,
          22.545278
        ]
      },
      "type": "Feature",
      "properties": {
        "hierarchy": [
          "tgn:7588335",
          "tgn:1000004",
          "tgn:7000198",
          "tgn:1001977",
          "tgn:7029392"
        ],
        "placetype": [
          "aat:300008347"
        ],
        "name:en": "Kulbāria",
        "id": 7588335
      }
    },
    {
      "geometry": {
        "type": "Point",
        "coordinates": [
          91.737431,
          26.421139
        ]
      },
      "type": "Feature",
      "properties": {
        "hierarchy": [
          "tgn:7588336",
          "tgn:1000004",
          "tgn:1001832",
          "tgn:7000198",
          "tgn:7029392"
        ],
        "placetype": [
          "aat:300008347"
        ],
        "name:en": "Muktāpur",
        "id": 7588336
      }
    },
    {
      "geometry": {
        "type": "Point",
        "coordinates": [
          91.908047,
          26.324974
        ]
      },
      "type": "Feature",
      "properties": {
        "hierarchy": [
          "tgn:7588337",
          "tgn:1000004",
          "tgn:1001832",
          "tgn:7000198",
          "tgn:7029392"
        ],
        "placetype": [
          "aat:300008347"
        ],
        "name:en": "Dosatān",
        "id": 7588337
      }
    },
    {
      "geometry": {
        "type": "Point",
        "coordinates": [
          91.875697,
          26.095418
        ]
      },
      "type": "Feature",
      "properties": {
        "hierarchy": [
          "tgn:7588338",
          "tgn:1000004",
          "tgn:1001832",
          "tgn:7000198",
          "tgn:7029392"
        ],
        "placetype": [
          "aat:300008347"
        ],
        "name:en": "Mawsmai",
        "id": 7588338
      }
    },
    {
      "geometry": {
        "type": "Point",
        "coordinates": [
          91.911149,
          25.747538
        ]
      },
      "type": "Feature",
      "properties": {
        "hierarchy": [
          "tgn:7588339",
          "tgn:1000004",
          "tgn:7000198",
          "tgn:1003539",
          "tgn:7029392"
        ],
        "placetype": [
          "aat:300008347"
        ],
        "name:en": "Nongjri",
        "id": 7588339
      }
    }
  ]
}
