{
  "type": "FeatureCollection",
  "features": [
    {
      "geometry": {
        "type": "Point",
        "coordinates": [
          120.837949,
          24.604984
        ]
      },
      "type": "Feature",
      "properties": {
        "hierarchy": [
          "tgn:7476410",
          "tgn:7487020",
          "tgn:1000004",
          "tgn:1000141",
          "tgn:7029392"
        ],
        "placetype": [
          "aat:300008347"
        ],
        "id": 7476410,
        "name:xx": "Shangshanxia"
      }
    },
    {
      "geometry": {
        "type": "Point",
        "coordinates": [
          120.840409,
          24.608501
        ]
      },
      "type": "Feature",
      "properties": {
        "hierarchy": [
          "tgn:7476411",
          "tgn:7487020",
          "tgn:1000004",
          "tgn:1000141",
          "tgn:7029392"
        ],
        "placetype": [
          "aat:300008347"
        ],
        "id": 7476411,
        "name:xx": "Laotang"
      }
    },
    {
      "geometry": {
        "type": "Point",
        "coordinates": [
          120.845789,
          24.612502
        ]
      },
      "type": "Feature",
      "properties": {
        "hierarchy": [
          "tgn:7476412",
          "tgn:7487020",
          "tgn:1000004",
          "tgn:1000141",
          "tgn:7029392"
        ],
        "placetype": [
          "aat:300008347"
        ],
        "id": 7476412,
        "name:xx": "Akaoqikou"
      }
    },
    {
      "geometry": {
        "type": "Point",
        "coordinates": [
          120.849139,
          24.607096
        ]
      },
      "type": "Feature",
      "properties": {
        "hierarchy": [
          "tgn:7476413",
          "tgn:7487020",
          "tgn:1000004",
          "tgn:1000141",
          "tgn:7029392"
        ],
        "placetype": [
          "aat:300008347"
        ],
        "id": 7476413,
        "name:xx": "Ganzhenwo"
      }
    },
    {
      "geometry": {
        "type": "Point",
        "coordinates": [
          120.847266,
          24.613565
        ]
      },
      "type": "Feature",
      "properties": {
        "hierarchy": [
          "tgn:7476414",
          "tgn:7487020",
          "tgn:1000004",
          "tgn:1000141",
          "tgn:7029392"
        ],
        "placetype": [
          "aat:300008347"
        ],
        "id": 7476414,
        "name:xx": "Kaoqijiao"
      }
    },
    {
      "geometry": {
        "type": "Point",
        "coordinates": [
          120.828286,
          24.621619
        ]
      },
      "type": "Feature",
      "properties": {
        "hierarchy": [
          "tgn:7476415",
          "tgn:7487020",
          "tgn:1000004",
          "tgn:1000141",
          "tgn:7029392"
        ],
        "placetype": [
          "aat:300008347"
        ],
        "id": 7476415,
        "name:xx": "Amahu"
      }
    },
    {
      "geometry": {
        "type": "Point",
        "coordinates": [
          120.767779,
          24.529986
        ]
      },
      "type": "Feature",
      "properties": {
        "hierarchy": [
          "tgn:7476416",
          "tgn:7487020",
          "tgn:1000004",
          "tgn:1000141",
          "tgn:7029392"
        ],
        "placetype": [
          "aat:300008347"
        ],
        "id": 7476416,
        "name:xx": "Pitoumian"
      }
    },
    {
      "geometry": {
        "type": "Point",
        "coordinates": [
          120.971122,
          24.656323
        ]
      },
      "type": "Feature",
      "properties": {
        "hierarchy": [
          "tgn:7476417",
          "tgn:7487020",
          "tgn:1000004",
          "tgn:1000141",
          "tgn:7029392"
        ],
        "placetype": [
          "aat:300008347"
        ],
        "id": 7476417,
        "name:xx": "Shantangbei"
      }
    },
    {
      "geometry": {
        "type": "Point",
        "coordinates": [
          120.858304,
          24.699833
        ]
      },
      "type": "Feature",
      "properties": {
        "hierarchy": [
          "tgn:7476418",
          "tgn:7487020",
          "tgn:1000004",
          "tgn:1000141",
          "tgn:7029392"
        ],
        "placetype": [
          "aat:300008678"
        ],
        "id": 7476418,
        "name:xx": "Houcuo Yugang"
      }
    },
    {
      "geometry": {
        "type": "Point",
        "coordinates": [
          121.002785,
          24.619845
        ]
      },
      "type": "Feature",
      "properties": {
        "hierarchy": [
          "tgn:7476419",
          "tgn:7487020",
          "tgn:1000004",
          "tgn:1000141",
          "tgn:7029392"
        ],
        "placetype": [
          "aat:300008347"
        ],
        "id": 7476419,
        "name:xx": "Caitangxia"
      }
    }
  ]
}
