{
  "type": "FeatureCollection",
  "features": [
    {
      "geometry": {
        "type": "Point",
        "coordinates": [
          86.989147,
          21.67631
        ]
      },
      "type": "Feature",
      "properties": {
        "hierarchy": [
          "tgn:7544690",
          "tgn:1000004",
          "tgn:7000198",
          "tgn:7016694",
          "tgn:7029392"
        ],
        "placetype": [
          "aat:300008347"
        ],
        "name:en": "Baraguma",
        "id": 7544690
      }
    },
    {
      "geometry": {
        "type": "Point",
        "coordinates": [
          75.007085,
          29.698656
        ]
      },
      "type": "Feature",
      "properties": {
        "hierarchy": [
          "tgn:7544691",
          "tgn:1000004",
          "tgn:1001871",
          "tgn:7000198",
          "tgn:7029392"
        ],
        "placetype": [
          "aat:300008347"
        ],
        "name:en": "Bara Gudha",
        "id": 7544691
      }
    },
    {
      "geometry": {
        "type": "Point",
        "coordinates": [
          77.12822,
          32.139425
        ]
      },
      "type": "Feature",
      "properties": {
        "hierarchy": [
          "tgn:7544693",
          "tgn:1000004",
          "tgn:7000198",
          "tgn:1001996",
          "tgn:7029392"
        ],
        "placetype": [
          "aat:300008347"
        ],
        "name:en": "Baragrān",
        "id": 7544693
      }
    },
    {
      "geometry": {
        "type": "Point",
        "coordinates": [
          76.11588,
          26.405247
        ]
      },
      "type": "Feature",
      "properties": {
        "hierarchy": [
          "tgn:7544695",
          "tgn:1000004",
          "tgn:7000198",
          "tgn:7016788",
          "tgn:7029392"
        ],
        "placetype": [
          "aat:300008347"
        ],
        "name:en": "Barāgaon Thātoli",
        "id": 7544695
      }
    },
    {
      "geometry": {
        "type": "Point",
        "coordinates": [
          74.05,
          19.916667
        ]
      },
      "type": "Feature",
      "properties": {
        "hierarchy": [
          "tgn:7544697",
          "tgn:1000004",
          "tgn:7000198",
          "tgn:1001895",
          "tgn:7029392"
        ],
        "placetype": [
          "aat:300008347"
        ],
        "name:en": "Bārāgaon Pimpri",
        "id": 7544697
      }
    },
    {
      "geometry": {
        "type": "Point",
        "coordinates": [
          77.373022,
          31.343245
        ]
      },
      "type": "Feature",
      "properties": {
        "hierarchy": [
          "tgn:7544699",
          "tgn:1000004",
          "tgn:7000198",
          "tgn:1001996",
          "tgn:7029392"
        ],
        "placetype": [
          "aat:300008347"
        ],
        "name:en": "Barāgaon",
        "id": 7544699
      }
    }
  ]
}
