{
  "type": "FeatureCollection",
  "features": [
    {
      "geometry": {
        "type": "Point",
        "coordinates": [
          120.685,
          24.254722
        ]
      },
      "type": "Feature",
      "properties": {
        "hierarchy": [
          "tgn:7500930",
          "tgn:1000004",
          "tgn:7001009",
          "tgn:1000141",
          "tgn:7029392"
        ],
        "placetype": [
          "aat:300008347"
        ],
        "id": 7500930,
        "name:xx": "Dazhuwei"
      }
    },
    {
      "geometry": {
        "type": "Point",
        "coordinates": [
          120.689444,
          24.273611
        ]
      },
      "type": "Feature",
      "properties": {
        "hierarchy": [
          "tgn:7500931",
          "tgn:1000004",
          "tgn:7001009",
          "tgn:1000141",
          "tgn:7029392"
        ],
        "placetype": [
          "aat:300008347"
        ],
        "id": 7500931,
        "name:xx": "Dafen"
      }
    },
    {
      "geometry": {
        "type": "Point",
        "coordinates": [
          120.691944,
          24.2525
        ]
      },
      "type": "Feature",
      "properties": {
        "hierarchy": [
          "tgn:7500932",
          "tgn:1000004",
          "tgn:7001009",
          "tgn:1000141",
          "tgn:7029392"
        ],
        "placetype": [
          "aat:300008347"
        ],
        "id": 7500932,
        "name:xx": "Xishiwei"
      }
    },
    {
      "geometry": {
        "type": "Point",
        "coordinates": [
          120.711667,
          24.258611
        ]
      },
      "type": "Feature",
      "properties": {
        "hierarchy": [
          "tgn:7500933",
          "tgn:1000004",
          "tgn:7001009",
          "tgn:1000141",
          "tgn:7029392"
        ],
        "placetype": [
          "aat:300000745"
        ],
        "id": 7500933,
        "name:xx": "Shiwuzhuang"
      }
    },
    {
      "geometry": {
        "type": "Point",
        "coordinates": [
          120.720278,
          24.265833
        ]
      },
      "type": "Feature",
      "properties": {
        "hierarchy": [
          "tgn:7500934",
          "tgn:1000004",
          "tgn:7001009",
          "tgn:1000141",
          "tgn:7029392"
        ],
        "placetype": [
          "aat:300008347"
        ],
        "id": 7500934,
        "name:xx": "Danan"
      }
    },
    {
      "geometry": {
        "type": "Point",
        "coordinates": [
          120.922778,
          23.524722
        ]
      },
      "type": "Feature",
      "properties": {
        "hierarchy": [
          "tgn:7500935",
          "tgn:7488858",
          "tgn:1000004",
          "tgn:1000141",
          "tgn:7029392"
        ],
        "placetype": [
          "aat:300387503"
        ],
        "id": 7500935,
        "name:xx": "Shalixian Gongzuozhan"
      }
    },
    {
      "geometry": {
        "type": "Point",
        "coordinates": [
          120.940556,
          23.512222
        ]
      },
      "type": "Feature",
      "properties": {
        "hierarchy": [
          "tgn:7500936",
          "tgn:7488858",
          "tgn:1000004",
          "tgn:1000141",
          "tgn:7029392"
        ],
        "placetype": [
          "aat:300008187"
        ],
        "id": 7500936,
        "name:xx": "Yushan Guojia Gongyuan"
      }
    },
    {
      "geometry": {
        "type": "Point",
        "coordinates": [
          120.955,
          23.547778
        ]
      },
      "type": "Feature",
      "properties": {
        "hierarchy": [
          "tgn:7500937",
          "tgn:7488858",
          "tgn:1000004",
          "tgn:1000141",
          "tgn:7029392"
        ],
        "placetype": [
          "aat:300005567"
        ],
        "id": 7500937,
        "name:xx": "Lele Shanwu"
      }
    },
    {
      "geometry": {
        "type": "Point",
        "coordinates": [
          120.933056,
          23.555556
        ]
      },
      "type": "Feature",
      "properties": {
        "hierarchy": [
          "tgn:7500938",
          "tgn:7488858",
          "tgn:1000004",
          "tgn:1000141",
          "tgn:7029392"
        ],
        "placetype": [
          "aat:300008749"
        ],
        "id": 7500938,
        "name:xx": "Fuzi Duanyai"
      }
    },
    {
      "geometry": {
        "type": "Point",
        "coordinates": [
          120.928056,
          23.618611
        ]
      },
      "type": "Feature",
      "properties": {
        "hierarchy": [
          "tgn:7500939",
          "tgn:7488858",
          "tgn:1000004",
          "tgn:1000141",
          "tgn:7029392"
        ],
        "placetype": [
          "aat:300387503"
        ],
        "id": 7500939,
        "name:xx": "Linwuju Wangxiang Gongzuozhan"
      }
    }
  ]
}
