{
  "type": "FeatureCollection",
  "features": [
    {
      "geometry": {
        "type": "Point",
        "coordinates": [
          76.803364,
          30.530328
        ]
      },
      "type": "Feature",
      "properties": {
        "hierarchy": [
          "tgn:7581990",
          "tgn:1000004",
          "tgn:7000198",
          "tgn:7016883",
          "tgn:7029392"
        ],
        "placetype": [
          "aat:300008347"
        ],
        "name:en": "Bair Mazra",
        "id": 7581990
      }
    },
    {
      "geometry": {
        "type": "Point",
        "coordinates": [
          76.796314,
          30.549312
        ]
      },
      "type": "Feature",
      "properties": {
        "hierarchy": [
          "tgn:7581991",
          "tgn:1000004",
          "tgn:7000198",
          "tgn:7016883",
          "tgn:7029392"
        ],
        "placetype": [
          "aat:300008347"
        ],
        "name:en": "Īsāpur",
        "id": 7581991
      }
    },
    {
      "geometry": {
        "type": "Point",
        "coordinates": [
          76.798351,
          30.550599
        ]
      },
      "type": "Feature",
      "properties": {
        "hierarchy": [
          "tgn:7581992",
          "tgn:1000004",
          "tgn:7000198",
          "tgn:7016883",
          "tgn:7029392"
        ],
        "placetype": [
          "aat:300008347"
        ],
        "name:en": "Jangīpur",
        "id": 7581992
      }
    },
    {
      "geometry": {
        "type": "Point",
        "coordinates": [
          76.796577,
          30.570048
        ]
      },
      "type": "Feature",
      "properties": {
        "hierarchy": [
          "tgn:7581993",
          "tgn:1000004",
          "tgn:7000198",
          "tgn:7016883",
          "tgn:7029392"
        ],
        "placetype": [
          "aat:300008347"
        ],
        "name:en": "Barauli",
        "id": 7581993
      }
    },
    {
      "geometry": {
        "type": "Point",
        "coordinates": [
          76.802292,
          30.57272
        ]
      },
      "type": "Feature",
      "properties": {
        "hierarchy": [
          "tgn:7581994",
          "tgn:1000004",
          "tgn:7000198",
          "tgn:7016883",
          "tgn:7029392"
        ],
        "placetype": [
          "aat:300008347"
        ],
        "name:en": "Karkaur",
        "id": 7581994
      }
    },
    {
      "geometry": {
        "type": "Point",
        "coordinates": [
          76.808914,
          30.576187
        ]
      },
      "type": "Feature",
      "properties": {
        "hierarchy": [
          "tgn:7581995",
          "tgn:1000004",
          "tgn:7000198",
          "tgn:7016883",
          "tgn:7029392"
        ],
        "placetype": [
          "aat:300008347"
        ],
        "name:en": "Fatehpur",
        "id": 7581995
      }
    },
    {
      "geometry": {
        "type": "Point",
        "coordinates": [
          76.781712,
          30.580758
        ]
      },
      "type": "Feature",
      "properties": {
        "hierarchy": [
          "tgn:7581996",
          "tgn:1000004",
          "tgn:7000198",
          "tgn:7016883",
          "tgn:7029392"
        ],
        "placetype": [
          "aat:300008347"
        ],
        "name:en": "Bahori",
        "id": 7581996
      }
    },
    {
      "geometry": {
        "type": "Point",
        "coordinates": [
          76.799337,
          30.595944
        ]
      },
      "type": "Feature",
      "properties": {
        "hierarchy": [
          "tgn:7581997",
          "tgn:1000004",
          "tgn:7000198",
          "tgn:7016883",
          "tgn:7029392"
        ],
        "placetype": [
          "aat:300008347"
        ],
        "name:en": "Ibrāhīmpura",
        "id": 7581997
      }
    },
    {
      "geometry": {
        "type": "Point",
        "coordinates": [
          76.78483,
          30.588173
        ]
      },
      "type": "Feature",
      "properties": {
        "hierarchy": [
          "tgn:7581998",
          "tgn:1000004",
          "tgn:7000198",
          "tgn:7016883",
          "tgn:7029392"
        ],
        "placetype": [
          "aat:300008347"
        ],
        "name:en": "Bahora",
        "id": 7581998
      }
    },
    {
      "geometry": {
        "type": "Point",
        "coordinates": [
          76.776262,
          30.603355
        ]
      },
      "type": "Feature",
      "properties": {
        "hierarchy": [
          "tgn:7581999",
          "tgn:1000004",
          "tgn:7000198",
          "tgn:7016883",
          "tgn:7029392"
        ],
        "placetype": [
          "aat:300008347"
        ],
        "name:en": "Rāmpur Kalān",
        "id": 7581999
      }
    }
  ]
}
