{
  "type": "FeatureCollection",
  "features": [
    {
      "geometry": {
        "type": "Point",
        "coordinates": [
          120.439967,
          23.509172
        ]
      },
      "type": "Feature",
      "properties": {
        "hierarchy": [
          "tgn:7494731",
          "tgn:7001001",
          "tgn:1000004",
          "tgn:1000141",
          "tgn:7029392"
        ],
        "placetype": [
          "aat:300008347"
        ],
        "id": 7494731,
        "name:xx": "Houcuo"
      }
    },
    {
      "geometry": {
        "type": "Point",
        "coordinates": [
          120.426279,
          23.509882
        ]
      },
      "type": "Feature",
      "properties": {
        "hierarchy": [
          "tgn:7494733",
          "tgn:7001001",
          "tgn:1000004",
          "tgn:1000141",
          "tgn:7029392"
        ],
        "placetype": [
          "aat:300007595"
        ],
        "id": 7494733,
        "name:xx": "Guangxing Gong"
      }
    },
    {
      "geometry": {
        "type": "Point",
        "coordinates": [
          120.421657,
          23.520745
        ]
      },
      "type": "Feature",
      "properties": {
        "hierarchy": [
          "tgn:7494734",
          "tgn:7001001",
          "tgn:1000004",
          "tgn:1000141",
          "tgn:7029392"
        ],
        "placetype": [
          "aat:300387033"
        ],
        "id": 7494734,
        "name:xx": "Niuchou Shan"
      }
    },
    {
      "geometry": {
        "type": "Point",
        "coordinates": [
          120.363473,
          23.583307
        ]
      },
      "type": "Feature",
      "properties": {
        "hierarchy": [
          "tgn:7494735",
          "tgn:7001001",
          "tgn:1000004",
          "tgn:1000141",
          "tgn:7029392"
        ],
        "placetype": [
          "aat:300008347"
        ],
        "id": 7494735,
        "name:xx": "Guogang"
      }
    },
    {
      "geometry": {
        "type": "Point",
        "coordinates": [
          120.39728,
          23.537932
        ]
      },
      "type": "Feature",
      "properties": {
        "hierarchy": [
          "tgn:7494736",
          "tgn:7468018",
          "tgn:1000004",
          "tgn:1000141",
          "tgn:7029392"
        ],
        "placetype": [
          "aat:300008347"
        ],
        "id": 7494736,
        "name:xx": "Chaitouzi"
      }
    },
    {
      "geometry": {
        "type": "Point",
        "coordinates": [
          120.395345,
          23.53715
        ]
      },
      "type": "Feature",
      "properties": {
        "hierarchy": [
          "tgn:7494737",
          "tgn:7468018",
          "tgn:1000004",
          "tgn:1000141",
          "tgn:7029392"
        ],
        "placetype": [
          "aat:300387033"
        ],
        "id": 7494737,
        "name:xx": "Zhen'angong"
      }
    },
    {
      "geometry": {
        "type": "Point",
        "coordinates": [
          120.393073,
          23.545693
        ]
      },
      "type": "Feature",
      "properties": {
        "hierarchy": [
          "tgn:7494738",
          "tgn:7468018",
          "tgn:1000004",
          "tgn:1000141",
          "tgn:7029392"
        ],
        "placetype": [
          "aat:300008347"
        ],
        "id": 7494738,
        "name:xx": "Shuangyuan"
      }
    },
    {
      "geometry": {
        "type": "Point",
        "coordinates": [
          120.409771,
          23.558785
        ]
      },
      "type": "Feature",
      "properties": {
        "hierarchy": [
          "tgn:7494739",
          "tgn:7468018",
          "tgn:1000004",
          "tgn:1000141",
          "tgn:7029392"
        ],
        "placetype": [
          "aat:300007836"
        ],
        "id": 7494739,
        "name:xx": "Jingbu Qiao"
      }
    }
  ]
}
