{
  "type": "FeatureCollection",
  "features": [
    {
      "geometry": {
        "type": "Point",
        "coordinates": [
          -110.656111,
          24.311111
        ]
      },
      "type": "Feature",
      "properties": {
        "hierarchy": [
          "tgn:7420120",
          "tgn:1001836",
          "tgn:1000001",
          "tgn:7005560",
          "tgn:7029392"
        ],
        "placetype": [
          "aat:300008347"
        ],
        "id": 7420120,
        "name:xx": "El Sauzoso"
      }
    },
    {
      "geometry": {
        "type": "Point",
        "coordinates": [
          -110.656111,
          24.203056
        ]
      },
      "type": "Feature",
      "properties": {
        "hierarchy": [
          "tgn:7420121",
          "tgn:1001836",
          "tgn:1000001",
          "tgn:7005560",
          "tgn:7029392"
        ],
        "placetype": [
          "aat:300008699"
        ],
        "id": 7420121,
        "name:xx": "El Cajón, Río"
      }
    },
    {
      "geometry": {
        "type": "Point",
        "coordinates": [
          -110.658889,
          23.860278
        ]
      },
      "type": "Feature",
      "properties": {
        "hierarchy": [
          "tgn:7420122",
          "tgn:1001836",
          "tgn:1000001",
          "tgn:7005560",
          "tgn:7029392"
        ],
        "placetype": [
          "aat:300008347"
        ],
        "id": 7420122,
        "name:xx": "Rosario"
      }
    },
    {
      "geometry": {
        "type": "Point",
        "coordinates": [
          -110.6875,
          24.625
        ]
      },
      "type": "Feature",
      "properties": {
        "hierarchy": [
          "tgn:7420124",
          "tgn:1001836",
          "tgn:1000001",
          "tgn:7005560",
          "tgn:7029392"
        ],
        "placetype": [
          "aat:300132316"
        ],
        "id": 7420124,
        "name:xx": "Coyote, Bahía"
      }
    },
    {
      "geometry": {
        "type": "Point",
        "coordinates": [
          -110.6875,
          23.777778
        ]
      },
      "type": "Feature",
      "properties": {
        "hierarchy": [
          "tgn:7420125",
          "tgn:1001836",
          "tgn:1000001",
          "tgn:7005560",
          "tgn:7029392"
        ],
        "placetype": [
          "aat:300008699"
        ],
        "id": 7420125,
        "name:xx": "Los Altares, Río"
      }
    },
    {
      "geometry": {
        "type": "Point",
        "coordinates": [
          -110.6875,
          23.766111
        ]
      },
      "type": "Feature",
      "properties": {
        "hierarchy": [
          "tgn:7420126",
          "tgn:1001836",
          "tgn:1000001",
          "tgn:7005560",
          "tgn:7029392"
        ],
        "placetype": [
          "aat:300008699"
        ],
        "id": 7420126,
        "name:xx": "El Cenizo, Río"
      }
    },
    {
      "geometry": {
        "type": "Point",
        "coordinates": [
          -110.6875,
          24.3125
        ]
      },
      "type": "Feature",
      "properties": {
        "hierarchy": [
          "tgn:7420127",
          "tgn:1001836",
          "tgn:1000001",
          "tgn:7005560",
          "tgn:7029392"
        ],
        "placetype": [
          "aat:300008699"
        ],
        "id": 7420127,
        "name:xx": "El Camarón, Río"
      }
    },
    {
      "geometry": {
        "type": "Point",
        "coordinates": [
          -110.693056,
          24.91
        ]
      },
      "type": "Feature",
      "properties": {
        "hierarchy": [
          "tgn:7420128",
          "tgn:1001836",
          "tgn:1000001",
          "tgn:7005560",
          "tgn:7029392"
        ],
        "placetype": [
          "aat:300386846"
        ],
        "id": 7420128,
        "name:xx": "San Evaristo, Punta"
      }
    },
    {
      "geometry": {
        "type": "Point",
        "coordinates": [
          -110.694444,
          24.909444
        ]
      },
      "type": "Feature",
      "properties": {
        "hierarchy": [
          "tgn:7420129",
          "tgn:1001836",
          "tgn:1000001",
          "tgn:7005560",
          "tgn:7029392"
        ],
        "placetype": [
          "aat:300008347"
        ],
        "id": 7420129,
        "name:xx": "San Evaristo"
      }
    }
  ]
}
