{
  "type": "FeatureCollection",
  "features": [
    {
      "geometry": {
        "type": "Point",
        "coordinates": [
          -97.866667,
          25.65
        ]
      },
      "type": "Feature",
      "properties": {
        "hierarchy": [
          "tgn:7365540",
          "tgn:1000001",
          "tgn:7005597",
          "tgn:7005560",
          "tgn:7029392"
        ],
        "placetype": [
          "aat:300008347"
        ],
        "id": 7365540,
        "name:xx": "El Realito"
      }
    },
    {
      "geometry": {
        "type": "Point",
        "coordinates": [
          -104.666667,
          25.166667
        ]
      },
      "type": "Feature",
      "properties": {
        "hierarchy": [
          "tgn:7365541",
          "tgn:7005583",
          "tgn:1000001",
          "tgn:7005560",
          "tgn:7029392"
        ],
        "placetype": [
          "aat:300008347"
        ],
        "id": 7365541,
        "name:xx": "El Realito"
      }
    },
    {
      "geometry": {
        "type": "Point",
        "coordinates": [
          -107.183333,
          25.133333
        ]
      },
      "type": "Feature",
      "properties": {
        "hierarchy": [
          "tgn:7365543",
          "tgn:1000001",
          "tgn:7005595",
          "tgn:7005560",
          "tgn:7029392"
        ],
        "placetype": [
          "aat:300008347"
        ],
        "id": 7365543,
        "name:xx": "El Realito"
      }
    },
    {
      "geometry": {
        "type": "Point",
        "coordinates": [
          -101.416667,
          28.116667
        ]
      },
      "type": "Feature",
      "properties": {
        "hierarchy": [
          "tgn:7365544",
          "tgn:1001853",
          "tgn:1000001",
          "tgn:7005560",
          "tgn:7029392"
        ],
        "placetype": [
          "aat:300000241"
        ],
        "id": 7365544,
        "name:xx": "Rancho Encino Solo"
      }
    },
    {
      "geometry": {
        "type": "Point",
        "coordinates": [
          -116.783333,
          32.016667
        ]
      },
      "type": "Feature",
      "properties": {
        "hierarchy": [
          "tgn:7365545",
          "tgn:1001835",
          "tgn:1000001",
          "tgn:7005560",
          "tgn:7029392"
        ],
        "placetype": [
          "aat:300008347"
        ],
        "id": 7365545,
        "name:xx": "Encino Solo"
      }
    },
    {
      "geometry": {
        "type": "Point",
        "coordinates": [
          -101.483333,
          28.15
        ]
      },
      "type": "Feature",
      "properties": {
        "hierarchy": [
          "tgn:7365546",
          "tgn:1001853",
          "tgn:1000001",
          "tgn:7005560",
          "tgn:7029392"
        ],
        "placetype": [
          "aat:300008347"
        ],
        "id": 7365546,
        "name:xx": "Encino Solo"
      }
    },
    {
      "geometry": {
        "type": "Point",
        "coordinates": [
          -103.883333,
          28.766667
        ]
      },
      "type": "Feature",
      "properties": {
        "hierarchy": [
          "tgn:7365547",
          "tgn:7005581",
          "tgn:1000001",
          "tgn:7005560",
          "tgn:7029392"
        ],
        "placetype": [
          "aat:300266554",
          "aat:300008699"
        ],
        "id": 7365547,
        "name:xx": "Encinoso, Arroyo del"
      }
    },
    {
      "geometry": {
        "type": "Point",
        "coordinates": [
          -98.716667,
          23.45
        ]
      },
      "type": "Feature",
      "properties": {
        "hierarchy": [
          "tgn:7365548",
          "tgn:1000001",
          "tgn:7005597",
          "tgn:7005560",
          "tgn:7029392"
        ],
        "placetype": [
          "aat:300008811"
        ],
        "id": 7365548,
        "name:xx": "Encinos, Mesa los"
      }
    },
    {
      "geometry": {
        "type": "Point",
        "coordinates": [
          -106.666667,
          29.833333
        ]
      },
      "type": "Feature",
      "properties": {
        "hierarchy": [
          "tgn:7365549",
          "tgn:7005581",
          "tgn:1000001",
          "tgn:7005560",
          "tgn:7029392"
        ],
        "placetype": [
          "aat:300008699"
        ],
        "id": 7365549,
        "name:xx": "Encinos, Arroyo de los"
      }
    }
  ]
}
