{
  "type": "FeatureCollection",
  "features": [
    {
      "geometry": {
        "type": "Point",
        "coordinates": [
          83.116153,
          26.258831
        ]
      },
      "type": "Feature",
      "properties": {
        "hierarchy": [
          "tgn:7575470",
          "tgn:1000004",
          "tgn:7000198",
          "tgn:7016722",
          "tgn:7029392"
        ],
        "placetype": [
          "aat:300008347"
        ],
        "name:en": "Mahārājganj",
        "id": 7575470
      }
    },
    {
      "geometry": {
        "type": "Point",
        "coordinates": [
          78.25,
          12.616667
        ]
      },
      "type": "Feature",
      "properties": {
        "hierarchy": [
          "tgn:7575472",
          "tgn:1000004",
          "tgn:7000198",
          "tgn:7001797",
          "tgn:7029392"
        ],
        "placetype": [
          "aat:300008347"
        ],
        "name:en": "Mahārājagadai",
        "id": 7575472
      }
    },
    {
      "geometry": {
        "type": "Point",
        "coordinates": [
          75.191564,
          30.315649
        ]
      },
      "type": "Feature",
      "properties": {
        "hierarchy": [
          "tgn:7575473",
          "tgn:1000004",
          "tgn:7000198",
          "tgn:7016883",
          "tgn:7029392"
        ],
        "placetype": [
          "aat:300008347"
        ],
        "name:en": "Mahārāj",
        "id": 7575473
      }
    },
    {
      "geometry": {
        "type": "Point",
        "coordinates": [
          74.016667,
          17.066667
        ]
      },
      "type": "Feature",
      "properties": {
        "hierarchy": [
          "tgn:7575474",
          "tgn:1000004",
          "tgn:7000198",
          "tgn:1001895",
          "tgn:7029392"
        ],
        "placetype": [
          "aat:300008347"
        ],
        "name:en": "Māhār",
        "id": 7575474
      }
    },
    {
      "geometry": {
        "type": "Point",
        "coordinates": [
          85.428336,
          21.870339
        ]
      },
      "type": "Feature",
      "properties": {
        "hierarchy": [
          "tgn:7575475",
          "tgn:1000004",
          "tgn:7000198",
          "tgn:7016694",
          "tgn:7029392"
        ],
        "placetype": [
          "aat:300008777"
        ],
        "name:en": "Maha Parbat",
        "id": 7575475
      }
    },
    {
      "geometry": {
        "type": "Point",
        "coordinates": [
          82.848645,
          23.49046
        ]
      },
      "type": "Feature",
      "properties": {
        "hierarchy": [
          "tgn:7575476",
          "tgn:1000004",
          "tgn:7031781",
          "tgn:7000198",
          "tgn:7029392"
        ],
        "placetype": [
          "aat:300008699"
        ],
        "name:en": "Māhān River",
        "id": 7575476
      }
    },
    {
      "geometry": {
        "type": "Point",
        "coordinates": [
          92.605672,
          25.707286
        ]
      },
      "type": "Feature",
      "properties": {
        "hierarchy": [
          "tgn:7575477",
          "tgn:1000004",
          "tgn:1001832",
          "tgn:7000198",
          "tgn:7029392"
        ],
        "placetype": [
          "aat:300008347"
        ],
        "name:en": "Laher",
        "id": 7575477
      }
    },
    {
      "geometry": {
        "type": "Point",
        "coordinates": [
          79.275422,
          25.331815
        ]
      },
      "type": "Feature",
      "properties": {
        "hierarchy": [
          "tgn:7575478",
          "tgn:1000004",
          "tgn:7000198",
          "tgn:7016722",
          "tgn:7029392"
        ],
        "placetype": [
          "aat:300008347"
        ],
        "name:en": "Lahchūrāghāt",
        "id": 7575478
      }
    },
    {
      "geometry": {
        "type": "Point",
        "coordinates": [
          73.816667,
          19.816667
        ]
      },
      "type": "Feature",
      "properties": {
        "hierarchy": [
          "tgn:7575479",
          "tgn:1000004",
          "tgn:7000198",
          "tgn:1001895",
          "tgn:7029392"
        ],
        "placetype": [
          "aat:300007783"
        ],
        "name:en": "Lahavit",
        "id": 7575479
      }
    }
  ]
}
