{
  "type": "FeatureCollection",
  "features": [
    {
      "geometry": {
        "type": "Point",
        "coordinates": [
          74.125331,
          33.630245
        ]
      },
      "type": "Feature",
      "properties": {
        "hierarchy": [
          "tgn:7588950",
          "tgn:1000004",
          "tgn:7000198",
          "tgn:7000799",
          "tgn:7029392"
        ],
        "placetype": [
          "aat:300008347"
        ],
        "name:en": "Jagāl",
        "id": 7588950
      }
    },
    {
      "geometry": {
        "type": "Point",
        "coordinates": [
          74.122323,
          33.627478
        ]
      },
      "type": "Feature",
      "properties": {
        "hierarchy": [
          "tgn:7588951",
          "tgn:1000004",
          "tgn:7000198",
          "tgn:7000799",
          "tgn:7029392"
        ],
        "placetype": [
          "aat:300008347"
        ],
        "name:en": "Maidān",
        "id": 7588951
      }
    },
    {
      "geometry": {
        "type": "Point",
        "coordinates": [
          74.117555,
          33.621543
        ]
      },
      "type": "Feature",
      "properties": {
        "hierarchy": [
          "tgn:7588952",
          "tgn:1000004",
          "tgn:7000198",
          "tgn:7000799",
          "tgn:7029392"
        ],
        "placetype": [
          "aat:300008347"
        ],
        "name:en": "Sakhi Pīr",
        "id": 7588952
      }
    },
    {
      "geometry": {
        "type": "Point",
        "coordinates": [
          74.121024,
          33.618874
        ]
      },
      "type": "Feature",
      "properties": {
        "hierarchy": [
          "tgn:7588953",
          "tgn:1000004",
          "tgn:7000198",
          "tgn:7000799",
          "tgn:7029392"
        ],
        "placetype": [
          "aat:300008699"
        ],
        "name:en": "Sanglad",
        "id": 7588953
      }
    },
    {
      "geometry": {
        "type": "Point",
        "coordinates": [
          74.140123,
          33.619968
        ]
      },
      "type": "Feature",
      "properties": {
        "hierarchy": [
          "tgn:7588954",
          "tgn:1000004",
          "tgn:7000198",
          "tgn:7000799",
          "tgn:7029392"
        ],
        "placetype": [
          "aat:300008347"
        ],
        "name:en": "Phera",
        "id": 7588954
      }
    },
    {
      "geometry": {
        "type": "Point",
        "coordinates": [
          71.543691,
          23.866068
        ]
      },
      "type": "Feature",
      "properties": {
        "hierarchy": [
          "tgn:7588955",
          "tgn:1000004",
          "tgn:1001869",
          "tgn:7000198",
          "tgn:7029392"
        ],
        "placetype": [
          "aat:300008347"
        ],
        "name:en": "Bhilot",
        "id": 7588955
      }
    },
    {
      "geometry": {
        "type": "Point",
        "coordinates": [
          71.313082,
          23.697815
        ]
      },
      "type": "Feature",
      "properties": {
        "hierarchy": [
          "tgn:7588956",
          "tgn:1000004",
          "tgn:1001869",
          "tgn:7000198",
          "tgn:7029392"
        ],
        "placetype": [
          "aat:300008347"
        ],
        "name:en": "Antarnes",
        "id": 7588956
      }
    },
    {
      "geometry": {
        "type": "Point",
        "coordinates": [
          71.178695,
          23.810701
        ]
      },
      "type": "Feature",
      "properties": {
        "hierarchy": [
          "tgn:7588957",
          "tgn:1000004",
          "tgn:1001869",
          "tgn:7000198",
          "tgn:7029392"
        ],
        "placetype": [
          "aat:300008347"
        ],
        "name:en": "Bakutra",
        "id": 7588957
      }
    },
    {
      "geometry": {
        "type": "Point",
        "coordinates": [
          71.098062,
          23.756408
        ]
      },
      "type": "Feature",
      "properties": {
        "hierarchy": [
          "tgn:7588958",
          "tgn:1000004",
          "tgn:1001869",
          "tgn:7000198",
          "tgn:7029392"
        ],
        "placetype": [
          "aat:300008347"
        ],
        "name:en": "Modhutra",
        "id": 7588958
      }
    },
    {
      "geometry": {
        "type": "Point",
        "coordinates": [
          71.107738,
          23.55859
        ]
      },
      "type": "Feature",
      "properties": {
        "hierarchy": [
          "tgn:7588959",
          "tgn:1000004",
          "tgn:1001869",
          "tgn:7000198",
          "tgn:7029392"
        ],
        "placetype": [
          "aat:300008347"
        ],
        "name:en": "Nanda",
        "id": 7588959
      }
    }
  ]
}
