{
  "type": "FeatureCollection",
  "features": [
    {
      "geometry": {
        "type": "Point",
        "coordinates": [
          121.526244,
          25.091937
        ]
      },
      "type": "Feature",
      "properties": {
        "hierarchy": [
          "tgn:7490241",
          "tgn:1000004",
          "tgn:1000959",
          "tgn:1000141",
          "tgn:7029392"
        ],
        "placetype": [
          "aat:300007783"
        ],
        "id": 7490241,
        "name:xx": "Shilin Zhan"
      }
    },
    {
      "geometry": {
        "type": "Point",
        "coordinates": [
          121.55,
          25.133333
        ]
      },
      "type": "Feature",
      "properties": {
        "hierarchy": [
          "tgn:7490242",
          "tgn:1000004",
          "tgn:1000959",
          "tgn:1000141",
          "tgn:7029392"
        ],
        "placetype": [
          "aat:300387173"
        ],
        "id": 7490242,
        "name:xx": "Shilin Qu"
      }
    },
    {
      "geometry": {
        "type": "Point",
        "coordinates": [
          121.522585,
          25.09071
        ]
      },
      "type": "Feature",
      "properties": {
        "hierarchy": [
          "tgn:7490243",
          "tgn:1000004",
          "tgn:1000959",
          "tgn:1000141",
          "tgn:7029392"
        ],
        "placetype": [
          "aat:300008347"
        ],
        "id": 7490243,
        "name:xx": "Shilin"
      }
    },
    {
      "geometry": {
        "type": "Point",
        "coordinates": [
          120.9334,
          24.3461
        ]
      },
      "type": "Feature",
      "properties": {
        "hierarchy": [
          "tgn:7490244",
          "tgn:7487020",
          "tgn:1000004",
          "tgn:1000141",
          "tgn:7029392"
        ],
        "placetype": [
          "aat:300008347"
        ],
        "id": 7490244,
        "name:xx": "Shilin"
      }
    },
    {
      "geometry": {
        "type": "Point",
        "coordinates": [
          120.508877,
          23.696632
        ]
      },
      "type": "Feature",
      "properties": {
        "hierarchy": [
          "tgn:7490245",
          "tgn:1000004",
          "tgn:7001014",
          "tgn:1000141",
          "tgn:7029392"
        ],
        "placetype": [
          "aat:300008347"
        ],
        "id": 7490245,
        "name:xx": "Shicuolinzitou"
      }
    },
    {
      "geometry": {
        "type": "Point",
        "coordinates": [
          121.225556,
          24.817222
        ]
      },
      "type": "Feature",
      "properties": {
        "hierarchy": [
          "tgn:7490246",
          "tgn:1000004",
          "tgn:7001013",
          "tgn:1000141",
          "tgn:7029392"
        ],
        "placetype": [
          "aat:300008347"
        ],
        "id": 7490246,
        "name:xx": "Shilianzi"
      }
    },
    {
      "geometry": {
        "type": "Point",
        "coordinates": [
          120.209167,
          23.148889
        ]
      },
      "type": "Feature",
      "properties": {
        "hierarchy": [
          "tgn:7490247",
          "tgn:1000004",
          "tgn:7490934",
          "tgn:1000141",
          "tgn:7029392"
        ],
        "placetype": [
          "aat:300008347"
        ],
        "id": 7490247,
        "name:xx": "Shiliao"
      }
    },
    {
      "geometry": {
        "type": "Point",
        "coordinates": [
          121.228889,
          24.795833
        ]
      },
      "type": "Feature",
      "properties": {
        "hierarchy": [
          "tgn:7490248",
          "tgn:1000004",
          "tgn:7471332",
          "tgn:1000141",
          "tgn:7029392"
        ],
        "placetype": [
          "aat:300008347"
        ],
        "id": 7490248,
        "name:xx": "Shiliao"
      }
    },
    {
      "geometry": {
        "type": "Point",
        "coordinates": [
          119.570259,
          23.525133
        ]
      },
      "type": "Feature",
      "properties": {
        "hierarchy": [
          "tgn:7490249",
          "tgn:1000004",
          "tgn:7004300",
          "tgn:1000141",
          "tgn:7029392"
        ],
        "placetype": [
          "aat:300008347"
        ],
        "id": 7490249,
        "name:xx": "Shili"
      }
    }
  ]
}
