{
  "type": "FeatureCollection",
  "features": [
    {
      "geometry": {
        "type": "Point",
        "coordinates": [
          86.37994,
          26.178175
        ]
      },
      "type": "Feature",
      "properties": {
        "hierarchy": [
          "tgn:7574870",
          "tgn:1000004",
          "tgn:1001842",
          "tgn:7000198",
          "tgn:7029392"
        ],
        "placetype": [
          "aat:300008347"
        ],
        "name:en": "Madhepur",
        "id": 7574870
      }
    },
    {
      "geometry": {
        "type": "Point",
        "coordinates": [
          69.966667,
          21.25
        ]
      },
      "type": "Feature",
      "properties": {
        "hierarchy": [
          "tgn:7574871",
          "tgn:1000004",
          "tgn:1001869",
          "tgn:7000198",
          "tgn:7029392"
        ],
        "placetype": [
          "aat:300008347"
        ],
        "name:en": "Mādhavpur",
        "id": 7574871
      }
    },
    {
      "geometry": {
        "type": "Point",
        "coordinates": [
          77.35,
          15.933333
        ]
      },
      "type": "Feature",
      "properties": {
        "hierarchy": [
          "tgn:7574872",
          "tgn:1001828",
          "tgn:1000004",
          "tgn:7000198",
          "tgn:7029392"
        ],
        "placetype": [
          "aat:300008347"
        ],
        "name:en": "Mādhavaram",
        "id": 7574872
      }
    },
    {
      "geometry": {
        "type": "Point",
        "coordinates": [
          79.116667,
          14.416667
        ]
      },
      "type": "Feature",
      "properties": {
        "hierarchy": [
          "tgn:7574873",
          "tgn:1001828",
          "tgn:1000004",
          "tgn:7000198",
          "tgn:7029392"
        ],
        "placetype": [
          "aat:300008347"
        ],
        "name:en": "Mādhavaram",
        "id": 7574873
      }
    },
    {
      "geometry": {
        "type": "Point",
        "coordinates": [
          69.716667,
          23.25
        ]
      },
      "type": "Feature",
      "properties": {
        "hierarchy": [
          "tgn:7574874",
          "tgn:1000004",
          "tgn:1001869",
          "tgn:7000198",
          "tgn:7029392"
        ],
        "placetype": [
          "aat:300007783"
        ],
        "name:en": "Mādhāpur",
        "id": 7574874
      }
    },
    {
      "geometry": {
        "type": "Point",
        "coordinates": [
          77.966667,
          10.866667
        ]
      },
      "type": "Feature",
      "properties": {
        "hierarchy": [
          "tgn:7574875",
          "tgn:1000004",
          "tgn:7000198",
          "tgn:7001797",
          "tgn:7029392"
        ],
        "placetype": [
          "aat:300008699"
        ],
        "name:en": "Kodavanār River",
        "id": 7574875
      }
    },
    {
      "geometry": {
        "type": "Point",
        "coordinates": [
          80.016667,
          14.566667
        ]
      },
      "type": "Feature",
      "properties": {
        "hierarchy": [
          "tgn:7574876",
          "tgn:1001828",
          "tgn:1000004",
          "tgn:7000198",
          "tgn:7029392"
        ],
        "placetype": [
          "aat:300008347"
        ],
        "name:en": "Kodavalūru",
        "id": 7574876
      }
    },
    {
      "geometry": {
        "type": "Point",
        "coordinates": [
          76.35,
          10.033333
        ]
      },
      "type": "Feature",
      "properties": {
        "hierarchy": [
          "tgn:7574877",
          "tgn:1000004",
          "tgn:7000198",
          "tgn:1001886",
          "tgn:7029392"
        ],
        "placetype": [
          "aat:300008777"
        ],
        "name:en": "Kodasseri Kūmban",
        "id": 7574877
      }
    },
    {
      "geometry": {
        "type": "Point",
        "coordinates": [
          85.631861,
          24.512465
        ]
      },
      "type": "Feature",
      "properties": {
        "hierarchy": [
          "tgn:7574878",
          "tgn:1000004",
          "tgn:7000198",
          "tgn:7031783",
          "tgn:7029392"
        ],
        "placetype": [
          "aat:300008865"
        ],
        "name:en": "Kodarma Reserved Forest",
        "id": 7574878
      }
    },
    {
      "geometry": {
        "type": "Point",
        "coordinates": [
          85.527777,
          24.435317
        ]
      },
      "type": "Feature",
      "properties": {
        "hierarchy": [
          "tgn:7574879",
          "tgn:1000004",
          "tgn:7000198",
          "tgn:7031783",
          "tgn:7029392"
        ],
        "placetype": [
          "aat:300007783"
        ],
        "name:en": "Kodarma",
        "id": 7574879
      }
    }
  ]
}
