{
  "type": "FeatureCollection",
  "features": [
    {
      "geometry": {
        "type": "Point",
        "coordinates": [
          31.560498,
          31.353563
        ]
      },
      "type": "Feature",
      "properties": {
        "hierarchy": [
          "tgn:7543660",
          "tgn:7001242",
          "tgn:1001059",
          "tgn:7016833",
          "tgn:7029392"
        ],
        "placetype": [
          "aat:300008347"
        ],
        "id": 7543660,
        "name:xx": "'Izbat Muḩammad Suwaylim"
      }
    },
    {
      "geometry": {
        "type": "Point",
        "coordinates": [
          31.547092,
          31.353576
        ]
      },
      "type": "Feature",
      "properties": {
        "hierarchy": [
          "tgn:7543661",
          "tgn:7001242",
          "tgn:1001059",
          "tgn:7016833",
          "tgn:7029392"
        ],
        "placetype": [
          "aat:300008347"
        ],
        "id": 7543661,
        "name:xx": "'Izbat Diksun"
      }
    },
    {
      "geometry": {
        "type": "Point",
        "coordinates": [
          31.535663,
          31.361042
        ]
      },
      "type": "Feature",
      "properties": {
        "hierarchy": [
          "tgn:7543662",
          "tgn:7001242",
          "tgn:7016833",
          "tgn:1001225",
          "tgn:7029392"
        ],
        "placetype": [
          "aat:300008347"
        ],
        "id": 7543662,
        "name:xx": "'Izbat Umm Shihābī"
      }
    },
    {
      "geometry": {
        "type": "Point",
        "coordinates": [
          32.956667,
          30.493333
        ]
      },
      "type": "Feature",
      "properties": {
        "hierarchy": [
          "tgn:7543663",
          "tgn:7001242",
          "tgn:7016833",
          "tgn:7001335",
          "tgn:7029392"
        ],
        "placetype": [
          "aat:300008777"
        ],
        "name:en": "Ar Ruwaysāt",
        "id": 7543663
      }
    },
    {
      "geometry": {
        "type": "Point",
        "coordinates": [
          33.129722,
          29.853889
        ]
      },
      "type": "Feature",
      "properties": {
        "hierarchy": [
          "tgn:7543664",
          "tgn:7001242",
          "tgn:7016833",
          "tgn:7001336",
          "tgn:7029392"
        ],
        "placetype": [
          "aat:300006909"
        ],
        "id": 7543664,
        "name:xx": "Qal'at al Jindī"
      }
    },
    {
      "geometry": {
        "type": "Point",
        "coordinates": [
          33.006389,
          29.652222
        ]
      },
      "type": "Feature",
      "properties": {
        "hierarchy": [
          "tgn:7543665",
          "tgn:7001242",
          "tgn:7016833",
          "tgn:7001336",
          "tgn:7029392"
        ],
        "placetype": [
          "aat:300008697"
        ],
        "id": 7543665,
        "name:xx": "Qaţār, 'Ayn al"
      }
    },
    {
      "geometry": {
        "type": "Point",
        "coordinates": [
          33.018611,
          29.612222
        ]
      },
      "type": "Feature",
      "properties": {
        "hierarchy": [
          "tgn:7543666",
          "tgn:7001242",
          "tgn:7016833",
          "tgn:7001336",
          "tgn:7029392"
        ],
        "placetype": [
          "aat:300008697"
        ],
        "id": 7543666,
        "name:xx": "Umm Sa'īd, 'Ayn"
      }
    },
    {
      "geometry": {
        "type": "Point",
        "coordinates": [
          33.028056,
          29.594444
        ]
      },
      "type": "Feature",
      "properties": {
        "hierarchy": [
          "tgn:7543667",
          "tgn:7001242",
          "tgn:7016833",
          "tgn:7001336",
          "tgn:7029392"
        ],
        "placetype": [
          "aat:300008697"
        ],
        "id": 7543667,
        "name:xx": "Dirbah, 'Ayn ad"
      }
    },
    {
      "geometry": {
        "type": "Point",
        "coordinates": [
          33.115,
          29.566389
        ]
      },
      "type": "Feature",
      "properties": {
        "hierarchy": [
          "tgn:7543668",
          "tgn:7001242",
          "tgn:7016833",
          "tgn:7001336",
          "tgn:7029392"
        ],
        "placetype": [
          "aat:300379998"
        ],
        "id": 7543668,
        "name:xx": "Umm Ḩamth, Wādī"
      }
    },
    {
      "geometry": {
        "type": "Point",
        "coordinates": [
          33.079444,
          29.678611
        ]
      },
      "type": "Feature",
      "properties": {
        "hierarchy": [
          "tgn:7543669",
          "tgn:7001242",
          "tgn:7016833",
          "tgn:7001336",
          "tgn:7029392"
        ],
        "placetype": [
          "aat:300008795"
        ],
        "id": 7543669,
        "name:xx": "Lahayān, Jabal"
      }
    }
  ]
}
