{
  "type": "FeatureCollection",
  "features": [
    {
      "geometry": {
        "type": "Point",
        "coordinates": [
          121.561571,
          25.025197
        ]
      },
      "type": "Feature",
      "properties": {
        "hierarchy": [
          "tgn:7496930",
          "tgn:1000004",
          "tgn:1000959",
          "tgn:1000141",
          "tgn:7029392"
        ],
        "placetype": [
          "aat:300006610"
        ],
        "id": 7496930,
        "name:xx": "Taibei Yi Xueyuan"
      }
    },
    {
      "geometry": {
        "type": "Point",
        "coordinates": [
          121.565384,
          25.019014
        ]
      },
      "type": "Feature",
      "properties": {
        "hierarchy": [
          "tgn:7496931",
          "tgn:1000004",
          "tgn:1000959",
          "tgn:1000141",
          "tgn:7029392"
        ],
        "placetype": [
          "aat:300008777"
        ],
        "id": 7496931,
        "name:xx": "Liuzhanglizhuang"
      }
    },
    {
      "geometry": {
        "type": "Point",
        "coordinates": [
          121.567893,
          25.025207
        ]
      },
      "type": "Feature",
      "properties": {
        "hierarchy": [
          "tgn:7496932",
          "tgn:1000004",
          "tgn:1000959",
          "tgn:1000141",
          "tgn:7029392"
        ],
        "placetype": [
          "aat:300006495"
        ],
        "id": 7496932,
        "name:xx": "Wuxing Guoxiao"
      }
    },
    {
      "geometry": {
        "type": "Point",
        "coordinates": [
          121.58008,
          25.0209
        ]
      },
      "type": "Feature",
      "properties": {
        "hierarchy": [
          "tgn:7496933",
          "tgn:1000004",
          "tgn:1000959",
          "tgn:1000141",
          "tgn:7029392"
        ],
        "placetype": [
          "aat:300007595"
        ],
        "id": 7496933,
        "name:xx": "Dabei Fotang"
      }
    },
    {
      "geometry": {
        "type": "Point",
        "coordinates": [
          121.578753,
          25.022353
        ]
      },
      "type": "Feature",
      "properties": {
        "hierarchy": [
          "tgn:7496934",
          "tgn:1000004",
          "tgn:1000959",
          "tgn:1000141",
          "tgn:7029392"
        ],
        "placetype": [
          "aat:300007595"
        ],
        "id": 7496934,
        "name:xx": "Shengtian Gong"
      }
    },
    {
      "geometry": {
        "type": "Point",
        "coordinates": [
          121.57842,
          25.02698
        ]
      },
      "type": "Feature",
      "properties": {
        "hierarchy": [
          "tgn:7496935",
          "tgn:1000004",
          "tgn:1000959",
          "tgn:1000141",
          "tgn:7029392"
        ],
        "placetype": [
          "aat:300007595"
        ],
        "id": 7496935,
        "name:xx": "Wuyin Si"
      }
    },
    {
      "geometry": {
        "type": "Point",
        "coordinates": [
          121.581799,
          25.022806
        ]
      },
      "type": "Feature",
      "properties": {
        "hierarchy": [
          "tgn:7496936",
          "tgn:1000004",
          "tgn:1000959",
          "tgn:1000141",
          "tgn:7029392"
        ],
        "placetype": [
          "aat:300007595"
        ],
        "id": 7496936,
        "name:xx": "Ciyun Si"
      }
    },
    {
      "geometry": {
        "type": "Point",
        "coordinates": [
          121.586214,
          25.025537
        ]
      },
      "type": "Feature",
      "properties": {
        "hierarchy": [
          "tgn:7496937",
          "tgn:1000004",
          "tgn:1000959",
          "tgn:1000141",
          "tgn:7029392"
        ],
        "placetype": [
          "aat:300008795"
        ],
        "id": 7496937,
        "name:xx": "Nangang Shan"
      }
    },
    {
      "geometry": {
        "type": "Point",
        "coordinates": [
          121.584827,
          25.02975
        ]
      },
      "type": "Feature",
      "properties": {
        "hierarchy": [
          "tgn:7496938",
          "tgn:1000004",
          "tgn:1000959",
          "tgn:1000141",
          "tgn:7029392"
        ],
        "placetype": [
          "aat:300007595"
        ],
        "id": 7496938,
        "name:xx": "Daming Si"
      }
    },
    {
      "geometry": {
        "type": "Point",
        "coordinates": [
          121.463816,
          25.070866
        ]
      },
      "type": "Feature",
      "properties": {
        "hierarchy": [
          "tgn:7496939",
          "tgn:1000004",
          "tgn:1000454",
          "tgn:1000141",
          "tgn:7029392"
        ],
        "placetype": [
          "aat:300006156"
        ],
        "id": 7496939,
        "name:xx": "Shuhongdao You'an Ti"
      }
    }
  ]
}
