{
  "type": "FeatureCollection",
  "features": [
    {
      "geometry": {
        "type": "Point",
        "coordinates": [
          1.183333,
          52.033333
        ]
      },
      "type": "Feature",
      "properties": {
        "hierarchy": [
          "tgn:1124192",
          "tgn:7002445",
          "tgn:1000003",
          "tgn:7008185",
          "tgn:7008591",
          "tgn:7029392"
        ],
        "placetype": [
          "aat:300008707",
          "aat:300008699"
        ],
        "name:en": "Gipping",
        "id": 1124192
      }
    },
    {
      "geometry": {
        "type": "Point",
        "coordinates": [
          12.142,
          -15.068
        ]
      },
      "type": "Feature",
      "properties": {
        "hierarchy": [
          "tgn:1124193",
          "tgn:7001242",
          "tgn:1000149",
          "tgn:7000392",
          "tgn:7029392"
        ],
        "placetype": [
          "aat:300008707"
        ],
        "id": 1124193,
        "name:xx": "Giraul"
      }
    },
    {
      "geometry": {
        "type": "Point",
        "coordinates": [
          75.3167,
          21.1333
        ]
      },
      "type": "Feature",
      "properties": {
        "hierarchy": [
          "tgn:1124195",
          "tgn:1000004",
          "tgn:7000198",
          "tgn:7029392"
        ],
        "placetype": [
          "aat:300008707"
        ],
        "id": 1124195,
        "name:xx": "Girna"
      }
    },
    {
      "geometry": {
        "type": "Point",
        "coordinates": [
          -4.85,
          55.25
        ]
      },
      "type": "Feature",
      "properties": {
        "hierarchy": [
          "tgn:1124197",
          "tgn:7002444",
          "tgn:1000003",
          "tgn:7019085",
          "tgn:7008591",
          "tgn:7029392"
        ],
        "placetype": [
          "aat:300008707",
          "aat:300008699"
        ],
        "name:en": "Girvan, Water of",
        "id": 1124197
      }
    },
    {
      "geometry": {
        "type": "Point",
        "coordinates": [
          81.0833,
          28.25
        ]
      },
      "type": "Feature",
      "properties": {
        "hierarchy": [
          "tgn:1124198",
          "tgn:1000004",
          "tgn:7029392"
        ],
        "placetype": [
          "aat:300008707"
        ],
        "id": 1124198,
        "name:xx": "Girwa"
      }
    }
  ]
}
