{
  "type": "FeatureCollection",
  "features": [
    {
      "geometry": {
        "type": "Point",
        "coordinates": [
          121.325278,
          24.696667
        ]
      },
      "type": "Feature",
      "properties": {
        "hierarchy": [
          "tgn:7491030",
          "tgn:1000004",
          "tgn:7001013",
          "tgn:1000141",
          "tgn:7029392"
        ],
        "placetype": [
          "aat:300008798"
        ],
        "id": 7491030,
        "name:xx": "Taiping Shan"
      }
    },
    {
      "geometry": {
        "type": "Point",
        "coordinates": [
          120.875556,
          22.098333
        ]
      },
      "type": "Feature",
      "properties": {
        "hierarchy": [
          "tgn:7491031",
          "tgn:1000004",
          "tgn:7492971",
          "tgn:1000141",
          "tgn:7029392"
        ],
        "placetype": [
          "aat:300008798"
        ],
        "id": 7491031,
        "name:xx": "Jiupeng Shan"
      }
    },
    {
      "geometry": {
        "type": "Point",
        "coordinates": [
          120.765278,
          24.431389
        ]
      },
      "type": "Feature",
      "properties": {
        "hierarchy": [
          "tgn:7491032",
          "tgn:7487020",
          "tgn:1000004",
          "tgn:1000141",
          "tgn:7029392"
        ],
        "placetype": [
          "aat:300008798"
        ],
        "id": 7491032,
        "name:xx": "Taiping Shan"
      }
    },
    {
      "geometry": {
        "type": "Point",
        "coordinates": [
          120.825527,
          23.832232
        ]
      },
      "type": "Feature",
      "properties": {
        "hierarchy": [
          "tgn:7491033",
          "tgn:7488858",
          "tgn:1000004",
          "tgn:1000141",
          "tgn:7029392"
        ],
        "placetype": [
          "aat:300008798"
        ],
        "id": 7491033,
        "name:xx": "Taiping Shan"
      }
    },
    {
      "geometry": {
        "type": "Point",
        "coordinates": [
          121.816761,
          25.043017
        ]
      },
      "type": "Feature",
      "properties": {
        "hierarchy": [
          "tgn:7491034",
          "tgn:1000004",
          "tgn:1000454",
          "tgn:1000141",
          "tgn:7029392"
        ],
        "placetype": [
          "aat:300008798"
        ],
        "id": 7491034,
        "name:xx": "Dapinglin Shan"
      }
    },
    {
      "geometry": {
        "type": "Point",
        "coordinates": [
          121.378307,
          25.115019
        ]
      },
      "type": "Feature",
      "properties": {
        "hierarchy": [
          "tgn:7491035",
          "tgn:1000004",
          "tgn:1000454",
          "tgn:1000141",
          "tgn:7029392"
        ],
        "placetype": [
          "aat:300008347"
        ],
        "id": 7491035,
        "name:xx": "Taipingling"
      }
    },
    {
      "geometry": {
        "type": "Point",
        "coordinates": [
          120.766667,
          24.116667
        ]
      },
      "type": "Feature",
      "properties": {
        "hierarchy": [
          "tgn:7491036",
          "tgn:1000004",
          "tgn:7001009",
          "tgn:1000141",
          "tgn:7029392"
        ],
        "placetype": [
          "aat:300387173"
        ],
        "id": 7491036,
        "name:xx": "Taiping Shi"
      }
    },
    {
      "geometry": {
        "type": "Point",
        "coordinates": [
          121.836667,
          24.974444
        ]
      },
      "type": "Feature",
      "properties": {
        "hierarchy": [
          "tgn:7491037",
          "tgn:1000004",
          "tgn:1000454",
          "tgn:1000141",
          "tgn:7029392"
        ],
        "placetype": [
          "aat:300008699"
        ],
        "id": 7491037,
        "name:xx": "Taiping Xi"
      }
    },
    {
      "geometry": {
        "type": "Point",
        "coordinates": [
          121.34286,
          23.391077
        ]
      },
      "type": "Feature",
      "properties": {
        "hierarchy": [
          "tgn:7491038",
          "tgn:7001010",
          "tgn:1000004",
          "tgn:1000141",
          "tgn:7029392"
        ],
        "placetype": [
          "aat:300008699"
        ],
        "id": 7491038,
        "name:xx": "Fengping Xi"
      }
    },
    {
      "geometry": {
        "type": "Point",
        "coordinates": [
          121.171944,
          24.758611
        ]
      },
      "type": "Feature",
      "properties": {
        "hierarchy": [
          "tgn:7491039",
          "tgn:1000004",
          "tgn:7471332",
          "tgn:1000141",
          "tgn:7029392"
        ],
        "placetype": [
          "aat:300007836"
        ],
        "id": 7491039,
        "name:xx": "Taiping Qiao"
      }
    }
  ]
}
