{
  "type": "FeatureCollection",
  "features": [
    {
      "geometry": {
        "type": "Point",
        "coordinates": [
          79.242,
          24.8572
        ]
      },
      "type": "Feature",
      "properties": {
        "hierarchy": [
          "tgn:7565100",
          "tgn:1000004",
          "tgn:7000198",
          "tgn:1001894",
          "tgn:7029392"
        ],
        "placetype": [
          "aat:300008865"
        ],
        "name:en": "T카la Protected Forest",
        "id": 7565100
      }
    },
    {
      "geometry": {
        "type": "Point",
        "coordinates": [
          79.244,
          24.8678
        ]
      },
      "type": "Feature",
      "properties": {
        "hierarchy": [
          "tgn:7565101",
          "tgn:1000004",
          "tgn:7000198",
          "tgn:1001894",
          "tgn:7029392"
        ],
        "placetype": [
          "aat:300008865"
        ],
        "name:en": "Dharampura Protected Forest",
        "id": 7565101
      }
    },
    {
      "geometry": {
        "type": "Point",
        "coordinates": [
          79.225996,
          24.871554
        ]
      },
      "type": "Feature",
      "properties": {
        "hierarchy": [
          "tgn:7565102",
          "tgn:1000004",
          "tgn:7000198",
          "tgn:1001894",
          "tgn:7029392"
        ],
        "placetype": [
          "aat:300008347"
        ],
        "name:en": "Dharampura",
        "id": 7565102
      }
    },
    {
      "geometry": {
        "type": "Point",
        "coordinates": [
          79.738815,
          26.8773
        ]
      },
      "type": "Feature",
      "properties": {
        "hierarchy": [
          "tgn:7565103",
          "tgn:1000004",
          "tgn:7000198",
          "tgn:7016722",
          "tgn:7029392"
        ],
        "placetype": [
          "aat:300008347"
        ],
        "name:en": "Sukhi",
        "id": 7565103
      }
    },
    {
      "geometry": {
        "type": "Point",
        "coordinates": [
          79.736627,
          26.872061
        ]
      },
      "type": "Feature",
      "properties": {
        "hierarchy": [
          "tgn:7565104",
          "tgn:1000004",
          "tgn:7000198",
          "tgn:7016722",
          "tgn:7029392"
        ],
        "placetype": [
          "aat:300008347"
        ],
        "name:en": "T훮ra Purwa",
        "id": 7565104
      }
    },
    {
      "geometry": {
        "type": "Point",
        "coordinates": [
          79.746041,
          26.873585
        ]
      },
      "type": "Feature",
      "properties": {
        "hierarchy": [
          "tgn:7565105",
          "tgn:1000004",
          "tgn:7000198",
          "tgn:7016722",
          "tgn:7029392"
        ],
        "placetype": [
          "aat:300008347"
        ],
        "name:en": "Kurhina",
        "id": 7565105
      }
    },
    {
      "geometry": {
        "type": "Point",
        "coordinates": [
          79.740764,
          26.882681
        ]
      },
      "type": "Feature",
      "properties": {
        "hierarchy": [
          "tgn:7565106",
          "tgn:1000004",
          "tgn:7000198",
          "tgn:7016722",
          "tgn:7029392"
        ],
        "placetype": [
          "aat:300008347"
        ],
        "name:en": "Purwa Chhangi",
        "id": 7565106
      }
    },
    {
      "geometry": {
        "type": "Point",
        "coordinates": [
          79.739667,
          26.894885
        ]
      },
      "type": "Feature",
      "properties": {
        "hierarchy": [
          "tgn:7565107",
          "tgn:1000004",
          "tgn:7000198",
          "tgn:7016722",
          "tgn:7029392"
        ],
        "placetype": [
          "aat:300008347"
        ],
        "name:en": "Sampur",
        "id": 7565107
      }
    },
    {
      "geometry": {
        "type": "Point",
        "coordinates": [
          79.717957,
          26.894981
        ]
      },
      "type": "Feature",
      "properties": {
        "hierarchy": [
          "tgn:7565108",
          "tgn:1000004",
          "tgn:7000198",
          "tgn:7016722",
          "tgn:7029392"
        ],
        "placetype": [
          "aat:300008347"
        ],
        "name:en": "Purwa Nik훮ri",
        "id": 7565108
      }
    },
    {
      "geometry": {
        "type": "Point",
        "coordinates": [
          79.70066,
          26.889354
        ]
      },
      "type": "Feature",
      "properties": {
        "hierarchy": [
          "tgn:7565109",
          "tgn:1000004",
          "tgn:7000198",
          "tgn:7016722",
          "tgn:7029392"
        ],
        "placetype": [
          "aat:300008347"
        ],
        "name:en": "Chhatarw훮pur",
        "id": 7565109
      }
    }
  ]
}
