{
  "type": "FeatureCollection",
  "features": [
    {
      "geometry": {
        "type": "Point",
        "coordinates": [
          -101.078056,
          21.195278
        ]
      },
      "type": "Feature",
      "properties": {
        "hierarchy": [
          "tgn:7418220",
          "tgn:7005584",
          "tgn:1000001",
          "tgn:7005560",
          "tgn:7029392"
        ],
        "placetype": [
          "aat:300008347"
        ],
        "id": 7418220,
        "name:xx": "Ciprés"
      }
    },
    {
      "geometry": {
        "type": "Point",
        "coordinates": [
          -101.054722,
          21.212778
        ]
      },
      "type": "Feature",
      "properties": {
        "hierarchy": [
          "tgn:7418221",
          "tgn:7005584",
          "tgn:1000001",
          "tgn:7005560",
          "tgn:7029392"
        ],
        "placetype": [
          "aat:300008347"
        ],
        "id": 7418221,
        "name:xx": "Aguilillas"
      }
    },
    {
      "geometry": {
        "type": "Point",
        "coordinates": [
          -101.0625,
          21.229444
        ]
      },
      "type": "Feature",
      "properties": {
        "hierarchy": [
          "tgn:7418222",
          "tgn:7005584",
          "tgn:1000001",
          "tgn:7005560",
          "tgn:7029392"
        ],
        "placetype": [
          "aat:300008347"
        ],
        "id": 7418222,
        "name:xx": "Tecolote"
      }
    },
    {
      "geometry": {
        "type": "Point",
        "coordinates": [
          -101.015556,
          21.2475
        ]
      },
      "type": "Feature",
      "properties": {
        "hierarchy": [
          "tgn:7418223",
          "tgn:7005584",
          "tgn:1000001",
          "tgn:7005560",
          "tgn:7029392"
        ],
        "placetype": [
          "aat:300008347"
        ],
        "id": 7418223,
        "name:xx": "El Mastranto"
      }
    },
    {
      "geometry": {
        "type": "Point",
        "coordinates": [
          -101.0625,
          21.1875
        ]
      },
      "type": "Feature",
      "properties": {
        "hierarchy": [
          "tgn:7418224",
          "tgn:7005584",
          "tgn:1000001",
          "tgn:7005560",
          "tgn:7029392"
        ],
        "placetype": [
          "aat:300008347"
        ],
        "id": 7418224,
        "name:xx": "Refugio de Trancas"
      }
    },
    {
      "geometry": {
        "type": "Point",
        "coordinates": [
          -100.999444,
          21.17
        ]
      },
      "type": "Feature",
      "properties": {
        "hierarchy": [
          "tgn:7418225",
          "tgn:7005584",
          "tgn:1000001",
          "tgn:7005560",
          "tgn:7029392"
        ],
        "placetype": [
          "aat:300008347"
        ],
        "id": 7418225,
        "name:xx": "Los Cema"
      }
    },
    {
      "geometry": {
        "type": "Point",
        "coordinates": [
          -101.046667,
          21.155556
        ]
      },
      "type": "Feature",
      "properties": {
        "hierarchy": [
          "tgn:7418226",
          "tgn:7005584",
          "tgn:1000001",
          "tgn:7005560",
          "tgn:7029392"
        ],
        "placetype": [
          "aat:300008347"
        ],
        "id": 7418226,
        "name:xx": "San Martín"
      }
    },
    {
      "geometry": {
        "type": "Point",
        "coordinates": [
          -101.093611,
          21.156111
        ]
      },
      "type": "Feature",
      "properties": {
        "hierarchy": [
          "tgn:7418227",
          "tgn:7005584",
          "tgn:1000001",
          "tgn:7005560",
          "tgn:7029392"
        ],
        "placetype": [
          "aat:300008347"
        ],
        "id": 7418227,
        "name:xx": "Peña Colorada"
      }
    },
    {
      "geometry": {
        "type": "Point",
        "coordinates": [
          -101.078889,
          21.139444
        ]
      },
      "type": "Feature",
      "properties": {
        "hierarchy": [
          "tgn:7418228",
          "tgn:7005584",
          "tgn:1000001",
          "tgn:7005560",
          "tgn:7029392"
        ],
        "placetype": [
          "aat:300008347"
        ],
        "id": 7418228,
        "name:xx": "San Pedro de la Cueva"
      }
    },
    {
      "geometry": {
        "type": "Point",
        "coordinates": [
          -101.1025,
          21.119722
        ]
      },
      "type": "Feature",
      "properties": {
        "hierarchy": [
          "tgn:7418229",
          "tgn:7005584",
          "tgn:1000001",
          "tgn:7005560",
          "tgn:7029392"
        ],
        "placetype": [
          "aat:300008347"
        ],
        "id": 7418229,
        "name:xx": "Charco Azul"
      }
    }
  ]
}
