{
  "type": "FeatureCollection",
  "features": [
    {
      "geometry": {
        "type": "Point",
        "coordinates": [
          33.611389,
          28.231389
        ]
      },
      "type": "Feature",
      "properties": {
        "hierarchy": [
          "tgn:7542710",
          "tgn:7001242",
          "tgn:7016833",
          "tgn:7001336",
          "tgn:7029392"
        ],
        "placetype": [
          "aat:300008678"
        ],
        "name:en": "Ţūr, Mīnā' aţ",
        "id": 7542710
      }
    },
    {
      "geometry": {
        "type": "Point",
        "coordinates": [
          33.554584,
          28.311355
        ]
      },
      "type": "Feature",
      "properties": {
        "hierarchy": [
          "tgn:7542711",
          "tgn:7001242",
          "tgn:7016833",
          "tgn:7001336",
          "tgn:7029392"
        ],
        "placetype": [
          "aat:300008777"
        ],
        "name:en": "Abū Şuwayrah, Jabal",
        "id": 7542711
      }
    },
    {
      "geometry": {
        "type": "Point",
        "coordinates": [
          33.438085,
          28.868467
        ]
      },
      "type": "Feature",
      "properties": {
        "hierarchy": [
          "tgn:7542712",
          "tgn:7001242",
          "tgn:7016833",
          "tgn:7001336",
          "tgn:7029392"
        ],
        "placetype": [
          "aat:300379998"
        ],
        "id": 7542712,
        "name:xx": "Nab'a, Wādī"
      }
    },
    {
      "geometry": {
        "type": "Point",
        "coordinates": [
          33.354634,
          28.882877
        ]
      },
      "type": "Feature",
      "properties": {
        "hierarchy": [
          "tgn:7542713",
          "tgn:7001242",
          "tgn:7016833",
          "tgn:7001336",
          "tgn:7029392"
        ],
        "placetype": [
          "aat:300379998"
        ],
        "id": 7542713,
        "name:xx": "Badrah, Wādī al"
      }
    },
    {
      "geometry": {
        "type": "Point",
        "coordinates": [
          33.462653,
          28.894459
        ]
      },
      "type": "Feature",
      "properties": {
        "hierarchy": [
          "tgn:7542714",
          "tgn:7001242",
          "tgn:7016833",
          "tgn:7001336",
          "tgn:7029392"
        ],
        "placetype": [
          "aat:300379998"
        ],
        "id": 7542714,
        "name:xx": "Taymah, Wādī"
      }
    },
    {
      "geometry": {
        "type": "Point",
        "coordinates": [
          33.492243,
          28.93178
        ]
      },
      "type": "Feature",
      "properties": {
        "hierarchy": [
          "tgn:7542715",
          "tgn:7001242",
          "tgn:7016833",
          "tgn:7001336",
          "tgn:7029392"
        ],
        "placetype": [
          "aat:300379998"
        ],
        "id": 7542715,
        "name:xx": "Umm Ajraf, Wādī"
      }
    },
    {
      "geometry": {
        "type": "Point",
        "coordinates": [
          33.497624,
          28.989641
        ]
      },
      "type": "Feature",
      "properties": {
        "hierarchy": [
          "tgn:7542716",
          "tgn:7001242",
          "tgn:7016833",
          "tgn:7001336",
          "tgn:7029392"
        ],
        "placetype": [
          "aat:300008795"
        ],
        "id": 7542716,
        "name:xx": "Sāniyah, Jabal"
      }
    },
    {
      "geometry": {
        "type": "Point",
        "coordinates": [
          33.367288,
          28.954015
        ]
      },
      "type": "Feature",
      "properties": {
        "hierarchy": [
          "tgn:7542717",
          "tgn:7001242",
          "tgn:7016833",
          "tgn:7001336",
          "tgn:7029392"
        ],
        "placetype": [
          "aat:300008795"
        ],
        "id": 7542717,
        "name:xx": "Munājāh, Jabal"
      }
    },
    {
      "geometry": {
        "type": "Point",
        "coordinates": [
          33.336195,
          28.747858
        ]
      },
      "type": "Feature",
      "properties": {
        "hierarchy": [
          "tgn:7542718",
          "tgn:7001242",
          "tgn:7016833",
          "tgn:7001336",
          "tgn:7029392"
        ],
        "placetype": [
          "aat:300379998"
        ],
        "id": 7542718,
        "name:xx": "'Ulayjāt, Wādī"
      }
    },
    {
      "geometry": {
        "type": "Point",
        "coordinates": [
          33.236078,
          28.79585
        ]
      },
      "type": "Feature",
      "properties": {
        "hierarchy": [
          "tgn:7542719",
          "tgn:7001242",
          "tgn:7016833",
          "tgn:7001336",
          "tgn:7029392"
        ],
        "placetype": [
          "aat:300008795"
        ],
        "id": 7542719,
        "name:xx": "Nizāzāt, Jabal an"
      }
    }
  ]
}
