{
  "type": "FeatureCollection",
  "features": [
    {
      "geometry": {
        "type": "Point",
        "coordinates": [
          75.98505,
          25.743186
        ]
      },
      "type": "Feature",
      "properties": {
        "hierarchy": [
          "tgn:7559570",
          "tgn:1000004",
          "tgn:7000198",
          "tgn:7016788",
          "tgn:7029392"
        ],
        "placetype": [
          "aat:300008347"
        ],
        "name:en": "Rethoda",
        "id": 7559570
      }
    },
    {
      "geometry": {
        "type": "Point",
        "coordinates": [
          82.313535,
          21.267555
        ]
      },
      "type": "Feature",
      "properties": {
        "hierarchy": [
          "tgn:7559571",
          "tgn:1000004",
          "tgn:7031781",
          "tgn:7000198",
          "tgn:7029392"
        ],
        "placetype": [
          "aat:300008347"
        ],
        "name:en": "Raitam",
        "id": 7559571
      }
    },
    {
      "geometry": {
        "type": "Point",
        "coordinates": [
          76.700713,
          21.43405
        ]
      },
      "type": "Feature",
      "properties": {
        "hierarchy": [
          "tgn:7559572",
          "tgn:1000004",
          "tgn:7000198",
          "tgn:1001894",
          "tgn:7029392"
        ],
        "placetype": [
          "aat:300008347"
        ],
        "name:en": "Raitalai",
        "id": 7559572
      }
    },
    {
      "geometry": {
        "type": "Point",
        "coordinates": [
          77.954008,
          27.963886
        ]
      },
      "type": "Feature",
      "properties": {
        "hierarchy": [
          "tgn:7559573",
          "tgn:1000004",
          "tgn:7000198",
          "tgn:7016722",
          "tgn:7029392"
        ],
        "placetype": [
          "aat:300008347"
        ],
        "name:en": "Rait",
        "id": 7559573
      }
    },
    {
      "geometry": {
        "type": "Point",
        "coordinates": [
          73.933333,
          21.566667
        ]
      },
      "type": "Feature",
      "properties": {
        "hierarchy": [
          "tgn:7559574",
          "tgn:1000004",
          "tgn:7000198",
          "tgn:1001895",
          "tgn:7029392"
        ],
        "placetype": [
          "aat:300008347"
        ],
        "name:en": "R훮isingpur",
        "id": 7559574
      }
    },
    {
      "geometry": {
        "type": "Point",
        "coordinates": [
          82.733333,
          18.466667
        ]
      },
      "type": "Feature",
      "properties": {
        "hierarchy": [
          "tgn:7559575",
          "tgn:1000004",
          "tgn:7000198",
          "tgn:7016694",
          "tgn:7029392"
        ],
        "placetype": [
          "aat:300008347"
        ],
        "name:en": "R훮isingi",
        "id": 7559575
      }
    },
    {
      "geometry": {
        "type": "Point",
        "coordinates": [
          78.066787,
          29.694729
        ]
      },
      "type": "Feature",
      "properties": {
        "hierarchy": [
          "tgn:7559577",
          "tgn:1000004",
          "tgn:7000198",
          "tgn:7031786",
          "tgn:7029392"
        ],
        "placetype": [
          "aat:300007783"
        ],
        "name:en": "R훮isi",
        "id": 7559577
      }
    },
    {
      "geometry": {
        "type": "Point",
        "coordinates": [
          79.014964,
          26.994511
        ]
      },
      "type": "Feature",
      "properties": {
        "hierarchy": [
          "tgn:7559578",
          "tgn:1000004",
          "tgn:7000198",
          "tgn:7016722",
          "tgn:7029392"
        ],
        "placetype": [
          "aat:300008347"
        ],
        "name:en": "All카pur",
        "id": 7559578
      }
    },
    {
      "geometry": {
        "type": "Point",
        "coordinates": [
          79.010199,
          26.978793
        ]
      },
      "type": "Feature",
      "properties": {
        "hierarchy": [
          "tgn:7559579",
          "tgn:1000004",
          "tgn:7000198",
          "tgn:7016722",
          "tgn:7029392"
        ],
        "placetype": [
          "aat:300008347"
        ],
        "name:en": "Pasupur",
        "id": 7559579
      }
    }
  ]
}
