{
  "type": "FeatureCollection",
  "features": [
    {
      "geometry": {
        "type": "Point",
        "coordinates": [
          -96.893056,
          16.119444
        ]
      },
      "type": "Feature",
      "properties": {
        "hierarchy": [
          "tgn:7416890",
          "tgn:1000001",
          "tgn:7005591",
          "tgn:7005560",
          "tgn:7029392"
        ],
        "placetype": [
          "aat:300008347"
        ],
        "id": 7416890,
        "name:es": "El Galiván"
      }
    },
    {
      "geometry": {
        "type": "Point",
        "coordinates": [
          -96.859167,
          16.106111
        ]
      },
      "type": "Feature",
      "properties": {
        "hierarchy": [
          "tgn:7416891",
          "tgn:1000001",
          "tgn:7005591",
          "tgn:7005560",
          "tgn:7029392"
        ],
        "placetype": [
          "aat:300008347"
        ],
        "id": 7416891,
        "name:es": "Santo Antonio Lalana"
      }
    },
    {
      "geometry": {
        "type": "Point",
        "coordinates": [
          -96.8125,
          16.106944
        ]
      },
      "type": "Feature",
      "properties": {
        "hierarchy": [
          "tgn:7416892",
          "tgn:1000001",
          "tgn:7005591",
          "tgn:7005560",
          "tgn:7029392"
        ],
        "placetype": [
          "aat:300008699"
        ],
        "id": 7416892,
        "name:es": "La Loma, Río"
      }
    },
    {
      "geometry": {
        "type": "Point",
        "coordinates": [
          -96.796389,
          16.156111
        ]
      },
      "type": "Feature",
      "properties": {
        "hierarchy": [
          "tgn:7416893",
          "tgn:1000001",
          "tgn:7005591",
          "tgn:7005560",
          "tgn:7029392"
        ],
        "placetype": [
          "aat:300008347"
        ],
        "id": 7416893,
        "name:es": "Cazualtepec"
      }
    },
    {
      "geometry": {
        "type": "Point",
        "coordinates": [
          -96.764167,
          16.156111
        ]
      },
      "type": "Feature",
      "properties": {
        "hierarchy": [
          "tgn:7416894",
          "tgn:1000001",
          "tgn:7005591",
          "tgn:7005560",
          "tgn:7029392"
        ],
        "placetype": [
          "aat:300008699"
        ],
        "id": 7416894,
        "name:es": "San Francisco, Río"
      }
    },
    {
      "geometry": {
        "type": "Point",
        "coordinates": [
          -96.756944,
          16.139167
        ]
      },
      "type": "Feature",
      "properties": {
        "hierarchy": [
          "tgn:7416895",
          "tgn:1000001",
          "tgn:7005591",
          "tgn:7005560",
          "tgn:7029392"
        ],
        "placetype": [
          "aat:300008347"
        ],
        "id": 7416895,
        "name:es": "Cerro Flor"
      }
    },
    {
      "geometry": {
        "type": "Point",
        "coordinates": [
          -96.748889,
          16.044444
        ]
      },
      "type": "Feature",
      "properties": {
        "hierarchy": [
          "tgn:7416896",
          "tgn:1000001",
          "tgn:7005591",
          "tgn:7005560",
          "tgn:7029392"
        ],
        "placetype": [
          "aat:300008347"
        ],
        "id": 7416896,
        "name:es": "Río Medio"
      }
    },
    {
      "geometry": {
        "type": "Point",
        "coordinates": [
          -96.718611,
          16.046667
        ]
      },
      "type": "Feature",
      "properties": {
        "hierarchy": [
          "tgn:7416897",
          "tgn:1000001",
          "tgn:7005591",
          "tgn:7005560",
          "tgn:7029392"
        ],
        "placetype": [
          "aat:300008347"
        ],
        "id": 7416897,
        "name:es": "San José Peñasco"
      }
    },
    {
      "geometry": {
        "type": "Point",
        "coordinates": [
          -96.538056,
          16.03
        ]
      },
      "type": "Feature",
      "properties": {
        "hierarchy": [
          "tgn:7416898",
          "tgn:1000001",
          "tgn:7005591",
          "tgn:7005560",
          "tgn:7029392"
        ],
        "placetype": [
          "aat:300008347"
        ],
        "id": 7416898,
        "name:es": "Santa María Jalatengo"
      }
    },
    {
      "geometry": {
        "type": "Point",
        "coordinates": [
          -96.593611,
          16.0725
        ]
      },
      "type": "Feature",
      "properties": {
        "hierarchy": [
          "tgn:7416899",
          "tgn:1000001",
          "tgn:7005591",
          "tgn:7005560",
          "tgn:7029392"
        ],
        "placetype": [
          "aat:300008347"
        ],
        "id": 7416899,
        "name:es": "La Paz Obisbo"
      }
    }
  ]
}
