{
  "type": "FeatureCollection",
  "features": [
    {
      "geometry": {
        "type": "Point",
        "coordinates": [
          34.395002,
          29.559063
        ]
      },
      "type": "Feature",
      "properties": {
        "hierarchy": [
          "tgn:7528590",
          "tgn:7001242",
          "tgn:7016833",
          "tgn:7001336",
          "tgn:7029392"
        ],
        "placetype": [
          "aat:300379998"
        ],
        "id": 7528590,
        "name:xx": "Umm Ishtān, Wādī"
      }
    },
    {
      "geometry": {
        "type": "Point",
        "coordinates": [
          31.849232,
          29.18861
        ]
      },
      "type": "Feature",
      "properties": {
        "hierarchy": [
          "tgn:7528591",
          "tgn:7001242",
          "tgn:7016833",
          "tgn:7029392"
        ],
        "placetype": [
          "aat:300379998"
        ],
        "name:en": "Umm 'Irni, Wâdi",
        "id": 7528591
      }
    },
    {
      "geometry": {
        "type": "Point",
        "coordinates": [
          33.783546,
          27.0713
        ]
      },
      "type": "Feature",
      "properties": {
        "hierarchy": [
          "tgn:7528592",
          "tgn:7001242",
          "tgn:7001311",
          "tgn:7016833",
          "tgn:7029392"
        ],
        "placetype": [
          "aat:300379998"
        ],
        "name:en": "Umm 'Inab, Wādī",
        "id": 7528592
      }
    },
    {
      "geometry": {
        "type": "Point",
        "coordinates": [
          33.560723,
          26.90918
        ]
      },
      "type": "Feature",
      "properties": {
        "hierarchy": [
          "tgn:7528593",
          "tgn:7001242",
          "tgn:7001311",
          "tgn:7016833",
          "tgn:7029392"
        ],
        "placetype": [
          "aat:300008795"
        ],
        "name:en": "Umm 'Inab, Jabal",
        "id": 7528593
      }
    },
    {
      "geometry": {
        "type": "Point",
        "coordinates": [
          33.525525,
          26.899584
        ]
      },
      "type": "Feature",
      "properties": {
        "hierarchy": [
          "tgn:7528594",
          "tgn:7001242",
          "tgn:7001311",
          "tgn:7016833",
          "tgn:7029392"
        ],
        "placetype": [
          "aat:300006207"
        ],
        "name:en": "Bi'r Umm 'Inab",
        "id": 7528594
      }
    },
    {
      "geometry": {
        "type": "Point",
        "coordinates": [
          31.066667,
          27.333333
        ]
      },
      "type": "Feature",
      "properties": {
        "hierarchy": [
          "tgn:7528595",
          "tgn:7001242",
          "tgn:7001311",
          "tgn:7016833",
          "tgn:7029392"
        ],
        "placetype": [
          "aat:300379998"
        ],
        "name:en": "Umm Imām, Wādī",
        "id": 7528595
      }
    },
    {
      "geometry": {
        "type": "Point",
        "coordinates": [
          34.233333,
          25.45
        ]
      },
      "type": "Feature",
      "properties": {
        "hierarchy": [
          "tgn:7528596",
          "tgn:7001242",
          "tgn:7001311",
          "tgn:7016833",
          "tgn:7029392"
        ],
        "placetype": [
          "aat:300379998"
        ],
        "name:en": "Umm Illeiga, Wâdī",
        "id": 7528596
      }
    },
    {
      "geometry": {
        "type": "Point",
        "coordinates": [
          34.162859,
          28.211102
        ]
      },
      "type": "Feature",
      "properties": {
        "hierarchy": [
          "tgn:7528597",
          "tgn:7001242",
          "tgn:7016833",
          "tgn:7001336",
          "tgn:7029392"
        ],
        "placetype": [
          "aat:300008795"
        ],
        "name:en": "Umm Ikhliş, Jabal",
        "id": 7528597
      }
    },
    {
      "geometry": {
        "type": "Point",
        "coordinates": [
          27.883333,
          30.95
        ]
      },
      "type": "Feature",
      "properties": {
        "hierarchy": [
          "tgn:7528598",
          "tgn:7001242",
          "tgn:7016833",
          "tgn:1001418",
          "tgn:7029392"
        ],
        "placetype": [
          "aat:300132353"
        ],
        "name:en": "Umm Igeir, Harf",
        "id": 7528598
      }
    },
    {
      "geometry": {
        "type": "Point",
        "coordinates": [
          34.25,
          25.266667
        ]
      },
      "type": "Feature",
      "properties": {
        "hierarchy": [
          "tgn:7528599",
          "tgn:7001242",
          "tgn:7001311",
          "tgn:7016833",
          "tgn:7029392"
        ],
        "placetype": [
          "aat:300379998"
        ],
        "name:en": "Umm 'Iffein, Tal'et",
        "id": 7528599
      }
    }
  ]
}
