{
  "type": "FeatureCollection",
  "features": [
    {
      "geometry": {
        "type": "Point",
        "coordinates": [
          121.250855,
          22.886177
        ]
      },
      "type": "Feature",
      "properties": {
        "hierarchy": [
          "tgn:7499220",
          "tgn:1000004",
          "tgn:7491221",
          "tgn:1000141",
          "tgn:7029392"
        ],
        "placetype": [
          "aat:300008699"
        ],
        "id": 7499220,
        "name:xx": "Tengqiao Xi"
      }
    },
    {
      "geometry": {
        "type": "Point",
        "coordinates": [
          121.14716,
          22.897174
        ]
      },
      "type": "Feature",
      "properties": {
        "hierarchy": [
          "tgn:7499221",
          "tgn:1000004",
          "tgn:7491221",
          "tgn:1000141",
          "tgn:7029392"
        ],
        "placetype": [
          "aat:300008699"
        ],
        "id": 7499221,
        "name:xx": "Luanshan Xi"
      }
    },
    {
      "geometry": {
        "type": "Point",
        "coordinates": [
          121.14722,
          22.905086
        ]
      },
      "type": "Feature",
      "properties": {
        "hierarchy": [
          "tgn:7499222",
          "tgn:1000004",
          "tgn:7491221",
          "tgn:1000141",
          "tgn:7029392"
        ],
        "placetype": [
          "aat:300008699"
        ],
        "id": 7499222,
        "name:xx": "Meizi Xi"
      }
    },
    {
      "geometry": {
        "type": "Point",
        "coordinates": [
          121.1474,
          22.9366
        ]
      },
      "type": "Feature",
      "properties": {
        "hierarchy": [
          "tgn:7499223",
          "tgn:1000004",
          "tgn:7491221",
          "tgn:1000141",
          "tgn:7029392"
        ],
        "placetype": [
          "aat:300006156"
        ],
        "id": 7499223,
        "name:xx": "Luliao Tifang"
      }
    },
    {
      "geometry": {
        "type": "Point",
        "coordinates": [
          121.148213,
          22.936939
        ]
      },
      "type": "Feature",
      "properties": {
        "hierarchy": [
          "tgn:7499224",
          "tgn:1000004",
          "tgn:7491221",
          "tgn:1000141",
          "tgn:7029392"
        ],
        "placetype": [
          "aat:300006075"
        ],
        "id": 7499224,
        "name:xx": "Fengyuan Zhen Ganxian"
      }
    },
    {
      "geometry": {
        "type": "Point",
        "coordinates": [
          121.174795,
          22.96333
        ]
      },
      "type": "Feature",
      "properties": {
        "hierarchy": [
          "tgn:7499225",
          "tgn:1000004",
          "tgn:7491221",
          "tgn:1000141",
          "tgn:7029392"
        ],
        "placetype": [
          "aat:300008699"
        ],
        "id": 7499225,
        "name:xx": "Mukeng Xi"
      }
    },
    {
      "geometry": {
        "type": "Point",
        "coordinates": [
          121.24612,
          22.96722
        ]
      },
      "type": "Feature",
      "properties": {
        "hierarchy": [
          "tgn:7499226",
          "tgn:1000004",
          "tgn:7491221",
          "tgn:1000141",
          "tgn:7029392"
        ],
        "placetype": [
          "aat:300008699"
        ],
        "id": 7499226,
        "name:xx": "Fangziliao Xi"
      }
    },
    {
      "geometry": {
        "type": "Point",
        "coordinates": [
          121.164285,
          22.984263
        ]
      },
      "type": "Feature",
      "properties": {
        "hierarchy": [
          "tgn:7499227",
          "tgn:1000004",
          "tgn:7491221",
          "tgn:1000141",
          "tgn:7029392"
        ],
        "placetype": [
          "aat:300006156"
        ],
        "id": 7499227,
        "name:xx": "Ruihe Ti"
      }
    },
    {
      "geometry": {
        "type": "Point",
        "coordinates": [
          121.158645,
          22.756816
        ]
      },
      "type": "Feature",
      "properties": {
        "hierarchy": [
          "tgn:7499228",
          "tgn:1000004",
          "tgn:7491221",
          "tgn:1000141",
          "tgn:7029392"
        ],
        "placetype": [
          "aat:300006495"
        ],
        "id": 7499228,
        "name:xx": "Ren'ai Guoxiao"
      }
    },
    {
      "geometry": {
        "type": "Point",
        "coordinates": [
          121.147946,
          22.754383
        ]
      },
      "type": "Feature",
      "properties": {
        "hierarchy": [
          "tgn:7499229",
          "tgn:1000004",
          "tgn:7491221",
          "tgn:1000141",
          "tgn:7029392"
        ],
        "placetype": [
          "aat:300006495"
        ],
        "id": 7499229,
        "name:xx": "Shiyuan Fuxiao"
      }
    }
  ]
}
