{
  "type": "FeatureCollection",
  "features": [
    {
      "geometry": {
        "type": "Point",
        "coordinates": [
          120.536074,
          24.001003
        ]
      },
      "type": "Feature",
      "properties": {
        "hierarchy": [
          "tgn:7494580",
          "tgn:1000004",
          "tgn:7467799",
          "tgn:1000141",
          "tgn:7029392"
        ],
        "placetype": [
          "aat:300008347"
        ],
        "id": 7494580,
        "name:xx": "Tianyangzi"
      }
    },
    {
      "geometry": {
        "type": "Point",
        "coordinates": [
          120.598548,
          23.983959
        ]
      },
      "type": "Feature",
      "properties": {
        "hierarchy": [
          "tgn:7494581",
          "tgn:1000004",
          "tgn:7467799",
          "tgn:1000141",
          "tgn:7029392"
        ],
        "placetype": [
          "aat:300008347"
        ],
        "id": 7494581,
        "name:xx": "Dashukeng"
      }
    },
    {
      "geometry": {
        "type": "Point",
        "coordinates": [
          120.626129,
          23.805287
        ]
      },
      "type": "Feature",
      "properties": {
        "hierarchy": [
          "tgn:7494582",
          "tgn:1000004",
          "tgn:7467799",
          "tgn:1000141",
          "tgn:7029392"
        ],
        "placetype": [
          "aat:300266755"
        ],
        "id": 7494582,
        "name:xx": "Diwu Gongmu"
      }
    },
    {
      "geometry": {
        "type": "Point",
        "coordinates": [
          120.608303,
          23.9114
        ]
      },
      "type": "Feature",
      "properties": {
        "hierarchy": [
          "tgn:7494585",
          "tgn:1000004",
          "tgn:7467799",
          "tgn:1000141",
          "tgn:7029392"
        ],
        "placetype": [
          "aat:300008347"
        ],
        "id": 7494585,
        "name:xx": "Shitougongdakeng"
      }
    },
    {
      "geometry": {
        "type": "Point",
        "coordinates": [
          120.607173,
          23.93175
        ]
      },
      "type": "Feature",
      "properties": {
        "hierarchy": [
          "tgn:7494586",
          "tgn:1000004",
          "tgn:7467799",
          "tgn:1000141",
          "tgn:7029392"
        ],
        "placetype": [
          "aat:300008347"
        ],
        "id": 7494586,
        "name:xx": "Dishuikeng"
      }
    },
    {
      "geometry": {
        "type": "Point",
        "coordinates": [
          120.595225,
          23.95019
        ]
      },
      "type": "Feature",
      "properties": {
        "hierarchy": [
          "tgn:7494587",
          "tgn:1000004",
          "tgn:7467799",
          "tgn:1000141",
          "tgn:7029392"
        ],
        "placetype": [
          "aat:300008347"
        ],
        "id": 7494587,
        "name:xx": "Zhuangdu"
      }
    },
    {
      "geometry": {
        "type": "Point",
        "coordinates": [
          120.622754,
          23.954321
        ]
      },
      "type": "Feature",
      "properties": {
        "hierarchy": [
          "tgn:7494588",
          "tgn:7488858",
          "tgn:1000004",
          "tgn:1000141",
          "tgn:7029392"
        ],
        "placetype": [
          "aat:300008347"
        ],
        "id": 7494588,
        "name:xx": "Kengzinei"
      }
    },
    {
      "geometry": {
        "type": "Point",
        "coordinates": [
          120.611857,
          23.951269
        ]
      },
      "type": "Feature",
      "properties": {
        "hierarchy": [
          "tgn:7494589",
          "tgn:1000004",
          "tgn:7467799",
          "tgn:1000141",
          "tgn:7029392"
        ],
        "placetype": [
          "aat:300008347"
        ],
        "id": 7494589,
        "name:xx": "Dairenkeng"
      }
    }
  ]
}
