{
  "type": "FeatureCollection",
  "features": [
    {
      "geometry": {
        "type": "Point",
        "coordinates": [
          119.513056,
          23.376944
        ]
      },
      "type": "Feature",
      "properties": {
        "hierarchy": [
          "tgn:7503120",
          "tgn:1000004",
          "tgn:7004300",
          "tgn:1000141",
          "tgn:7029392"
        ],
        "placetype": [
          "aat:300008850"
        ],
        "id": 7503120,
        "name:xx": "Changwenzi"
      }
    },
    {
      "geometry": {
        "type": "Point",
        "coordinates": [
          119.5275,
          23.355556
        ]
      },
      "type": "Feature",
      "properties": {
        "hierarchy": [
          "tgn:7503121",
          "tgn:1000004",
          "tgn:7004300",
          "tgn:1000141",
          "tgn:7029392"
        ],
        "placetype": [
          "aat:300011692"
        ],
        "id": 7503121,
        "name:xx": "Haiweng Jiao"
      }
    },
    {
      "geometry": {
        "type": "Point",
        "coordinates": [
          119.521944,
          23.353333
        ]
      },
      "type": "Feature",
      "properties": {
        "hierarchy": [
          "tgn:7503122",
          "tgn:1000004",
          "tgn:7004300",
          "tgn:1000141",
          "tgn:7029392"
        ],
        "placetype": [
          "aat:300008713"
        ],
        "id": 7503122,
        "name:xx": "Jiangjun Gangdao"
      }
    },
    {
      "geometry": {
        "type": "Point",
        "coordinates": [
          119.5125,
          23.353611
        ]
      },
      "type": "Feature",
      "properties": {
        "hierarchy": [
          "tgn:7503123",
          "tgn:1000004",
          "tgn:7004300",
          "tgn:1000141",
          "tgn:7029392"
        ],
        "placetype": [
          "aat:300008850"
        ],
        "id": 7503123,
        "name:xx": "Guibikanwei"
      }
    },
    {
      "geometry": {
        "type": "Point",
        "coordinates": [
          119.508889,
          23.354722
        ]
      },
      "type": "Feature",
      "properties": {
        "hierarchy": [
          "tgn:7503124",
          "tgn:1000004",
          "tgn:7004300",
          "tgn:1000141",
          "tgn:7029392"
        ],
        "placetype": [
          "aat:300008347"
        ],
        "id": 7503124,
        "name:xx": "Shihuzi"
      }
    },
    {
      "geometry": {
        "type": "Point",
        "coordinates": [
          119.508056,
          23.357778
        ]
      },
      "type": "Feature",
      "properties": {
        "hierarchy": [
          "tgn:7503125",
          "tgn:1000004",
          "tgn:7004300",
          "tgn:1000141",
          "tgn:7029392"
        ],
        "placetype": [
          "aat:300008347"
        ],
        "id": 7503125,
        "name:xx": "Yuzichang"
      }
    },
    {
      "geometry": {
        "type": "Point",
        "coordinates": [
          119.526667,
          23.365
        ]
      },
      "type": "Feature",
      "properties": {
        "hierarchy": [
          "tgn:7503126",
          "tgn:1000004",
          "tgn:7004300",
          "tgn:1000141",
          "tgn:7029392"
        ],
        "placetype": [
          "aat:300006495"
        ],
        "id": 7503126,
        "name:xx": "Jiang'ao Guozhong"
      }
    },
    {
      "geometry": {
        "type": "Point",
        "coordinates": [
          119.525556,
          23.363333
        ]
      },
      "type": "Feature",
      "properties": {
        "hierarchy": [
          "tgn:7503127",
          "tgn:1000004",
          "tgn:7004300",
          "tgn:1000141",
          "tgn:7029392"
        ],
        "placetype": [
          "aat:300006495"
        ],
        "id": 7503127,
        "name:xx": "Jiangjun Guoxiao"
      }
    },
    {
      "geometry": {
        "type": "Point",
        "coordinates": [
          119.538611,
          23.370833
        ]
      },
      "type": "Feature",
      "properties": {
        "hierarchy": [
          "tgn:7503128",
          "tgn:1000004",
          "tgn:7004300",
          "tgn:1000141",
          "tgn:7029392"
        ],
        "placetype": [
          "aat:300008777"
        ],
        "id": 7503128,
        "name:xx": "Dajiao Shan"
      }
    },
    {
      "geometry": {
        "type": "Point",
        "coordinates": [
          119.523333,
          23.365278
        ]
      },
      "type": "Feature",
      "properties": {
        "hierarchy": [
          "tgn:7503129",
          "tgn:1000004",
          "tgn:7004300",
          "tgn:1000141",
          "tgn:7029392"
        ],
        "placetype": [
          "aat:300007595"
        ],
        "id": 7503129,
        "name:xx": "Tianhou Gong"
      }
    }
  ]
}
