{
  "type": "FeatureCollection",
  "features": [
    {
      "geometry": {
        "type": "Point",
        "coordinates": [
          79.212299,
          27.91646
        ]
      },
      "type": "Feature",
      "properties": {
        "hierarchy": [
          "tgn:7561710",
          "tgn:1000004",
          "tgn:7000198",
          "tgn:7016722",
          "tgn:7029392"
        ],
        "placetype": [
          "aat:300008347"
        ],
        "name:en": "Āspur",
        "id": 7561710
      }
    },
    {
      "geometry": {
        "type": "Point",
        "coordinates": [
          79.208047,
          27.923929
        ]
      },
      "type": "Feature",
      "properties": {
        "hierarchy": [
          "tgn:7561711",
          "tgn:1000004",
          "tgn:7000198",
          "tgn:7016722",
          "tgn:7029392"
        ],
        "placetype": [
          "aat:300008347"
        ],
        "name:en": "Hasanpur",
        "id": 7561711
      }
    },
    {
      "geometry": {
        "type": "Point",
        "coordinates": [
          79.211236,
          27.923931
        ]
      },
      "type": "Feature",
      "properties": {
        "hierarchy": [
          "tgn:7561712",
          "tgn:1000004",
          "tgn:7000198",
          "tgn:7016722",
          "tgn:7029392"
        ],
        "placetype": [
          "aat:300008347"
        ],
        "name:en": "Huriāi",
        "id": 7561712
      }
    },
    {
      "geometry": {
        "type": "Point",
        "coordinates": [
          79.223349,
          27.967494
        ]
      },
      "type": "Feature",
      "properties": {
        "hierarchy": [
          "tgn:7561713",
          "tgn:1000004",
          "tgn:7000198",
          "tgn:7016722",
          "tgn:7029392"
        ],
        "placetype": [
          "aat:300008347"
        ],
        "name:en": "Kuthia",
        "id": 7561713
      }
    },
    {
      "geometry": {
        "type": "Point",
        "coordinates": [
          79.22533,
          27.972694
        ]
      },
      "type": "Feature",
      "properties": {
        "hierarchy": [
          "tgn:7561714",
          "tgn:1000004",
          "tgn:7000198",
          "tgn:7016722",
          "tgn:7029392"
        ],
        "placetype": [
          "aat:300008347"
        ],
        "name:en": "Dārānagar",
        "id": 7561714
      }
    },
    {
      "geometry": {
        "type": "Point",
        "coordinates": [
          79.231129,
          27.982954
        ]
      },
      "type": "Feature",
      "properties": {
        "hierarchy": [
          "tgn:7561715",
          "tgn:1000004",
          "tgn:7000198",
          "tgn:7016722",
          "tgn:7029392"
        ],
        "placetype": [
          "aat:300008347"
        ],
        "name:en": "Sundarnagar",
        "id": 7561715
      }
    },
    {
      "geometry": {
        "type": "Point",
        "coordinates": [
          79.086393,
          27.982339
        ]
      },
      "type": "Feature",
      "properties": {
        "hierarchy": [
          "tgn:7561716",
          "tgn:1000004",
          "tgn:7000198",
          "tgn:7016722",
          "tgn:7029392"
        ],
        "placetype": [
          "aat:300008347"
        ],
        "name:en": "Sarki",
        "id": 7561716
      }
    },
    {
      "geometry": {
        "type": "Point",
        "coordinates": [
          79.226453,
          27.955384
        ]
      },
      "type": "Feature",
      "properties": {
        "hierarchy": [
          "tgn:7561717",
          "tgn:1000004",
          "tgn:7000198",
          "tgn:7016722",
          "tgn:7029392"
        ],
        "placetype": [
          "aat:300008347"
        ],
        "name:en": "Sakhānu",
        "id": 7561717
      }
    },
    {
      "geometry": {
        "type": "Point",
        "coordinates": [
          79.217049,
          27.943983
        ]
      },
      "type": "Feature",
      "properties": {
        "hierarchy": [
          "tgn:7561718",
          "tgn:1000004",
          "tgn:7000198",
          "tgn:7016722",
          "tgn:7029392"
        ],
        "placetype": [
          "aat:300008347"
        ],
        "name:en": "Basiāni",
        "id": 7561718
      }
    },
    {
      "geometry": {
        "type": "Point",
        "coordinates": [
          79.240851,
          27.940172
        ]
      },
      "type": "Feature",
      "properties": {
        "hierarchy": [
          "tgn:7561719",
          "tgn:1000004",
          "tgn:7000198",
          "tgn:7016722",
          "tgn:7029392"
        ],
        "placetype": [
          "aat:300008347"
        ],
        "name:en": "Gudhni",
        "id": 7561719
      }
    }
  ]
}
