{
  "type": "FeatureCollection",
  "features": [
    {
      "geometry": {
        "type": "Point",
        "coordinates": [
          121.472979,
          25.185349
        ]
      },
      "type": "Feature",
      "properties": {
        "hierarchy": [
          "tgn:7480200",
          "tgn:1000004",
          "tgn:1000454",
          "tgn:1000141",
          "tgn:7029392"
        ],
        "placetype": [
          "aat:300008347"
        ],
        "id": 7480200,
        "name:xx": "Hongshijiao"
      }
    },
    {
      "geometry": {
        "type": "Point",
        "coordinates": [
          121.260836,
          25.007563
        ]
      },
      "type": "Feature",
      "properties": {
        "hierarchy": [
          "tgn:7480201",
          "tgn:1000004",
          "tgn:7001013",
          "tgn:1000141",
          "tgn:7029392"
        ],
        "placetype": [
          "aat:300007836"
        ],
        "id": 7480201,
        "name:xx": "Zhongxing Erhao Qiao"
      }
    },
    {
      "geometry": {
        "type": "Point",
        "coordinates": [
          121.435484,
          25.003497
        ]
      },
      "type": "Feature",
      "properties": {
        "hierarchy": [
          "tgn:7480202",
          "tgn:1000004",
          "tgn:1000454",
          "tgn:1000141",
          "tgn:7029392"
        ],
        "placetype": [
          "aat:300006156"
        ],
        "id": 7480202,
        "name:xx": "Xinzhuang Tifang"
      }
    },
    {
      "geometry": {
        "type": "Point",
        "coordinates": [
          121.499049,
          25.128592
        ]
      },
      "type": "Feature",
      "properties": {
        "hierarchy": [
          "tgn:7480203",
          "tgn:1000004",
          "tgn:1000959",
          "tgn:1000141",
          "tgn:7029392"
        ],
        "placetype": [
          "aat:300008347"
        ],
        "id": 7480203,
        "name:xx": "Tudigongbu"
      }
    },
    {
      "geometry": {
        "type": "Point",
        "coordinates": [
          121.479535,
          25.149901
        ]
      },
      "type": "Feature",
      "properties": {
        "hierarchy": [
          "tgn:7480204",
          "tgn:1000004",
          "tgn:1000959",
          "tgn:1000141",
          "tgn:7029392"
        ],
        "placetype": [
          "aat:300008347"
        ],
        "id": 7480204,
        "name:xx": "Xiaopinglin"
      }
    },
    {
      "geometry": {
        "type": "Point",
        "coordinates": [
          121.503375,
          25.155792
        ]
      },
      "type": "Feature",
      "properties": {
        "hierarchy": [
          "tgn:7480205",
          "tgn:1000004",
          "tgn:1000959",
          "tgn:1000141",
          "tgn:7029392"
        ],
        "placetype": [
          "aat:300008347"
        ],
        "id": 7480205,
        "name:xx": "Cukeng"
      }
    },
    {
      "geometry": {
        "type": "Point",
        "coordinates": [
          121.462302,
          25.183001
        ]
      },
      "type": "Feature",
      "properties": {
        "hierarchy": [
          "tgn:7480206",
          "tgn:1000004",
          "tgn:1000454",
          "tgn:1000141",
          "tgn:7029392"
        ],
        "placetype": [
          "aat:300008347"
        ],
        "id": 7480206,
        "name:xx": "Xiecuo"
      }
    },
    {
      "geometry": {
        "type": "Point",
        "coordinates": [
          121.505,
          25.244391
        ]
      },
      "type": "Feature",
      "properties": {
        "hierarchy": [
          "tgn:7480207",
          "tgn:1000004",
          "tgn:1000454",
          "tgn:1000141",
          "tgn:7029392"
        ],
        "placetype": [
          "aat:300008347"
        ],
        "id": 7480207,
        "name:xx": "Buwei"
      }
    },
    {
      "geometry": {
        "type": "Point",
        "coordinates": [
          121.470652,
          25.200573
        ]
      },
      "type": "Feature",
      "properties": {
        "hierarchy": [
          "tgn:7480208",
          "tgn:1000004",
          "tgn:1000454",
          "tgn:1000141",
          "tgn:7029392"
        ],
        "placetype": [
          "aat:300008347"
        ],
        "id": 7480208,
        "name:xx": "Zhongzhouzi"
      }
    },
    {
      "geometry": {
        "type": "Point",
        "coordinates": [
          121.46007,
          25.20519
        ]
      },
      "type": "Feature",
      "properties": {
        "hierarchy": [
          "tgn:7480209",
          "tgn:1000004",
          "tgn:1000454",
          "tgn:1000141",
          "tgn:7029392"
        ],
        "placetype": [
          "aat:300008347"
        ],
        "id": 7480209,
        "name:xx": "Fanzicuo"
      }
    }
  ]
}
