{
  "type": "FeatureCollection",
  "features": [
    {
      "geometry": {
        "type": "Point",
        "coordinates": [
          75.630487,
          25.361876
        ]
      },
      "type": "Feature",
      "properties": {
        "hierarchy": [
          "tgn:7569040",
          "tgn:1000004",
          "tgn:7000198",
          "tgn:7016788",
          "tgn:7029392"
        ],
        "placetype": [
          "aat:300008347"
        ],
        "name:en": "Sānkarda",
        "id": 7569040
      }
    },
    {
      "geometry": {
        "type": "Point",
        "coordinates": [
          75.623554,
          25.347544
        ]
      },
      "type": "Feature",
      "properties": {
        "hierarchy": [
          "tgn:7569041",
          "tgn:1000004",
          "tgn:7000198",
          "tgn:7016788",
          "tgn:7029392"
        ],
        "placetype": [
          "aat:300006075"
        ],
        "name:en": "Khānkhera Minor",
        "id": 7569041
      }
    },
    {
      "geometry": {
        "type": "Point",
        "coordinates": [
          75.643438,
          25.361688
        ]
      },
      "type": "Feature",
      "properties": {
        "hierarchy": [
          "tgn:7569042",
          "tgn:1000004",
          "tgn:7000198",
          "tgn:7016788",
          "tgn:7029392"
        ],
        "placetype": [
          "aat:300008347"
        ],
        "name:en": "Khānkhera",
        "id": 7569042
      }
    },
    {
      "geometry": {
        "type": "Point",
        "coordinates": [
          75.656675,
          25.365679
        ]
      },
      "type": "Feature",
      "properties": {
        "hierarchy": [
          "tgn:7569043",
          "tgn:1000004",
          "tgn:7000198",
          "tgn:7016788",
          "tgn:7029392"
        ],
        "placetype": [
          "aat:300008347"
        ],
        "name:en": "Barkhera",
        "id": 7569043
      }
    },
    {
      "geometry": {
        "type": "Point",
        "coordinates": [
          75.65281,
          25.37479
        ]
      },
      "type": "Feature",
      "properties": {
        "hierarchy": [
          "tgn:7569044",
          "tgn:1000004",
          "tgn:7000198",
          "tgn:7016788",
          "tgn:7029392"
        ],
        "placetype": [
          "aat:300008347"
        ],
        "name:en": "Umrach",
        "id": 7569044
      }
    },
    {
      "geometry": {
        "type": "Point",
        "coordinates": [
          75.640098,
          25.37407
        ]
      },
      "type": "Feature",
      "properties": {
        "hierarchy": [
          "tgn:7569045",
          "tgn:1000004",
          "tgn:7000198",
          "tgn:7016788",
          "tgn:7029392"
        ],
        "placetype": [
          "aat:300008347"
        ],
        "name:en": "Rāyta",
        "id": 7569045
      }
    },
    {
      "geometry": {
        "type": "Point",
        "coordinates": [
          75.609456,
          25.380161
        ]
      },
      "type": "Feature",
      "properties": {
        "hierarchy": [
          "tgn:7569046",
          "tgn:1000004",
          "tgn:7000198",
          "tgn:7016788",
          "tgn:7029392"
        ],
        "placetype": [
          "aat:300008347"
        ],
        "name:en": "Kachhīpura",
        "id": 7569046
      }
    },
    {
      "geometry": {
        "type": "Point",
        "coordinates": [
          75.582068,
          25.383998
        ]
      },
      "type": "Feature",
      "properties": {
        "hierarchy": [
          "tgn:7569047",
          "tgn:1000004",
          "tgn:7000198",
          "tgn:7016788",
          "tgn:7029392"
        ],
        "placetype": [
          "aat:300008347"
        ],
        "name:en": "Bhalasva",
        "id": 7569047
      }
    },
    {
      "geometry": {
        "type": "Point",
        "coordinates": [
          75.595304,
          25.411483
        ]
      },
      "type": "Feature",
      "properties": {
        "hierarchy": [
          "tgn:7569048",
          "tgn:1000004",
          "tgn:7000198",
          "tgn:7016788",
          "tgn:7029392"
        ],
        "placetype": [
          "aat:300008347"
        ],
        "name:en": "Hatīpura",
        "id": 7569048
      }
    },
    {
      "geometry": {
        "type": "Point",
        "coordinates": [
          75.610637,
          25.416456
        ]
      },
      "type": "Feature",
      "properties": {
        "hierarchy": [
          "tgn:7569049",
          "tgn:1000004",
          "tgn:7000198",
          "tgn:7016788",
          "tgn:7029392"
        ],
        "placetype": [
          "aat:300008347"
        ],
        "name:en": "Raghuvīrpura",
        "id": 7569049
      }
    }
  ]
}
