{
  "type": "FeatureCollection",
  "features": [
    {
      "geometry": {
        "type": "Point",
        "coordinates": [
          121.800663,
          24.6627
        ]
      },
      "type": "Feature",
      "properties": {
        "hierarchy": [
          "tgn:7478680",
          "tgn:1000004",
          "tgn:7489179",
          "tgn:1000141",
          "tgn:7029392"
        ],
        "placetype": [
          "aat:300007836"
        ],
        "id": 7478680,
        "name:xx": "Nanbei Qilu Qiao"
      }
    },
    {
      "geometry": {
        "type": "Point",
        "coordinates": [
          121.813522,
          24.658549
        ]
      },
      "type": "Feature",
      "properties": {
        "hierarchy": [
          "tgn:7478681",
          "tgn:1000004",
          "tgn:7489179",
          "tgn:1000141",
          "tgn:7029392"
        ],
        "placetype": [
          "aat:300007836"
        ],
        "id": 7478681,
        "name:xx": "Linheyuan Liuhao Qiao"
      }
    },
    {
      "geometry": {
        "type": "Point",
        "coordinates": [
          121.818925,
          24.660248
        ]
      },
      "type": "Feature",
      "properties": {
        "hierarchy": [
          "tgn:7478682",
          "tgn:1000004",
          "tgn:7489179",
          "tgn:1000141",
          "tgn:7029392"
        ],
        "placetype": [
          "aat:300007836"
        ],
        "id": 7478682,
        "name:xx": "Wufu Qiao"
      }
    },
    {
      "geometry": {
        "type": "Point",
        "coordinates": [
          121.829623,
          24.653988
        ]
      },
      "type": "Feature",
      "properties": {
        "hierarchy": [
          "tgn:7478683",
          "tgn:1000004",
          "tgn:7489179",
          "tgn:1000141",
          "tgn:7029392"
        ],
        "placetype": [
          "aat:300266755"
        ],
        "id": 7478683,
        "name:xx": "Di'er Gongmu"
      }
    },
    {
      "geometry": {
        "type": "Point",
        "coordinates": [
          121.8292,
          24.664308
        ]
      },
      "type": "Feature",
      "properties": {
        "hierarchy": [
          "tgn:7478684",
          "tgn:1000004",
          "tgn:7489179",
          "tgn:1000141",
          "tgn:7029392"
        ],
        "placetype": [
          "aat:300006495"
        ],
        "id": 7478684,
        "name:xx": "Lize Guozhong"
      }
    },
    {
      "geometry": {
        "type": "Point",
        "coordinates": [
          121.827524,
          24.664281
        ]
      },
      "type": "Feature",
      "properties": {
        "hierarchy": [
          "tgn:7478685",
          "tgn:1000004",
          "tgn:7489179",
          "tgn:1000141",
          "tgn:7029392"
        ],
        "placetype": [
          "aat:300006495"
        ],
        "id": 7478685,
        "name:xx": "Lize Guoxiao"
      }
    },
    {
      "geometry": {
        "type": "Point",
        "coordinates": [
          121.824139,
          24.66691
        ]
      },
      "type": "Feature",
      "properties": {
        "hierarchy": [
          "tgn:7478686",
          "tgn:1000004",
          "tgn:7489179",
          "tgn:1000141",
          "tgn:7029392"
        ],
        "placetype": [
          "aat:300007595"
        ],
        "id": 7478686,
        "name:xx": "Zhongyi Tang"
      }
    },
    {
      "geometry": {
        "type": "Point",
        "coordinates": [
          121.8228,
          24.667161
        ]
      },
      "type": "Feature",
      "properties": {
        "hierarchy": [
          "tgn:7478687",
          "tgn:1000004",
          "tgn:7489179",
          "tgn:1000141",
          "tgn:7029392"
        ],
        "placetype": [
          "aat:300007595"
        ],
        "id": 7478687,
        "name:xx": "Yong'an Gong"
      }
    },
    {
      "geometry": {
        "type": "Point",
        "coordinates": [
          121.818807,
          24.667973
        ]
      },
      "type": "Feature",
      "properties": {
        "hierarchy": [
          "tgn:7478688",
          "tgn:1000004",
          "tgn:7489179",
          "tgn:1000141",
          "tgn:7029392"
        ],
        "placetype": [
          "aat:300007836"
        ],
        "id": 7478688,
        "name:xx": "Wugu Qiao"
      }
    },
    {
      "geometry": {
        "type": "Point",
        "coordinates": [
          121.8093,
          24.6699
        ]
      },
      "type": "Feature",
      "properties": {
        "hierarchy": [
          "tgn:7478689",
          "tgn:1000004",
          "tgn:7489179",
          "tgn:1000141",
          "tgn:7029392"
        ],
        "placetype": [
          "aat:300007836"
        ],
        "id": 7478689,
        "name:xx": "Jiuhao Qiao"
      }
    }
  ]
}
