{
  "type": "FeatureCollection",
  "features": [
    {
      "geometry": {
        "type": "Point",
        "coordinates": [
          121.494013,
          25.195642
        ]
      },
      "type": "Feature",
      "properties": {
        "hierarchy": [
          "tgn:7480210",
          "tgn:1000004",
          "tgn:1000454",
          "tgn:1000141",
          "tgn:7029392"
        ],
        "placetype": [
          "aat:300008347"
        ],
        "id": 7480210,
        "name:xx": "Shiqiangzinei"
      }
    },
    {
      "geometry": {
        "type": "Point",
        "coordinates": [
          121.474493,
          25.206455
        ]
      },
      "type": "Feature",
      "properties": {
        "hierarchy": [
          "tgn:7480211",
          "tgn:1000004",
          "tgn:1000454",
          "tgn:1000141",
          "tgn:7029392"
        ],
        "placetype": [
          "aat:300008347"
        ],
        "id": 7480211,
        "name:xx": "Xianggongshan"
      }
    },
    {
      "geometry": {
        "type": "Point",
        "coordinates": [
          121.505737,
          25.222895
        ]
      },
      "type": "Feature",
      "properties": {
        "hierarchy": [
          "tgn:7480212",
          "tgn:1000004",
          "tgn:1000454",
          "tgn:1000141",
          "tgn:7029392"
        ],
        "placetype": [
          "aat:300008347"
        ],
        "id": 7480212,
        "name:xx": "Dahu"
      }
    },
    {
      "geometry": {
        "type": "Point",
        "coordinates": [
          121.460785,
          25.246661
        ]
      },
      "type": "Feature",
      "properties": {
        "hierarchy": [
          "tgn:7480213",
          "tgn:1000004",
          "tgn:1000454",
          "tgn:1000141",
          "tgn:7029392"
        ],
        "placetype": [
          "aat:300008347"
        ],
        "id": 7480213,
        "name:xx": "Ershijian"
      }
    },
    {
      "geometry": {
        "type": "Point",
        "coordinates": [
          121.458809,
          25.240854
        ]
      },
      "type": "Feature",
      "properties": {
        "hierarchy": [
          "tgn:7480214",
          "tgn:1000004",
          "tgn:1000454",
          "tgn:1000141",
          "tgn:7029392"
        ],
        "placetype": [
          "aat:300008347"
        ],
        "id": 7480214,
        "name:xx": "Dapiantou"
      }
    },
    {
      "geometry": {
        "type": "Point",
        "coordinates": [
          121.448218,
          25.21397
        ]
      },
      "type": "Feature",
      "properties": {
        "hierarchy": [
          "tgn:7480216",
          "tgn:1000004",
          "tgn:1000454",
          "tgn:1000141",
          "tgn:7029392"
        ],
        "placetype": [
          "aat:300008347"
        ],
        "id": 7480216,
        "name:xx": "Xiatianliao"
      }
    },
    {
      "geometry": {
        "type": "Point",
        "coordinates": [
          121.442151,
          25.21824
        ]
      },
      "type": "Feature",
      "properties": {
        "hierarchy": [
          "tgn:7480217",
          "tgn:1000004",
          "tgn:1000454",
          "tgn:1000141",
          "tgn:7029392"
        ],
        "placetype": [
          "aat:300008347"
        ],
        "id": 7480217,
        "name:xx": "Tianzhongyang"
      }
    },
    {
      "geometry": {
        "type": "Point",
        "coordinates": [
          121.443195,
          25.176272
        ]
      },
      "type": "Feature",
      "properties": {
        "hierarchy": [
          "tgn:7480218",
          "tgn:1000004",
          "tgn:1000454",
          "tgn:1000141",
          "tgn:7029392"
        ],
        "placetype": [
          "aat:300008347"
        ],
        "id": 7480218,
        "name:xx": "Guizikeng"
      }
    },
    {
      "geometry": {
        "type": "Point",
        "coordinates": [
          121.446742,
          25.182437
        ]
      },
      "type": "Feature",
      "properties": {
        "hierarchy": [
          "tgn:7480219",
          "tgn:1000004",
          "tgn:1000454",
          "tgn:1000141",
          "tgn:7029392"
        ],
        "placetype": [
          "aat:300008347"
        ],
        "id": 7480219,
        "name:xx": "Lanweibu"
      }
    }
  ]
}
