{
  "type": "FeatureCollection",
  "features": [
    {
      "geometry": {
        "type": "Point",
        "coordinates": [
          79.420885,
          26.325567
        ]
      },
      "type": "Feature",
      "properties": {
        "hierarchy": [
          "tgn:7565520",
          "tgn:1000004",
          "tgn:7000198",
          "tgn:7016722",
          "tgn:7029392"
        ],
        "placetype": [
          "aat:300008347"
        ],
        "name:en": "Nawāsi",
        "id": 7565520
      }
    },
    {
      "geometry": {
        "type": "Point",
        "coordinates": [
          79.414683,
          26.268484
        ]
      },
      "type": "Feature",
      "properties": {
        "hierarchy": [
          "tgn:7565521",
          "tgn:1000004",
          "tgn:7000198",
          "tgn:7016722",
          "tgn:7029392"
        ],
        "placetype": [
          "aat:300008347"
        ],
        "name:en": "Tarsaur",
        "id": 7565521
      }
    },
    {
      "geometry": {
        "type": "Point",
        "coordinates": [
          79.41203,
          26.27141
        ]
      },
      "type": "Feature",
      "properties": {
        "hierarchy": [
          "tgn:7565522",
          "tgn:1000004",
          "tgn:7000198",
          "tgn:7016722",
          "tgn:7029392"
        ],
        "placetype": [
          "aat:300008347"
        ],
        "name:en": "Purwa Tarsaur",
        "id": 7565522
      }
    },
    {
      "geometry": {
        "type": "Point",
        "coordinates": [
          79.40868,
          26.276943
        ]
      },
      "type": "Feature",
      "properties": {
        "hierarchy": [
          "tgn:7565523",
          "tgn:1000004",
          "tgn:7000198",
          "tgn:7016722",
          "tgn:7029392"
        ],
        "placetype": [
          "aat:300008347"
        ],
        "name:en": "Jogiāpur",
        "id": 7565523
      }
    },
    {
      "geometry": {
        "type": "Point",
        "coordinates": [
          79.392747,
          26.279931
        ]
      },
      "type": "Feature",
      "properties": {
        "hierarchy": [
          "tgn:7565524",
          "tgn:1000004",
          "tgn:7000198",
          "tgn:7016722",
          "tgn:7029392"
        ],
        "placetype": [
          "aat:300008347"
        ],
        "name:en": "Sihāri Chelāpur",
        "id": 7565524
      }
    },
    {
      "geometry": {
        "type": "Point",
        "coordinates": [
          79.390678,
          26.258991
        ]
      },
      "type": "Feature",
      "properties": {
        "hierarchy": [
          "tgn:7565525",
          "tgn:1000004",
          "tgn:7000198",
          "tgn:7016722",
          "tgn:7029392"
        ],
        "placetype": [
          "aat:300008347"
        ],
        "name:en": "Atarchhala",
        "id": 7565525
      }
    },
    {
      "geometry": {
        "type": "Point",
        "coordinates": [
          79.37567,
          26.26801
        ]
      },
      "type": "Feature",
      "properties": {
        "hierarchy": [
          "tgn:7565526",
          "tgn:1000004",
          "tgn:7000198",
          "tgn:7016722",
          "tgn:7029392"
        ],
        "placetype": [
          "aat:300008347"
        ],
        "name:en": "Bastepur",
        "id": 7565526
      }
    },
    {
      "geometry": {
        "type": "Point",
        "coordinates": [
          79.340739,
          26.254902
        ]
      },
      "type": "Feature",
      "properties": {
        "hierarchy": [
          "tgn:7565527",
          "tgn:1000004",
          "tgn:7000198",
          "tgn:7016722",
          "tgn:7029392"
        ],
        "placetype": [
          "aat:300008347"
        ],
        "name:en": "Marora",
        "id": 7565527
      }
    },
    {
      "geometry": {
        "type": "Point",
        "coordinates": [
          79.361186,
          26.276349
        ]
      },
      "type": "Feature",
      "properties": {
        "hierarchy": [
          "tgn:7565528",
          "tgn:1000004",
          "tgn:7000198",
          "tgn:7016722",
          "tgn:7029392"
        ],
        "placetype": [
          "aat:300008347"
        ],
        "name:en": "Kaithwān",
        "id": 7565528
      }
    },
    {
      "geometry": {
        "type": "Point",
        "coordinates": [
          71.688743,
          27.618347
        ]
      },
      "type": "Feature",
      "properties": {
        "hierarchy": [
          "tgn:7565529",
          "tgn:1000004",
          "tgn:7000198",
          "tgn:7016788",
          "tgn:7029392"
        ],
        "placetype": [
          "aat:300008347"
        ],
        "name:en": "Ākla Thal",
        "id": 7565529
      }
    }
  ]
}
