{
  "type": "FeatureCollection",
  "features": [
    {
      "geometry": {
        "type": "Point",
        "coordinates": [
          79.257384,
          27.075312
        ]
      },
      "type": "Feature",
      "properties": {
        "hierarchy": [
          "tgn:7562060",
          "tgn:1000004",
          "tgn:7000198",
          "tgn:7016722",
          "tgn:7029392"
        ],
        "placetype": [
          "aat:300008347"
        ],
        "name:en": "Anūppur",
        "id": 7562060
      }
    },
    {
      "geometry": {
        "type": "Point",
        "coordinates": [
          79.252232,
          27.074865
        ]
      },
      "type": "Feature",
      "properties": {
        "hierarchy": [
          "tgn:7562061",
          "tgn:1000004",
          "tgn:7000198",
          "tgn:7016722",
          "tgn:7029392"
        ],
        "placetype": [
          "aat:300008347"
        ],
        "name:en": "Jagatpur",
        "id": 7562061
      }
    },
    {
      "geometry": {
        "type": "Point",
        "coordinates": [
          79.253847,
          27.069579
        ]
      },
      "type": "Feature",
      "properties": {
        "hierarchy": [
          "tgn:7562062",
          "tgn:1000004",
          "tgn:7000198",
          "tgn:7016722",
          "tgn:7029392"
        ],
        "placetype": [
          "aat:300008347"
        ],
        "name:en": "Dera Dūngar",
        "id": 7562062
      }
    },
    {
      "geometry": {
        "type": "Point",
        "coordinates": [
          79.257668,
          27.071105
        ]
      },
      "type": "Feature",
      "properties": {
        "hierarchy": [
          "tgn:7562063",
          "tgn:1000004",
          "tgn:7000198",
          "tgn:7016722",
          "tgn:7029392"
        ],
        "placetype": [
          "aat:300008347"
        ],
        "name:en": "Nandpur",
        "id": 7562063
      }
    },
    {
      "geometry": {
        "type": "Point",
        "coordinates": [
          79.267782,
          27.063613
        ]
      },
      "type": "Feature",
      "properties": {
        "hierarchy": [
          "tgn:7562064",
          "tgn:1000004",
          "tgn:7000198",
          "tgn:7016722",
          "tgn:7029392"
        ],
        "placetype": [
          "aat:300008347"
        ],
        "name:en": "Kharagpur",
        "id": 7562064
      }
    },
    {
      "geometry": {
        "type": "Point",
        "coordinates": [
          79.265613,
          27.067161
        ]
      },
      "type": "Feature",
      "properties": {
        "hierarchy": [
          "tgn:7562065",
          "tgn:1000004",
          "tgn:7000198",
          "tgn:7016722",
          "tgn:7029392"
        ],
        "placetype": [
          "aat:300008347"
        ],
        "name:en": "Takia",
        "id": 7562065
      }
    },
    {
      "geometry": {
        "type": "Point",
        "coordinates": [
          79.269173,
          27.066902
        ]
      },
      "type": "Feature",
      "properties": {
        "hierarchy": [
          "tgn:7562066",
          "tgn:1000004",
          "tgn:7000198",
          "tgn:7016722",
          "tgn:7029392"
        ],
        "placetype": [
          "aat:300008347"
        ],
        "name:en": "Arsāra",
        "id": 7562066
      }
    },
    {
      "geometry": {
        "type": "Point",
        "coordinates": [
          79.271145,
          27.072663
        ]
      },
      "type": "Feature",
      "properties": {
        "hierarchy": [
          "tgn:7562067",
          "tgn:1000004",
          "tgn:7000198",
          "tgn:7016722",
          "tgn:7029392"
        ],
        "placetype": [
          "aat:300008347"
        ],
        "name:en": "Kothi",
        "id": 7562067
      }
    },
    {
      "geometry": {
        "type": "Point",
        "coordinates": [
          79.268999,
          27.07207
        ]
      },
      "type": "Feature",
      "properties": {
        "hierarchy": [
          "tgn:7562068",
          "tgn:1000004",
          "tgn:7000198",
          "tgn:7016722",
          "tgn:7029392"
        ],
        "placetype": [
          "aat:300008347"
        ],
        "name:en": "Nagla Pār",
        "id": 7562068
      }
    },
    {
      "geometry": {
        "type": "Point",
        "coordinates": [
          79.264682,
          27.074058
        ]
      },
      "type": "Feature",
      "properties": {
        "hierarchy": [
          "tgn:7562069",
          "tgn:1000004",
          "tgn:7000198",
          "tgn:7016722",
          "tgn:7029392"
        ],
        "placetype": [
          "aat:300008347"
        ],
        "name:en": "Hindūpur",
        "id": 7562069
      }
    }
  ]
}
