{
  "type": "FeatureCollection",
  "features": [
    {
      "geometry": {
        "type": "Point",
        "coordinates": [
          75.65,
          11.483333
        ]
      },
      "type": "Feature",
      "properties": {
        "hierarchy": [
          "tgn:7558500",
          "tgn:1000004",
          "tgn:7000198",
          "tgn:1001886",
          "tgn:7029392"
        ],
        "placetype": [
          "aat:300008777"
        ],
        "name:en": "Purakkad",
        "id": 7558500
      }
    },
    {
      "geometry": {
        "type": "Point",
        "coordinates": [
          78.450442,
          29.392838
        ]
      },
      "type": "Feature",
      "properties": {
        "hierarchy": [
          "tgn:7558501",
          "tgn:1000004",
          "tgn:7000198",
          "tgn:7016722",
          "tgn:7029392"
        ],
        "placetype": [
          "aat:300008347"
        ],
        "name:en": "Purain카",
        "id": 7558501
      }
    },
    {
      "geometry": {
        "type": "Point",
        "coordinates": [
          86.97967,
          25.142565
        ]
      },
      "type": "Feature",
      "properties": {
        "hierarchy": [
          "tgn:7558502",
          "tgn:1000004",
          "tgn:1001842",
          "tgn:7000198",
          "tgn:7029392"
        ],
        "placetype": [
          "aat:300008347"
        ],
        "name:en": "Pur훮ini",
        "id": 7558502
      }
    },
    {
      "geometry": {
        "type": "Point",
        "coordinates": [
          79.973822,
          24.313208
        ]
      },
      "type": "Feature",
      "properties": {
        "hierarchy": [
          "tgn:7558503",
          "tgn:1000004",
          "tgn:7000198",
          "tgn:1001894",
          "tgn:7029392"
        ],
        "placetype": [
          "aat:300008347"
        ],
        "name:en": "Puraina",
        "id": 7558503
      }
    },
    {
      "geometry": {
        "type": "Point",
        "coordinates": [
          79.526894,
          26.720731
        ]
      },
      "type": "Feature",
      "properties": {
        "hierarchy": [
          "tgn:7558504",
          "tgn:1000004",
          "tgn:7000198",
          "tgn:7016722",
          "tgn:7029392"
        ],
        "placetype": [
          "aat:300008699"
        ],
        "name:en": "Pur훮ha Nad카",
        "id": 7558504
      }
    },
    {
      "geometry": {
        "type": "Point",
        "coordinates": [
          78.154681,
          27.53092
        ]
      },
      "type": "Feature",
      "properties": {
        "hierarchy": [
          "tgn:7558505",
          "tgn:1000004",
          "tgn:7000198",
          "tgn:7016722",
          "tgn:7029392"
        ],
        "placetype": [
          "aat:300007783"
        ],
        "name:en": "Pura",
        "id": 7558505
      }
    },
    {
      "geometry": {
        "type": "Point",
        "coordinates": [
          76.991372,
          25.956482
        ]
      },
      "type": "Feature",
      "properties": {
        "hierarchy": [
          "tgn:7558506",
          "tgn:1000004",
          "tgn:7000198",
          "tgn:1001894",
          "tgn:7029392"
        ],
        "placetype": [
          "aat:300008347"
        ],
        "name:en": "Pura",
        "id": 7558506
      }
    },
    {
      "geometry": {
        "type": "Point",
        "coordinates": [
          77.841694,
          29.658444
        ]
      },
      "type": "Feature",
      "properties": {
        "hierarchy": [
          "tgn:7558507",
          "tgn:1000004",
          "tgn:7000198",
          "tgn:7016722",
          "tgn:7029392"
        ],
        "placetype": [
          "aat:300008347"
        ],
        "name:en": "Pur",
        "id": 7558507
      }
    },
    {
      "geometry": {
        "type": "Point",
        "coordinates": [
          74.543064,
          25.297716
        ]
      },
      "type": "Feature",
      "properties": {
        "hierarchy": [
          "tgn:7558508",
          "tgn:1000004",
          "tgn:7000198",
          "tgn:7016788",
          "tgn:7029392"
        ],
        "placetype": [
          "aat:300008347"
        ],
        "name:en": "Pur",
        "id": 7558508
      }
    },
    {
      "geometry": {
        "type": "Point",
        "coordinates": [
          79.764478,
          24.988576
        ]
      },
      "type": "Feature",
      "properties": {
        "hierarchy": [
          "tgn:7558509",
          "tgn:1000004",
          "tgn:7000198",
          "tgn:1001894",
          "tgn:7029392"
        ],
        "placetype": [
          "aat:300008347"
        ],
        "name:en": "Pur",
        "id": 7558509
      }
    }
  ]
}
