{
  "type": "FeatureCollection",
  "features": [
    {
      "geometry": {
        "type": "Point",
        "coordinates": [
          121.815278,
          24.753889
        ]
      },
      "type": "Feature",
      "properties": {
        "hierarchy": [
          "tgn:7471170",
          "tgn:1000004",
          "tgn:7489179",
          "tgn:1000141",
          "tgn:7029392"
        ],
        "placetype": [
          "aat:300008347"
        ],
        "id": 7471170,
        "name:xx": "Houpi"
      }
    },
    {
      "geometry": {
        "type": "Point",
        "coordinates": [
          120.365833,
          23.367778
        ]
      },
      "type": "Feature",
      "properties": {
        "hierarchy": [
          "tgn:7471171",
          "tgn:1000004",
          "tgn:7490934",
          "tgn:1000141",
          "tgn:7029392"
        ],
        "placetype": [
          "aat:300008347"
        ],
        "id": 7471171,
        "name:xx": "Houbi"
      }
    },
    {
      "geometry": {
        "type": "Point",
        "coordinates": [
          120.253056,
          22.950833
        ]
      },
      "type": "Feature",
      "properties": {
        "hierarchy": [
          "tgn:7471172",
          "tgn:1000004",
          "tgn:7490934",
          "tgn:1000141",
          "tgn:7029392"
        ],
        "placetype": [
          "aat:300008347"
        ],
        "id": 7471172,
        "name:xx": "Houbicuo"
      }
    },
    {
      "geometry": {
        "type": "Point",
        "coordinates": [
          121.054722,
          24.835556
        ]
      },
      "type": "Feature",
      "properties": {
        "hierarchy": [
          "tgn:7471173",
          "tgn:1000004",
          "tgn:7471332",
          "tgn:1000141",
          "tgn:7029392"
        ],
        "placetype": [
          "aat:300008347"
        ],
        "id": 7471173,
        "name:xx": "Shangfangliao"
      }
    },
    {
      "geometry": {
        "type": "Point",
        "coordinates": [
          120.718056,
          24.294722
        ]
      },
      "type": "Feature",
      "properties": {
        "hierarchy": [
          "tgn:7471174",
          "tgn:1000004",
          "tgn:7001009",
          "tgn:1000141",
          "tgn:7029392"
        ],
        "placetype": [
          "aat:300008347"
        ],
        "id": 7471174,
        "name:xx": "Fangliao"
      }
    },
    {
      "geometry": {
        "type": "Point",
        "coordinates": [
          121.551944,
          23.748889
        ]
      },
      "type": "Feature",
      "properties": {
        "hierarchy": [
          "tgn:7471175",
          "tgn:7001010",
          "tgn:1000004",
          "tgn:1000141",
          "tgn:7029392"
        ],
        "placetype": [
          "aat:300008347"
        ],
        "id": 7471175,
        "name:xx": "Fangliao"
      }
    },
    {
      "geometry": {
        "type": "Point",
        "coordinates": [
          120.590556,
          23.004722
        ]
      },
      "type": "Feature",
      "properties": {
        "hierarchy": [
          "tgn:7471176",
          "tgn:7001004",
          "tgn:1000004",
          "tgn:1000141",
          "tgn:7029392"
        ],
        "placetype": [
          "aat:300008347"
        ],
        "id": 7471176,
        "name:xx": "Fangliao"
      }
    },
    {
      "geometry": {
        "type": "Point",
        "coordinates": [
          120.585112,
          22.989149
        ]
      },
      "type": "Feature",
      "properties": {
        "hierarchy": [
          "tgn:7471178",
          "tgn:7001004",
          "tgn:1000004",
          "tgn:1000141",
          "tgn:7029392"
        ],
        "placetype": [
          "aat:300387002"
        ],
        "id": 7471178,
        "name:xx": "Fangliao"
      }
    },
    {
      "geometry": {
        "type": "Point",
        "coordinates": [
          120.9494,
          23.9796
        ]
      },
      "type": "Feature",
      "properties": {
        "hierarchy": [
          "tgn:7471179",
          "tgn:7488858",
          "tgn:1000004",
          "tgn:1000141",
          "tgn:7029392"
        ],
        "placetype": [
          "aat:300008347"
        ],
        "id": 7471179,
        "name:xx": "Hongwacuo"
      }
    }
  ]
}
