{
  "type": "FeatureCollection",
  "features": [
    {
      "geometry": {
        "type": "Point",
        "coordinates": [
          119.510598,
          23.600643
        ]
      },
      "type": "Feature",
      "properties": {
        "hierarchy": [
          "tgn:7472910",
          "tgn:1000004",
          "tgn:7004300",
          "tgn:1000141",
          "tgn:7029392"
        ],
        "placetype": [
          "aat:300006495"
        ],
        "id": 7472910,
        "name:xx": "Xiyu Guozhong"
      }
    },
    {
      "geometry": {
        "type": "Point",
        "coordinates": [
          119.51916,
          23.605249
        ]
      },
      "type": "Feature",
      "properties": {
        "hierarchy": [
          "tgn:7472911",
          "tgn:1000004",
          "tgn:7004300",
          "tgn:1000141",
          "tgn:7029392"
        ],
        "placetype": [
          "aat:300007595"
        ],
        "id": 7472911,
        "name:xx": "Erxing Gong"
      }
    },
    {
      "geometry": {
        "type": "Point",
        "coordinates": [
          119.509086,
          23.611016
        ]
      },
      "type": "Feature",
      "properties": {
        "hierarchy": [
          "tgn:7472912",
          "tgn:1000004",
          "tgn:7004300",
          "tgn:1000141",
          "tgn:7029392"
        ],
        "placetype": [
          "aat:300007836"
        ],
        "id": 7472912,
        "name:xx": "Wang'an Qiao"
      }
    },
    {
      "geometry": {
        "type": "Point",
        "coordinates": [
          119.513429,
          23.614166
        ]
      },
      "type": "Feature",
      "properties": {
        "hierarchy": [
          "tgn:7472913",
          "tgn:1000004",
          "tgn:7004300",
          "tgn:1000141",
          "tgn:7029392"
        ],
        "placetype": [
          "aat:300006495"
        ],
        "id": 7472913,
        "name:xx": "Dachi Guoxiao"
      }
    },
    {
      "geometry": {
        "type": "Point",
        "coordinates": [
          119.51199,
          23.621488
        ]
      },
      "type": "Feature",
      "properties": {
        "hierarchy": [
          "tgn:7472914",
          "tgn:1000004",
          "tgn:7004300",
          "tgn:1000141",
          "tgn:7029392"
        ],
        "placetype": [
          "aat:300008347"
        ],
        "id": 7472914,
        "name:xx": "Chengziwei"
      }
    },
    {
      "geometry": {
        "type": "Point",
        "coordinates": [
          119.517966,
          23.624571
        ]
      },
      "type": "Feature",
      "properties": {
        "hierarchy": [
          "tgn:7472915",
          "tgn:1000004",
          "tgn:7004300",
          "tgn:1000141",
          "tgn:7029392"
        ],
        "placetype": [
          "aat:300266755"
        ],
        "id": 7472915,
        "name:xx": "Disan Gongmu"
      }
    },
    {
      "geometry": {
        "type": "Point",
        "coordinates": [
          119.523252,
          23.630491
        ]
      },
      "type": "Feature",
      "properties": {
        "hierarchy": [
          "tgn:7472916",
          "tgn:1000004",
          "tgn:7004300",
          "tgn:1000141",
          "tgn:7029392"
        ],
        "placetype": [
          "aat:300008678"
        ],
        "id": 7472916,
        "name:xx": "Zhuwan Yugang"
      }
    },
    {
      "geometry": {
        "type": "Point",
        "coordinates": [
          119.514542,
          23.625543
        ]
      },
      "type": "Feature",
      "properties": {
        "hierarchy": [
          "tgn:7472917",
          "tgn:1000004",
          "tgn:7004300",
          "tgn:1000141",
          "tgn:7029392"
        ],
        "placetype": [
          "aat:300008347"
        ],
        "id": 7472917,
        "name:xx": "Wandi"
      }
    },
    {
      "geometry": {
        "type": "Point",
        "coordinates": [
          119.523681,
          23.636863
        ]
      },
      "type": "Feature",
      "properties": {
        "hierarchy": [
          "tgn:7472918",
          "tgn:1000004",
          "tgn:7004300",
          "tgn:1000141",
          "tgn:7029392"
        ],
        "placetype": [
          "aat:300007595"
        ],
        "id": 7472918,
        "name:xx": "Dade Miao"
      }
    },
    {
      "geometry": {
        "type": "Point",
        "coordinates": [
          119.521889,
          23.632925
        ]
      },
      "type": "Feature",
      "properties": {
        "hierarchy": [
          "tgn:7472919",
          "tgn:1000004",
          "tgn:7004300",
          "tgn:1000141",
          "tgn:7029392"
        ],
        "placetype": [
          "aat:300007595"
        ],
        "id": 7472919,
        "name:xx": "Dayi Gong"
      }
    }
  ]
}
