{
  "type": "FeatureCollection",
  "features": [
    {
      "geometry": {
        "type": "Point",
        "coordinates": [
          120.514839,
          22.615423
        ]
      },
      "type": "Feature",
      "properties": {
        "hierarchy": [
          "tgn:7487290",
          "tgn:1000004",
          "tgn:7492971",
          "tgn:1000141",
          "tgn:7029392"
        ],
        "placetype": [
          "aat:300387173"
        ],
        "id": 7487290,
        "name:xx": "Xishi Cun"
      }
    },
    {
      "geometry": {
        "type": "Point",
        "coordinates": [
          120.383187,
          23.620518
        ]
      },
      "type": "Feature",
      "properties": {
        "hierarchy": [
          "tgn:7487291",
          "tgn:1000004",
          "tgn:7001014",
          "tgn:1000141",
          "tgn:7029392"
        ],
        "placetype": [
          "aat:300008347"
        ],
        "id": 7487291,
        "name:xx": "Xizhen"
      }
    },
    {
      "geometry": {
        "type": "Point",
        "coordinates": [
          121.11,
          24.386667
        ]
      },
      "type": "Feature",
      "properties": {
        "hierarchy": [
          "tgn:7487292",
          "tgn:7487020",
          "tgn:1000004",
          "tgn:1000141",
          "tgn:7029392"
        ],
        "placetype": [
          "aat:300008798"
        ],
        "id": 7487292,
        "name:xx": "Xishi Shan"
      }
    },
    {
      "geometry": {
        "type": "Point",
        "coordinates": [
          120.600278,
          24.26
        ]
      },
      "type": "Feature",
      "properties": {
        "hierarchy": [
          "tgn:7487293",
          "tgn:1000004",
          "tgn:7001009",
          "tgn:1000141",
          "tgn:7029392"
        ],
        "placetype": [
          "aat:300008347"
        ],
        "id": 7487293,
        "name:xx": "Xishiliao"
      }
    },
    {
      "geometry": {
        "type": "Point",
        "coordinates": [
          120.240833,
          23.649722
        ]
      },
      "type": "Feature",
      "properties": {
        "hierarchy": [
          "tgn:7487294",
          "tgn:1000004",
          "tgn:7001014",
          "tgn:1000141",
          "tgn:7029392"
        ],
        "placetype": [
          "aat:300008347"
        ],
        "id": 7487294,
        "name:xx": "Xishiliao"
      }
    },
    {
      "geometry": {
        "type": "Point",
        "coordinates": [
          120.534465,
          24.083188
        ]
      },
      "type": "Feature",
      "properties": {
        "hierarchy": [
          "tgn:7487296",
          "tgn:1000004",
          "tgn:7467799",
          "tgn:1000141",
          "tgn:7029392"
        ],
        "placetype": [
          "aat:300000745"
        ],
        "id": 7487296,
        "name:xx": "Xishizhuang"
      }
    },
    {
      "geometry": {
        "type": "Point",
        "coordinates": [
          121.7065,
          24.996466
        ]
      },
      "type": "Feature",
      "properties": {
        "hierarchy": [
          "tgn:7487297",
          "tgn:1000004",
          "tgn:1000454",
          "tgn:1000141",
          "tgn:7029392"
        ],
        "placetype": [
          "aat:300008347"
        ],
        "id": 7487297,
        "name:xx": "Xishikeng"
      }
    },
    {
      "geometry": {
        "type": "Point",
        "coordinates": [
          121.609085,
          25.248967
        ]
      },
      "type": "Feature",
      "properties": {
        "hierarchy": [
          "tgn:7487298",
          "tgn:1000004",
          "tgn:1000454",
          "tgn:1000141",
          "tgn:7029392"
        ],
        "placetype": [
          "aat:300008347"
        ],
        "id": 7487298,
        "name:xx": "Xishihu"
      }
    }
  ]
}
