{
  "type": "FeatureCollection",
  "features": [
    {
      "geometry": {
        "type": "Point",
        "coordinates": [
          -107.266667,
          27.066667
        ]
      },
      "type": "Feature",
      "properties": {
        "hierarchy": [
          "tgn:7426630",
          "tgn:7005581",
          "tgn:1000001",
          "tgn:7005560",
          "tgn:7029392"
        ],
        "placetype": [
          "aat:300008347"
        ],
        "id": 7426630,
        "name:xx": "Los Rosados"
      }
    },
    {
      "geometry": {
        "type": "Point",
        "coordinates": [
          -106.366667,
          27.966667
        ]
      },
      "type": "Feature",
      "properties": {
        "hierarchy": [
          "tgn:7426631",
          "tgn:7005581",
          "tgn:1000001",
          "tgn:7005560",
          "tgn:7029392"
        ],
        "placetype": [
          "aat:300008347"
        ],
        "id": 7426631,
        "name:xx": "Los Remedios"
      }
    },
    {
      "geometry": {
        "type": "Point",
        "coordinates": [
          -107.166667,
          26.733333
        ]
      },
      "type": "Feature",
      "properties": {
        "hierarchy": [
          "tgn:7426632",
          "tgn:7005581",
          "tgn:1000001",
          "tgn:7005560",
          "tgn:7029392"
        ],
        "placetype": [
          "aat:300008347"
        ],
        "id": 7426632,
        "name:xx": "Los Puertecitos"
      }
    },
    {
      "geometry": {
        "type": "Point",
        "coordinates": [
          -105.366667,
          27.416667
        ]
      },
      "type": "Feature",
      "properties": {
        "hierarchy": [
          "tgn:7426633",
          "tgn:7005581",
          "tgn:1000001",
          "tgn:7005560",
          "tgn:7029392"
        ],
        "placetype": [
          "aat:300008347"
        ],
        "id": 7426633,
        "name:xx": "Los Pozos"
      }
    },
    {
      "geometry": {
        "type": "Point",
        "coordinates": [
          -106.666667,
          30.466667
        ]
      },
      "type": "Feature",
      "properties": {
        "hierarchy": [
          "tgn:7426634",
          "tgn:7005581",
          "tgn:1000001",
          "tgn:7005560",
          "tgn:7029392"
        ],
        "placetype": [
          "aat:300008347"
        ],
        "id": 7426634,
        "name:xx": "Los Pozos"
      }
    },
    {
      "geometry": {
        "type": "Point",
        "coordinates": [
          -107.966667,
          27.116667
        ]
      },
      "type": "Feature",
      "properties": {
        "hierarchy": [
          "tgn:7426635",
          "tgn:7005581",
          "tgn:1000001",
          "tgn:7005560",
          "tgn:7029392"
        ],
        "placetype": [
          "aat:300008347"
        ],
        "id": 7426635,
        "name:xx": "Los Potreritos"
      }
    },
    {
      "geometry": {
        "type": "Point",
        "coordinates": [
          -108.45,
          27.25
        ]
      },
      "type": "Feature",
      "properties": {
        "hierarchy": [
          "tgn:7426636",
          "tgn:7005581",
          "tgn:1000001",
          "tgn:7005560",
          "tgn:7029392"
        ],
        "placetype": [
          "aat:300008347"
        ],
        "id": 7426636,
        "name:xx": "Los Plátanos"
      }
    },
    {
      "geometry": {
        "type": "Point",
        "coordinates": [
          -107.283333,
          29.133333
        ]
      },
      "type": "Feature",
      "properties": {
        "hierarchy": [
          "tgn:7426637",
          "tgn:7005581",
          "tgn:1000001",
          "tgn:7005560",
          "tgn:7029392"
        ],
        "placetype": [
          "aat:300008347"
        ],
        "id": 7426637,
        "name:xx": "Los Pinos"
      }
    },
    {
      "geometry": {
        "type": "Point",
        "coordinates": [
          -106.766667,
          26.766667
        ]
      },
      "type": "Feature",
      "properties": {
        "hierarchy": [
          "tgn:7426638",
          "tgn:7005581",
          "tgn:1000001",
          "tgn:7005560",
          "tgn:7029392"
        ],
        "placetype": [
          "aat:300008347"
        ],
        "id": 7426638,
        "name:xx": "Los Pilares"
      }
    },
    {
      "geometry": {
        "type": "Point",
        "coordinates": [
          -106.516667,
          30.95
        ]
      },
      "type": "Feature",
      "properties": {
        "hierarchy": [
          "tgn:7426639",
          "tgn:7005581",
          "tgn:1000001",
          "tgn:7005560",
          "tgn:7029392"
        ],
        "placetype": [
          "aat:300008347"
        ],
        "id": 7426639,
        "name:xx": "Los Peñascos"
      }
    }
  ]
}
