{
  "type": "FeatureCollection",
  "features": [
    {
      "geometry": {
        "type": "Point",
        "coordinates": [
          75.589809,
          28.420021
        ]
      },
      "type": "Feature",
      "properties": {
        "hierarchy": [
          "tgn:7582200",
          "tgn:1000004",
          "tgn:7000198",
          "tgn:7016788",
          "tgn:7029392"
        ],
        "placetype": [
          "aat:300008688"
        ],
        "name:en": "Debāna Johra",
        "id": 7582200
      }
    },
    {
      "geometry": {
        "type": "Point",
        "coordinates": [
          75.599299,
          28.429421
        ]
      },
      "type": "Feature",
      "properties": {
        "hierarchy": [
          "tgn:7582201",
          "tgn:1000004",
          "tgn:7000198",
          "tgn:7016788",
          "tgn:7029392"
        ],
        "placetype": [
          "aat:300008688"
        ],
        "name:en": "Aswār Johra",
        "id": 7582201
      }
    },
    {
      "geometry": {
        "type": "Point",
        "coordinates": [
          75.596201,
          28.433624
        ]
      },
      "type": "Feature",
      "properties": {
        "hierarchy": [
          "tgn:7582202",
          "tgn:1000004",
          "tgn:7000198",
          "tgn:7016788",
          "tgn:7029392"
        ],
        "placetype": [
          "aat:300008347"
        ],
        "name:en": "Bās Kāji",
        "id": 7582202
      }
    },
    {
      "geometry": {
        "type": "Point",
        "coordinates": [
          75.588458,
          28.441111
        ]
      },
      "type": "Feature",
      "properties": {
        "hierarchy": [
          "tgn:7582203",
          "tgn:1000004",
          "tgn:7000198",
          "tgn:7016788",
          "tgn:7029392"
        ],
        "placetype": [
          "aat:300008347"
        ],
        "name:en": "Kāji",
        "id": 7582203
      }
    },
    {
      "geometry": {
        "type": "Point",
        "coordinates": [
          75.604623,
          28.451144
        ]
      },
      "type": "Feature",
      "properties": {
        "hierarchy": [
          "tgn:7582204",
          "tgn:1000004",
          "tgn:7000198",
          "tgn:7016788",
          "tgn:7029392"
        ],
        "placetype": [
          "aat:300008347"
        ],
        "name:en": "Syorāmpura",
        "id": 7582204
      }
    },
    {
      "geometry": {
        "type": "Point",
        "coordinates": [
          75.605761,
          28.449221
        ]
      },
      "type": "Feature",
      "properties": {
        "hierarchy": [
          "tgn:7582205",
          "tgn:1000004",
          "tgn:7000198",
          "tgn:7016788",
          "tgn:7029392"
        ],
        "placetype": [
          "aat:300008688"
        ],
        "name:en": "Pulāne Johra",
        "id": 7582205
      }
    },
    {
      "geometry": {
        "type": "Point",
        "coordinates": [
          75.600298,
          28.457636
        ]
      },
      "type": "Feature",
      "properties": {
        "hierarchy": [
          "tgn:7582206",
          "tgn:1000004",
          "tgn:7000198",
          "tgn:7016788",
          "tgn:7029392"
        ],
        "placetype": [
          "aat:300008688"
        ],
        "name:en": "Boranwāla Johra",
        "id": 7582206
      }
    },
    {
      "geometry": {
        "type": "Point",
        "coordinates": [
          75.589263,
          28.468575
        ]
      },
      "type": "Feature",
      "properties": {
        "hierarchy": [
          "tgn:7582207",
          "tgn:1000004",
          "tgn:7000198",
          "tgn:7016788",
          "tgn:7029392"
        ],
        "placetype": [
          "aat:300008688"
        ],
        "name:en": "Balwāla Johra",
        "id": 7582207
      }
    },
    {
      "geometry": {
        "type": "Point",
        "coordinates": [
          75.599978,
          28.482074
        ]
      },
      "type": "Feature",
      "properties": {
        "hierarchy": [
          "tgn:7582208",
          "tgn:1000004",
          "tgn:7000198",
          "tgn:7016788",
          "tgn:7029392"
        ],
        "placetype": [
          "aat:300008688"
        ],
        "name:en": "Īndokhwāla Johra",
        "id": 7582208
      }
    },
    {
      "geometry": {
        "type": "Point",
        "coordinates": [
          75.586354,
          28.483709
        ]
      },
      "type": "Feature",
      "properties": {
        "hierarchy": [
          "tgn:7582209",
          "tgn:1000004",
          "tgn:7000198",
          "tgn:7016788",
          "tgn:7029392"
        ],
        "placetype": [
          "aat:300008688"
        ],
        "name:en": "Dobari Johra",
        "id": 7582209
      }
    }
  ]
}
