{
  "type": "FeatureCollection",
  "features": [
    {
      "geometry": {
        "type": "Point",
        "coordinates": [
          -102.530556,
          21.783333
        ]
      },
      "type": "Feature",
      "properties": {
        "hierarchy": [
          "tgn:7419500",
          "tgn:7005579",
          "tgn:1000001",
          "tgn:7005560",
          "tgn:7029392"
        ],
        "placetype": [
          "aat:300006191"
        ],
        "id": 7419500,
        "name:xx": "Presa Tolimique"
      }
    },
    {
      "geometry": {
        "type": "Point",
        "coordinates": [
          -102.583333,
          21.829167
        ]
      },
      "type": "Feature",
      "properties": {
        "hierarchy": [
          "tgn:7419501",
          "tgn:7005579",
          "tgn:1000001",
          "tgn:7005560",
          "tgn:7029392"
        ],
        "placetype": [
          "aat:300006191"
        ],
        "id": 7419501,
        "name:xx": "Presa El Capulín"
      }
    },
    {
      "geometry": {
        "type": "Point",
        "coordinates": [
          -102.625,
          22.225
        ]
      },
      "type": "Feature",
      "properties": {
        "hierarchy": [
          "tgn:7419502",
          "tgn:7005579",
          "tgn:1000001",
          "tgn:7005560",
          "tgn:7029392"
        ],
        "placetype": [
          "aat:300006191"
        ],
        "id": 7419502,
        "name:xx": "Presa La Araña"
      }
    },
    {
      "geometry": {
        "type": "Point",
        "coordinates": [
          -102.625,
          22.216667
        ]
      },
      "type": "Feature",
      "properties": {
        "hierarchy": [
          "tgn:7419503",
          "tgn:7005579",
          "tgn:1000001",
          "tgn:7005560",
          "tgn:7029392"
        ],
        "placetype": [
          "aat:300006191"
        ],
        "id": 7419503,
        "name:xx": "Presa Bajío de la Tienda"
      }
    },
    {
      "geometry": {
        "type": "Point",
        "coordinates": [
          -102.633333,
          21.833333
        ]
      },
      "type": "Feature",
      "properties": {
        "hierarchy": [
          "tgn:7419504",
          "tgn:7005579",
          "tgn:1000001",
          "tgn:7005560",
          "tgn:7029392"
        ],
        "placetype": [
          "aat:300006191"
        ],
        "id": 7419504,
        "name:xx": "Presa Los Salates"
      }
    },
    {
      "geometry": {
        "type": "Point",
        "coordinates": [
          -102.65,
          21.866667
        ]
      },
      "type": "Feature",
      "properties": {
        "hierarchy": [
          "tgn:7419505",
          "tgn:7005579",
          "tgn:1000001",
          "tgn:7005560",
          "tgn:7029392"
        ],
        "placetype": [
          "aat:300006191"
        ],
        "id": 7419505,
        "name:xx": "Presa Malpaso"
      }
    },
    {
      "geometry": {
        "type": "Point",
        "coordinates": [
          -102.729167,
          21.95
        ]
      },
      "type": "Feature",
      "properties": {
        "hierarchy": [
          "tgn:7419506",
          "tgn:7005579",
          "tgn:1000001",
          "tgn:7005560",
          "tgn:7029392"
        ],
        "placetype": [
          "aat:300006191"
        ],
        "id": 7419506,
        "name:xx": "Presa Ordeña Vieja"
      }
    },
    {
      "geometry": {
        "type": "Point",
        "coordinates": [
          -102.733333,
          21.983333
        ]
      },
      "type": "Feature",
      "properties": {
        "hierarchy": [
          "tgn:7419507",
          "tgn:7005579",
          "tgn:1000001",
          "tgn:7005560",
          "tgn:7029392"
        ],
        "placetype": [
          "aat:300006191"
        ],
        "id": 7419507,
        "name:xx": "Presa El Temascal"
      }
    },
    {
      "geometry": {
        "type": "Point",
        "coordinates": [
          -102.752778,
          21.870833
        ]
      },
      "type": "Feature",
      "properties": {
        "hierarchy": [
          "tgn:7419508",
          "tgn:7005579",
          "tgn:1000001",
          "tgn:7005560",
          "tgn:7029392"
        ],
        "placetype": [
          "aat:300006191"
        ],
        "id": 7419508,
        "name:xx": "Presa Pajarito"
      }
    },
    {
      "geometry": {
        "type": "Point",
        "coordinates": [
          -102.754167,
          21.916667
        ]
      },
      "type": "Feature",
      "properties": {
        "hierarchy": [
          "tgn:7419509",
          "tgn:7005579",
          "tgn:1000001",
          "tgn:7005560",
          "tgn:7029392"
        ],
        "placetype": [
          "aat:300006191"
        ],
        "id": 7419509,
        "name:xx": "Presa Peña Blanca"
      }
    }
  ]
}
