{
  "type": "FeatureCollection",
  "features": [
    {
      "geometry": {
        "type": "Point",
        "coordinates": [
          88.744444,
          22.361111
        ]
      },
      "type": "Feature",
      "properties": {
        "hierarchy": [
          "tgn:7588410",
          "tgn:1000004",
          "tgn:7000198",
          "tgn:1001977",
          "tgn:7029392"
        ],
        "placetype": [
          "aat:300008347"
        ],
        "name:en": "Satgharia",
        "id": 7588410
      }
    },
    {
      "geometry": {
        "type": "Point",
        "coordinates": [
          88.610833,
          22.291111
        ]
      },
      "type": "Feature",
      "properties": {
        "hierarchy": [
          "tgn:7588411",
          "tgn:1000004",
          "tgn:7000198",
          "tgn:1001977",
          "tgn:7029392"
        ],
        "placetype": [
          "aat:300008347"
        ],
        "name:en": "Āmdhāla",
        "id": 7588411
      }
    },
    {
      "geometry": {
        "type": "Point",
        "coordinates": [
          88.577674,
          22.303779
        ]
      },
      "type": "Feature",
      "properties": {
        "hierarchy": [
          "tgn:7588412",
          "tgn:1000004",
          "tgn:7000198",
          "tgn:1001977",
          "tgn:7029392"
        ],
        "placetype": [
          "aat:300008347"
        ],
        "name:en": "Daria Ābād",
        "id": 7588412
      }
    },
    {
      "geometry": {
        "type": "Point",
        "coordinates": [
          88.5525,
          22.293889
        ]
      },
      "type": "Feature",
      "properties": {
        "hierarchy": [
          "tgn:7588413",
          "tgn:1000004",
          "tgn:7000198",
          "tgn:1001977",
          "tgn:7029392"
        ],
        "placetype": [
          "aat:300008347"
        ],
        "name:en": "Davis Abāo",
        "id": 7588413
      }
    },
    {
      "geometry": {
        "type": "Point",
        "coordinates": [
          88.509167,
          22.288056
        ]
      },
      "type": "Feature",
      "properties": {
        "hierarchy": [
          "tgn:7588414",
          "tgn:1000004",
          "tgn:7000198",
          "tgn:1001977",
          "tgn:7029392"
        ],
        "placetype": [
          "aat:300008347"
        ],
        "name:en": "Nabagrām",
        "id": 7588414
      }
    },
    {
      "geometry": {
        "type": "Point",
        "coordinates": [
          88.618742,
          22.106925
        ]
      },
      "type": "Feature",
      "properties": {
        "hierarchy": [
          "tgn:7588415",
          "tgn:1000004",
          "tgn:7000198",
          "tgn:1001977",
          "tgn:7029392"
        ],
        "placetype": [
          "aat:300387055"
        ],
        "name:en": "Piāli",
        "id": 7588415
      }
    },
    {
      "geometry": {
        "type": "Point",
        "coordinates": [
          88.597075,
          22.391894
        ]
      },
      "type": "Feature",
      "properties": {
        "hierarchy": [
          "tgn:7588417",
          "tgn:1000004",
          "tgn:7000198",
          "tgn:1001977",
          "tgn:7029392"
        ],
        "placetype": [
          "aat:300008347"
        ],
        "name:en": "Nurullāhpur",
        "id": 7588417
      }
    },
    {
      "geometry": {
        "type": "Point",
        "coordinates": [
          88.578333,
          22.412778
        ]
      },
      "type": "Feature",
      "properties": {
        "hierarchy": [
          "tgn:7588418",
          "tgn:1000004",
          "tgn:7000198",
          "tgn:1001977",
          "tgn:7029392"
        ],
        "placetype": [
          "aat:300008347"
        ],
        "name:en": "Bānkri",
        "id": 7588418
      }
    },
    {
      "geometry": {
        "type": "Point",
        "coordinates": [
          88.658611,
          22.441667
        ]
      },
      "type": "Feature",
      "properties": {
        "hierarchy": [
          "tgn:7588419",
          "tgn:1000004",
          "tgn:7000198",
          "tgn:1001977",
          "tgn:7029392"
        ],
        "placetype": [
          "aat:300008347"
        ],
        "name:en": "Payna Ābād",
        "id": 7588419
      }
    }
  ]
}
