{
  "type": "FeatureCollection",
  "features": [
    {
      "geometry": {
        "type": "Point",
        "coordinates": [
          120.835818,
          23.810119
        ]
      },
      "type": "Feature",
      "properties": {
        "hierarchy": [
          "tgn:7477200",
          "tgn:7488858",
          "tgn:1000004",
          "tgn:1000141",
          "tgn:7029392"
        ],
        "placetype": [
          "aat:300008795"
        ],
        "id": 7477200,
        "name:xx": "Guizi Shan"
      }
    },
    {
      "geometry": {
        "type": "Point",
        "coordinates": [
          120.820617,
          23.789234
        ]
      },
      "type": "Feature",
      "properties": {
        "hierarchy": [
          "tgn:7477201",
          "tgn:7488858",
          "tgn:1000004",
          "tgn:1000141",
          "tgn:7029392"
        ],
        "placetype": [
          "aat:300008347"
        ],
        "id": 7477201,
        "name:xx": "Qigulin"
      }
    },
    {
      "geometry": {
        "type": "Point",
        "coordinates": [
          120.818709,
          23.780889
        ]
      },
      "type": "Feature",
      "properties": {
        "hierarchy": [
          "tgn:7477202",
          "tgn:7488858",
          "tgn:1000004",
          "tgn:1000141",
          "tgn:7029392"
        ],
        "placetype": [
          "aat:300008347"
        ],
        "id": 7477202,
        "name:xx": "Shiya"
      }
    },
    {
      "geometry": {
        "type": "Point",
        "coordinates": [
          120.813051,
          23.779578
        ]
      },
      "type": "Feature",
      "properties": {
        "hierarchy": [
          "tgn:7477203",
          "tgn:7488858",
          "tgn:1000004",
          "tgn:1000141",
          "tgn:7029392"
        ],
        "placetype": [
          "aat:300008347"
        ],
        "id": 7477203,
        "name:xx": "Shixue"
      }
    },
    {
      "geometry": {
        "type": "Point",
        "coordinates": [
          120.840569,
          23.762389
        ]
      },
      "type": "Feature",
      "properties": {
        "hierarchy": [
          "tgn:7477204",
          "tgn:7488858",
          "tgn:1000004",
          "tgn:1000141",
          "tgn:7029392"
        ],
        "placetype": [
          "aat:300008347"
        ],
        "id": 7477204,
        "name:xx": "Caolin"
      }
    },
    {
      "geometry": {
        "type": "Point",
        "coordinates": [
          120.77174,
          23.782333
        ]
      },
      "type": "Feature",
      "properties": {
        "hierarchy": [
          "tgn:7477205",
          "tgn:7488858",
          "tgn:1000004",
          "tgn:1000141",
          "tgn:7029392"
        ],
        "placetype": [
          "aat:300008347"
        ],
        "id": 7477205,
        "name:xx": "Xiakudi"
      }
    },
    {
      "geometry": {
        "type": "Point",
        "coordinates": [
          120.781754,
          23.800078
        ]
      },
      "type": "Feature",
      "properties": {
        "hierarchy": [
          "tgn:7477206",
          "tgn:7488858",
          "tgn:1000004",
          "tgn:1000141",
          "tgn:7029392"
        ],
        "placetype": [
          "aat:300008347"
        ],
        "id": 7477206,
        "name:xx": "Zhangtou"
      }
    },
    {
      "geometry": {
        "type": "Point",
        "coordinates": [
          121.821037,
          25.060648
        ]
      },
      "type": "Feature",
      "properties": {
        "hierarchy": [
          "tgn:7477207",
          "tgn:1000004",
          "tgn:1000454",
          "tgn:1000141",
          "tgn:7029392"
        ],
        "placetype": [
          "aat:300006495"
        ],
        "id": 7477207,
        "name:xx": "Shiren Guoxiao"
      }
    },
    {
      "geometry": {
        "type": "Point",
        "coordinates": [
          121.85178,
          25.062886
        ]
      },
      "type": "Feature",
      "properties": {
        "hierarchy": [
          "tgn:7477208",
          "tgn:1000004",
          "tgn:1000454",
          "tgn:1000141",
          "tgn:7029392"
        ],
        "placetype": [
          "aat:300006495"
        ],
        "id": 7477208,
        "name:xx": "Mudan Guoxiao"
      }
    },
    {
      "geometry": {
        "type": "Point",
        "coordinates": [
          121.901276,
          25.066579
        ]
      },
      "type": "Feature",
      "properties": {
        "hierarchy": [
          "tgn:7477209",
          "tgn:1000004",
          "tgn:1000454",
          "tgn:1000141",
          "tgn:7029392"
        ],
        "placetype": [
          "aat:300006495"
        ],
        "id": 7477209,
        "name:xx": "Fengzhu Guoxiao"
      }
    }
  ]
}
