{
  "type": "FeatureCollection",
  "features": [
    {
      "geometry": {
        "type": "Point",
        "coordinates": [
          31.481314,
          31.007887
        ]
      },
      "type": "Feature",
      "properties": {
        "hierarchy": [
          "tgn:7537500",
          "tgn:7001242",
          "tgn:1001059",
          "tgn:7016833",
          "tgn:7029392"
        ],
        "placetype": [
          "aat:300008347"
        ],
        "name:en": "Mît 'Ali",
        "id": 7537500
      }
    },
    {
      "geometry": {
        "type": "Point",
        "coordinates": [
          31.209349,
          30.516153
        ]
      },
      "type": "Feature",
      "properties": {
        "hierarchy": [
          "tgn:7537501",
          "tgn:7001242",
          "tgn:7016833",
          "tgn:1001087",
          "tgn:7029392"
        ],
        "placetype": [
          "aat:300008347"
        ],
        "name:en": "Mīt al Ḩūfīyīn",
        "id": 7537501
      }
    },
    {
      "geometry": {
        "type": "Point",
        "coordinates": [
          31.261597,
          30.620303
        ]
      },
      "type": "Feature",
      "properties": {
        "hierarchy": [
          "tgn:7537502",
          "tgn:7001242",
          "tgn:7016833",
          "tgn:7001312",
          "tgn:7029392"
        ],
        "placetype": [
          "aat:300008347"
        ],
        "id": 7537502,
        "name:xx": "Mīt al Ḩārūn"
      }
    },
    {
      "geometry": {
        "type": "Point",
        "coordinates": [
          31.608381,
          31.088306
        ]
      },
      "type": "Feature",
      "properties": {
        "hierarchy": [
          "tgn:7537503",
          "tgn:7001242",
          "tgn:1001059",
          "tgn:7016833",
          "tgn:7029392"
        ],
        "placetype": [
          "aat:300008347"
        ],
        "name:en": "Mīt al Ḩallūj",
        "id": 7537503
      }
    },
    {
      "geometry": {
        "type": "Point",
        "coordinates": [
          31.331161,
          31.041789
        ]
      },
      "type": "Feature",
      "properties": {
        "hierarchy": [
          "tgn:7537504",
          "tgn:7001242",
          "tgn:1001059",
          "tgn:7016833",
          "tgn:7029392"
        ],
        "placetype": [
          "aat:300008347"
        ],
        "name:en": "Mīt al Ghuraqā'",
        "id": 7537504
      }
    },
    {
      "geometry": {
        "type": "Point",
        "coordinates": [
          31.188515,
          30.812823
        ]
      },
      "type": "Feature",
      "properties": {
        "hierarchy": [
          "tgn:7537505",
          "tgn:7001242",
          "tgn:7016833",
          "tgn:7001312",
          "tgn:7029392"
        ],
        "placetype": [
          "aat:300008347"
        ],
        "name:en": "Mīt al Bizz",
        "id": 7537505
      }
    },
    {
      "geometry": {
        "type": "Point",
        "coordinates": [
          31.090839,
          30.435156
        ]
      },
      "type": "Feature",
      "properties": {
        "hierarchy": [
          "tgn:7537506",
          "tgn:7001242",
          "tgn:7016833",
          "tgn:1001087",
          "tgn:7029392"
        ],
        "placetype": [
          "aat:300008347"
        ],
        "id": 7537506,
        "name:xx": "Mīt al Bayḑā"
      }
    },
    {
      "geometry": {
        "type": "Point",
        "coordinates": [
          31.13957,
          30.440999
        ]
      },
      "type": "Feature",
      "properties": {
        "hierarchy": [
          "tgn:7537507",
          "tgn:7001242",
          "tgn:7016833",
          "tgn:1001092",
          "tgn:7029392"
        ],
        "placetype": [
          "aat:300008347"
        ],
        "id": 7537507,
        "name:xx": "Mīt al 'Aţţār"
      }
    },
    {
      "geometry": {
        "type": "Point",
        "coordinates": [
          31.423544,
          30.992271
        ]
      },
      "type": "Feature",
      "properties": {
        "hierarchy": [
          "tgn:7537509",
          "tgn:7001242",
          "tgn:1001059",
          "tgn:7016833",
          "tgn:7029392"
        ],
        "placetype": [
          "aat:300008347"
        ],
        "name:en": "Mīt al Akrād",
        "id": 7537509
      }
    }
  ]
}
