{
  "type": "FeatureCollection",
  "features": [
    {
      "geometry": {
        "type": "Point",
        "coordinates": [
          78.984108,
          26.045902
        ]
      },
      "type": "Feature",
      "properties": {
        "hierarchy": [
          "tgn:7569880",
          "tgn:1000004",
          "tgn:7000198",
          "tgn:1001894",
          "tgn:7029392"
        ],
        "placetype": [
          "aat:300008347"
        ],
        "name:en": "Mau",
        "id": 7569880
      }
    },
    {
      "geometry": {
        "type": "Point",
        "coordinates": [
          78.702207,
          26.19651
        ]
      },
      "type": "Feature",
      "properties": {
        "hierarchy": [
          "tgn:7569881",
          "tgn:1000004",
          "tgn:7000198",
          "tgn:1001894",
          "tgn:7029392"
        ],
        "placetype": [
          "aat:300008347"
        ],
        "name:en": "Diroli",
        "id": 7569881
      }
    },
    {
      "geometry": {
        "type": "Point",
        "coordinates": [
          78.620795,
          26.447864
        ]
      },
      "type": "Feature",
      "properties": {
        "hierarchy": [
          "tgn:7569882",
          "tgn:1000004",
          "tgn:7000198",
          "tgn:1001894",
          "tgn:7029392"
        ],
        "placetype": [
          "aat:300008347"
        ],
        "name:en": "Kohār",
        "id": 7569882
      }
    },
    {
      "geometry": {
        "type": "Point",
        "coordinates": [
          78.722175,
          29.932197
        ]
      },
      "type": "Feature",
      "properties": {
        "hierarchy": [
          "tgn:7569883",
          "tgn:1000004",
          "tgn:7000198",
          "tgn:7031786",
          "tgn:7029392"
        ],
        "placetype": [
          "aat:300008347"
        ],
        "name:en": "Rautela",
        "id": 7569883
      }
    },
    {
      "geometry": {
        "type": "Point",
        "coordinates": [
          78.704965,
          29.933308
        ]
      },
      "type": "Feature",
      "properties": {
        "hierarchy": [
          "tgn:7569884",
          "tgn:1000004",
          "tgn:7000198",
          "tgn:7031786",
          "tgn:7029392"
        ],
        "placetype": [
          "aat:300008699"
        ],
        "name:en": "Pūrvi Nayār River",
        "id": 7569884
      }
    },
    {
      "geometry": {
        "type": "Point",
        "coordinates": [
          78.700476,
          29.932384
        ]
      },
      "type": "Feature",
      "properties": {
        "hierarchy": [
          "tgn:7569885",
          "tgn:1000004",
          "tgn:7000198",
          "tgn:7031786",
          "tgn:7029392"
        ],
        "placetype": [
          "aat:300008347"
        ],
        "name:en": "Udal Palla",
        "id": 7569885
      }
    },
    {
      "geometry": {
        "type": "Point",
        "coordinates": [
          78.693333,
          29.935278
        ]
      },
      "type": "Feature",
      "properties": {
        "hierarchy": [
          "tgn:7569886",
          "tgn:1000004",
          "tgn:7000198",
          "tgn:7031786",
          "tgn:7029392"
        ],
        "placetype": [
          "aat:300008347"
        ],
        "name:en": "Bhalli",
        "id": 7569886
      }
    },
    {
      "geometry": {
        "type": "Point",
        "coordinates": [
          78.682549,
          29.937463
        ]
      },
      "type": "Feature",
      "properties": {
        "hierarchy": [
          "tgn:7569887",
          "tgn:1000004",
          "tgn:7000198",
          "tgn:7031786",
          "tgn:7029392"
        ],
        "placetype": [
          "aat:300008347"
        ],
        "name:en": "Pokhri",
        "id": 7569887
      }
    },
    {
      "geometry": {
        "type": "Point",
        "coordinates": [
          78.675351,
          29.930018
        ]
      },
      "type": "Feature",
      "properties": {
        "hierarchy": [
          "tgn:7569888",
          "tgn:1000004",
          "tgn:7000198",
          "tgn:7031786",
          "tgn:7029392"
        ],
        "placetype": [
          "aat:300008347"
        ],
        "name:en": "Rājkhil",
        "id": 7569888
      }
    },
    {
      "geometry": {
        "type": "Point",
        "coordinates": [
          78.657747,
          29.939012
        ]
      },
      "type": "Feature",
      "properties": {
        "hierarchy": [
          "tgn:7569889",
          "tgn:1000004",
          "tgn:7000198",
          "tgn:7031786",
          "tgn:7029392"
        ],
        "placetype": [
          "aat:300008347"
        ],
        "name:en": "Bājāgaon",
        "id": 7569889
      }
    }
  ]
}
