{
  "type": "FeatureCollection",
  "features": [
    {
      "geometry": {
        "type": "Point",
        "coordinates": [
          120.189192,
          23.389908
        ]
      },
      "type": "Feature",
      "properties": {
        "hierarchy": [
          "tgn:7488420",
          "tgn:7468018",
          "tgn:1000004",
          "tgn:1000141",
          "tgn:7029392"
        ],
        "placetype": [
          "aat:300008347"
        ],
        "id": 7488420,
        "name:xx": "Luliao"
      }
    },
    {
      "geometry": {
        "type": "Point",
        "coordinates": [
          120.56412,
          22.561199
        ]
      },
      "type": "Feature",
      "properties": {
        "hierarchy": [
          "tgn:7488422",
          "tgn:1000004",
          "tgn:7492971",
          "tgn:1000141",
          "tgn:7029392"
        ],
        "placetype": [
          "aat:300008347"
        ],
        "id": 7488422,
        "name:xx": "Luliao"
      }
    },
    {
      "geometry": {
        "type": "Point",
        "coordinates": [
          121.783333,
          25.15
        ]
      },
      "type": "Feature",
      "properties": {
        "hierarchy": [
          "tgn:7488423",
          "tgn:1000957",
          "tgn:1000004",
          "tgn:1000141",
          "tgn:7029392"
        ],
        "placetype": [
          "aat:300386846"
        ],
        "id": 7488423,
        "name:xx": "Luguping Jiao"
      }
    },
    {
      "geometry": {
        "type": "Point",
        "coordinates": [
          121.6059,
          25.1665
        ]
      },
      "type": "Feature",
      "properties": {
        "hierarchy": [
          "tgn:7488424",
          "tgn:1000004",
          "tgn:1000454",
          "tgn:1000141",
          "tgn:7029392"
        ],
        "placetype": [
          "aat:300008347"
        ],
        "id": 7488424,
        "name:xx": "Lukuping"
      }
    },
    {
      "geometry": {
        "type": "Point",
        "coordinates": [
          121.331919,
          23.314597
        ]
      },
      "type": "Feature",
      "properties": {
        "hierarchy": [
          "tgn:7488425",
          "tgn:7001010",
          "tgn:1000004",
          "tgn:1000141",
          "tgn:7029392"
        ],
        "placetype": [
          "aat:300008699"
        ],
        "id": 7488425,
        "name:xx": "Lele Xi"
      }
    },
    {
      "geometry": {
        "type": "Point",
        "coordinates": [
          120.783333,
          23.666667
        ]
      },
      "type": "Feature",
      "properties": {
        "hierarchy": [
          "tgn:7488426",
          "tgn:7488858",
          "tgn:1000004",
          "tgn:1000141",
          "tgn:7029392"
        ],
        "placetype": [
          "aat:300008347"
        ],
        "id": 7488426,
        "name:xx": "Luguxiang"
      }
    }
  ]
}
