{
  "type": "FeatureCollection",
  "features": [
    {
      "geometry": {
        "type": "Point",
        "coordinates": [
          120.613889,
          24.296389
        ]
      },
      "type": "Feature",
      "properties": {
        "hierarchy": [
          "tgn:7469620",
          "tgn:1000004",
          "tgn:7001009",
          "tgn:1000141",
          "tgn:7029392"
        ],
        "placetype": [
          "aat:300008347"
        ],
        "id": 7469620,
        "name:xx": "Haifengzhuang"
      }
    },
    {
      "geometry": {
        "type": "Point",
        "coordinates": [
          120.256389,
          23.6325
        ]
      },
      "type": "Feature",
      "properties": {
        "hierarchy": [
          "tgn:7469621",
          "tgn:1000004",
          "tgn:7001014",
          "tgn:1000141",
          "tgn:7029392"
        ],
        "placetype": [
          "aat:300008347"
        ],
        "id": 7469621,
        "name:xx": "Haifeng"
      }
    },
    {
      "geometry": {
        "type": "Point",
        "coordinates": [
          120.4881,
          23.9141
        ]
      },
      "type": "Feature",
      "properties": {
        "hierarchy": [
          "tgn:7469622",
          "tgn:1000004",
          "tgn:7467799",
          "tgn:1000141",
          "tgn:7029392"
        ],
        "placetype": [
          "aat:300387173"
        ],
        "id": 7469622,
        "name:xx": "Haifeng Cun"
      }
    },
    {
      "geometry": {
        "type": "Point",
        "coordinates": [
          120.220278,
          23.767222
        ]
      },
      "type": "Feature",
      "properties": {
        "hierarchy": [
          "tgn:7469623",
          "tgn:1000004",
          "tgn:7001014",
          "tgn:1000141",
          "tgn:7029392"
        ],
        "placetype": [
          "aat:300387200"
        ],
        "id": 7469623,
        "name:xx": "Haifeng Cun"
      }
    },
    {
      "geometry": {
        "type": "Point",
        "coordinates": [
          120.287778,
          23.416389
        ]
      },
      "type": "Feature",
      "properties": {
        "hierarchy": [
          "tgn:7469624",
          "tgn:7468018",
          "tgn:1000004",
          "tgn:1000141",
          "tgn:7029392"
        ],
        "placetype": [
          "aat:300008347"
        ],
        "id": 7469624,
        "name:xx": "Haifeng"
      }
    },
    {
      "geometry": {
        "type": "Point",
        "coordinates": [
          120.332222,
          22.764167
        ]
      },
      "type": "Feature",
      "properties": {
        "hierarchy": [
          "tgn:7469625",
          "tgn:7001004",
          "tgn:1000004",
          "tgn:1000141",
          "tgn:7029392"
        ],
        "placetype": [
          "aat:300008347"
        ],
        "id": 7469625,
        "name:xx": "Haifeng"
      }
    },
    {
      "geometry": {
        "type": "Point",
        "coordinates": [
          120.521972,
          22.716746
        ]
      },
      "type": "Feature",
      "properties": {
        "hierarchy": [
          "tgn:7469626",
          "tgn:1000004",
          "tgn:7492971",
          "tgn:1000141",
          "tgn:7029392"
        ],
        "placetype": [
          "aat:300008347"
        ],
        "id": 7469626,
        "name:xx": "Zhenliao"
      }
    },
    {
      "geometry": {
        "type": "Point",
        "coordinates": [
          121.23279,
          25.092765
        ]
      },
      "type": "Feature",
      "properties": {
        "hierarchy": [
          "tgn:7469628",
          "tgn:1000004",
          "tgn:7001013",
          "tgn:1000141",
          "tgn:7029392"
        ],
        "placetype": [
          "aat:300008347"
        ],
        "id": 7469628,
        "name:xx": "Haifangcuo"
      }
    },
    {
      "geometry": {
        "type": "Point",
        "coordinates": [
          120.495278,
          24.043889
        ]
      },
      "type": "Feature",
      "properties": {
        "hierarchy": [
          "tgn:7469629",
          "tgn:1000004",
          "tgn:7467799",
          "tgn:1000141",
          "tgn:7029392"
        ],
        "placetype": [
          "aat:300008347"
        ],
        "id": 7469629,
        "name:xx": "Hai'er'an"
      }
    }
  ]
}
