{
  "type": "FeatureCollection",
  "features": [
    {
      "geometry": {
        "type": "Point",
        "coordinates": [
          120.517769,
          22.574953
        ]
      },
      "type": "Feature",
      "properties": {
        "hierarchy": [
          "tgn:7482240",
          "tgn:1000004",
          "tgn:7492971",
          "tgn:1000141",
          "tgn:7029392"
        ],
        "placetype": [
          "aat:300008347"
        ],
        "id": 7482240,
        "name:xx": "Duchuantou"
      }
    },
    {
      "geometry": {
        "type": "Point",
        "coordinates": [
          120.512133,
          22.665152
        ]
      },
      "type": "Feature",
      "properties": {
        "hierarchy": [
          "tgn:7482241",
          "tgn:1000004",
          "tgn:7492971",
          "tgn:1000141",
          "tgn:7029392"
        ],
        "placetype": [
          "aat:300007836"
        ],
        "id": 7482241,
        "name:xx": "Xianghu Qiao"
      }
    },
    {
      "geometry": {
        "type": "Point",
        "coordinates": [
          120.35453,
          23.183471
        ]
      },
      "type": "Feature",
      "properties": {
        "hierarchy": [
          "tgn:7482242",
          "tgn:1000004",
          "tgn:7490934",
          "tgn:1000141",
          "tgn:7029392"
        ],
        "placetype": [
          "aat:300007836"
        ],
        "id": 7482242,
        "name:xx": "Dachangqi Qiao"
      }
    },
    {
      "geometry": {
        "type": "Point",
        "coordinates": [
          120.341939,
          23.188997
        ]
      },
      "type": "Feature",
      "properties": {
        "hierarchy": [
          "tgn:7482243",
          "tgn:1000004",
          "tgn:7490934",
          "tgn:1000141",
          "tgn:7029392"
        ],
        "placetype": [
          "aat:300006495"
        ],
        "id": 7482243,
        "name:xx": "Guantian Guoxiao"
      }
    },
    {
      "geometry": {
        "type": "Point",
        "coordinates": [
          120.328028,
          23.191772
        ]
      },
      "type": "Feature",
      "properties": {
        "hierarchy": [
          "tgn:7482244",
          "tgn:1000004",
          "tgn:7490934",
          "tgn:1000141",
          "tgn:7029392"
        ],
        "placetype": [
          "aat:300006495"
        ],
        "id": 7482244,
        "name:xx": "Yangming Zhongxue"
      }
    },
    {
      "geometry": {
        "type": "Point",
        "coordinates": [
          120.315031,
          23.191685
        ]
      },
      "type": "Feature",
      "properties": {
        "hierarchy": [
          "tgn:7482245",
          "tgn:1000004",
          "tgn:7490934",
          "tgn:1000141",
          "tgn:7029392"
        ],
        "placetype": [
          "aat:300006495"
        ],
        "id": 7482245,
        "name:xx": "Longtian Guoxiao"
      }
    },
    {
      "geometry": {
        "type": "Point",
        "coordinates": [
          120.349263,
          23.199357
        ]
      },
      "type": "Feature",
      "properties": {
        "hierarchy": [
          "tgn:7482246",
          "tgn:1000004",
          "tgn:7490934",
          "tgn:1000141",
          "tgn:7029392"
        ],
        "placetype": [
          "aat:300007595"
        ],
        "id": 7482246,
        "name:xx": "Yongan Gong"
      }
    },
    {
      "geometry": {
        "type": "Point",
        "coordinates": [
          120.35096,
          23.197495
        ]
      },
      "type": "Feature",
      "properties": {
        "hierarchy": [
          "tgn:7482247",
          "tgn:1000004",
          "tgn:7490934",
          "tgn:1000141",
          "tgn:7029392"
        ],
        "placetype": [
          "aat:300007836"
        ],
        "id": 7482247,
        "name:xx": "Zhongshe Qiao"
      }
    },
    {
      "geometry": {
        "type": "Point",
        "coordinates": [
          120.325718,
          23.207829
        ]
      },
      "type": "Feature",
      "properties": {
        "hierarchy": [
          "tgn:7482249",
          "tgn:1000004",
          "tgn:7490934",
          "tgn:1000141",
          "tgn:7029392"
        ],
        "placetype": [
          "aat:300387302"
        ],
        "id": 7482249,
        "name:xx": "Guantian Gongyequ"
      }
    }
  ]
}
