{
  "type": "FeatureCollection",
  "features": [
    {
      "geometry": {
        "type": "Point",
        "coordinates": [
          74.680506,
          34.114467
        ]
      },
      "type": "Feature",
      "properties": {
        "hierarchy": [
          "tgn:7587420",
          "tgn:1000004",
          "tgn:7000198",
          "tgn:7000799",
          "tgn:7029392"
        ],
        "placetype": [
          "aat:300008347"
        ],
        "name:en": "Sozyeth Gurīpura",
        "id": 7587420
      }
    },
    {
      "geometry": {
        "type": "Point",
        "coordinates": [
          74.700019,
          34.119618
        ]
      },
      "type": "Feature",
      "properties": {
        "hierarchy": [
          "tgn:7587421",
          "tgn:1000004",
          "tgn:7000198",
          "tgn:7000799",
          "tgn:7029392"
        ],
        "placetype": [
          "aat:300008347"
        ],
        "name:en": "Lāwepur",
        "id": 7587421
      }
    },
    {
      "geometry": {
        "type": "Point",
        "coordinates": [
          74.715278,
          34.1125
        ]
      },
      "type": "Feature",
      "properties": {
        "hierarchy": [
          "tgn:7587422",
          "tgn:1000004",
          "tgn:7000198",
          "tgn:7000799",
          "tgn:7029392"
        ],
        "placetype": [
          "aat:300008347"
        ],
        "name:en": "Chak Dewān Shāh",
        "id": 7587422
      }
    },
    {
      "geometry": {
        "type": "Point",
        "coordinates": [
          74.714727,
          34.103774
        ]
      },
      "type": "Feature",
      "properties": {
        "hierarchy": [
          "tgn:7587423",
          "tgn:1000004",
          "tgn:7000198",
          "tgn:7000799",
          "tgn:7029392"
        ],
        "placetype": [
          "aat:300008680"
        ],
        "name:en": "Hokar Sar",
        "id": 7587423
      }
    },
    {
      "geometry": {
        "type": "Point",
        "coordinates": [
          74.740157,
          34.085117
        ]
      },
      "type": "Feature",
      "properties": {
        "hierarchy": [
          "tgn:7587424",
          "tgn:1000004",
          "tgn:7000198",
          "tgn:7000799",
          "tgn:7029392"
        ],
        "placetype": [
          "aat:300008347"
        ],
        "name:en": "Sharīfābād",
        "id": 7587424
      }
    },
    {
      "geometry": {
        "type": "Point",
        "coordinates": [
          74.726296,
          34.090276
        ]
      },
      "type": "Feature",
      "properties": {
        "hierarchy": [
          "tgn:7587425",
          "tgn:1000004",
          "tgn:7000198",
          "tgn:7000799",
          "tgn:7029392"
        ],
        "placetype": [
          "aat:300008347"
        ],
        "name:en": "Hājibāgh",
        "id": 7587425
      }
    },
    {
      "geometry": {
        "type": "Point",
        "coordinates": [
          74.733288,
          34.095416
        ]
      },
      "type": "Feature",
      "properties": {
        "hierarchy": [
          "tgn:7587426",
          "tgn:1000004",
          "tgn:7000198",
          "tgn:7000799",
          "tgn:7029392"
        ],
        "placetype": [
          "aat:300008347"
        ],
        "name:en": "Khushipur",
        "id": 7587426
      }
    },
    {
      "geometry": {
        "type": "Point",
        "coordinates": [
          74.740278,
          34.095833
        ]
      },
      "type": "Feature",
      "properties": {
        "hierarchy": [
          "tgn:7587427",
          "tgn:1000004",
          "tgn:7000198",
          "tgn:7000799",
          "tgn:7029392"
        ],
        "placetype": [
          "aat:300008347"
        ],
        "name:en": "Rishmahal",
        "id": 7587427
      }
    },
    {
      "geometry": {
        "type": "Point",
        "coordinates": [
          74.731389,
          34.102649
        ]
      },
      "type": "Feature",
      "properties": {
        "hierarchy": [
          "tgn:7587428",
          "tgn:1000004",
          "tgn:7000198",
          "tgn:7000799",
          "tgn:7029392"
        ],
        "placetype": [
          "aat:300008347"
        ],
        "name:en": "Zainakūt",
        "id": 7587428
      }
    },
    {
      "geometry": {
        "type": "Point",
        "coordinates": [
          74.741667,
          34.119444
        ]
      },
      "type": "Feature",
      "properties": {
        "hierarchy": [
          "tgn:7587429",
          "tgn:1000004",
          "tgn:7000198",
          "tgn:7000799",
          "tgn:7029392"
        ],
        "placetype": [
          "aat:300008347"
        ],
        "name:en": "Malur",
        "id": 7587429
      }
    }
  ]
}
