{
  "type": "FeatureCollection",
  "features": [
    {
      "geometry": {
        "type": "Point",
        "coordinates": [
          34.859266,
          23.768241
        ]
      },
      "type": "Feature",
      "properties": {
        "hierarchy": [
          "tgn:7528070",
          "tgn:7001242",
          "tgn:7001311",
          "tgn:7016833",
          "tgn:7029392"
        ],
        "placetype": [
          "aat:300379998"
        ],
        "name:en": "Umm Bisilla, Wâdi",
        "id": 7528070
      }
    },
    {
      "geometry": {
        "type": "Point",
        "coordinates": [
          34.225268,
          24.488705
        ]
      },
      "type": "Feature",
      "properties": {
        "hierarchy": [
          "tgn:7528071",
          "tgn:7001242",
          "tgn:7001311",
          "tgn:7016833",
          "tgn:7029392"
        ],
        "placetype": [
          "aat:300379998"
        ],
        "name:en": "Umm Bîlât, Wâdî",
        "id": 7528071
      }
    },
    {
      "geometry": {
        "type": "Point",
        "coordinates": [
          33.646787,
          28.64756
        ]
      },
      "type": "Feature",
      "properties": {
        "hierarchy": [
          "tgn:7528072",
          "tgn:7001242",
          "tgn:7016833",
          "tgn:7001336",
          "tgn:7029392"
        ],
        "placetype": [
          "aat:300008795"
        ],
        "name:en": "Sirbāl, Jabal",
        "id": 7528072
      }
    },
    {
      "geometry": {
        "type": "Point",
        "coordinates": [
          31.011389,
          29.484722
        ]
      },
      "type": "Feature",
      "properties": {
        "hierarchy": [
          "tgn:7528073",
          "tgn:7001242",
          "tgn:7001105",
          "tgn:7016833",
          "tgn:7029392"
        ],
        "placetype": [
          "aat:300006075"
        ],
        "name:en": "Baḩr as Sirb",
        "id": 7528073
      }
    },
    {
      "geometry": {
        "type": "Point",
        "coordinates": [
          30.535791,
          25.502915
        ]
      },
      "type": "Feature",
      "properties": {
        "hierarchy": [
          "tgn:7528074",
          "tgn:7001242",
          "tgn:7016833",
          "tgn:7001334",
          "tgn:7029392"
        ],
        "placetype": [
          "aat:300008697"
        ],
        "name:en": "Sirāj al Qiblīyah, 'Ayn",
        "id": 7528074
      }
    },
    {
      "geometry": {
        "type": "Point",
        "coordinates": [
          32.95,
          24.866667
        ]
      },
      "type": "Feature",
      "properties": {
        "hierarchy": [
          "tgn:7528075",
          "tgn:7001242",
          "tgn:7016833",
          "tgn:7000122",
          "tgn:7029392"
        ],
        "placetype": [
          "aat:300379998"
        ],
        "name:en": "Sirāj, Wādī as",
        "id": 7528075
      }
    },
    {
      "geometry": {
        "type": "Point",
        "coordinates": [
          30.522882,
          25.388725
        ]
      },
      "type": "Feature",
      "properties": {
        "hierarchy": [
          "tgn:7528076",
          "tgn:7001242",
          "tgn:7016833",
          "tgn:7001334",
          "tgn:7029392"
        ],
        "placetype": [
          "aat:300008697"
        ],
        "name:en": "Sirāj, 'Ayn",
        "id": 7528076
      }
    },
    {
      "geometry": {
        "type": "Point",
        "coordinates": [
          34.083333,
          25.466667
        ]
      },
      "type": "Feature",
      "properties": {
        "hierarchy": [
          "tgn:7528077",
          "tgn:7001242",
          "tgn:7001311",
          "tgn:7016833",
          "tgn:7029392"
        ],
        "placetype": [
          "aat:300006207"
        ],
        "name:en": "Bi'r Siqdīt",
        "id": 7528077
      }
    },
    {
      "geometry": {
        "type": "Point",
        "coordinates": [
          34.100202,
          25.50764
        ]
      },
      "type": "Feature",
      "properties": {
        "hierarchy": [
          "tgn:7528078",
          "tgn:7001242",
          "tgn:7001311",
          "tgn:7016833",
          "tgn:7029392"
        ],
        "placetype": [
          "aat:300008795"
        ],
        "name:en": "Siqdīd, Jabal",
        "id": 7528078
      }
    },
    {
      "geometry": {
        "type": "Point",
        "coordinates": [
          33.131944,
          29.596389
        ]
      },
      "type": "Feature",
      "properties": {
        "hierarchy": [
          "tgn:7528079",
          "tgn:7001242",
          "tgn:7016833",
          "tgn:7001336",
          "tgn:7029392"
        ],
        "placetype": [
          "aat:300008692"
        ],
        "name:en": "Sīq al Fawqīyah",
        "id": 7528079
      }
    }
  ]
}
