{
  "type": "FeatureCollection",
  "features": [
    {
      "geometry": {
        "type": "Point",
        "coordinates": [
          120.995833,
          24.8725
        ]
      },
      "type": "Feature",
      "properties": {
        "hierarchy": [
          "tgn:7491800",
          "tgn:1000004",
          "tgn:7471332",
          "tgn:1000141",
          "tgn:7029392"
        ],
        "placetype": [
          "aat:300008347"
        ],
        "id": 7491800,
        "name:xx": "Shanqi"
      }
    },
    {
      "geometry": {
        "type": "Point",
        "coordinates": [
          120.683333,
          22.666667
        ]
      },
      "type": "Feature",
      "properties": {
        "hierarchy": [
          "tgn:7491801",
          "tgn:1000004",
          "tgn:7492971",
          "tgn:1000141",
          "tgn:7029392"
        ],
        "placetype": [
          "aat:300008347"
        ],
        "id": 7491801,
        "name:xx": "Shanqi"
      }
    },
    {
      "geometry": {
        "type": "Point",
        "coordinates": [
          120.915008,
          23.910347
        ]
      },
      "type": "Feature",
      "properties": {
        "hierarchy": [
          "tgn:7491802",
          "tgn:7488858",
          "tgn:1000004",
          "tgn:1000141",
          "tgn:7029392"
        ],
        "placetype": [
          "aat:300008347"
        ],
        "id": 7491802,
        "name:xx": "Shanzhajiao"
      }
    },
    {
      "geometry": {
        "type": "Point",
        "coordinates": [
          120.633333,
          22.833333
        ]
      },
      "type": "Feature",
      "properties": {
        "hierarchy": [
          "tgn:7491803",
          "tgn:1000004",
          "tgn:7492971",
          "tgn:1000141",
          "tgn:7029392"
        ],
        "placetype": [
          "aat:300008347"
        ],
        "id": 7491803,
        "name:xx": "Shamo"
      }
    },
    {
      "geometry": {
        "type": "Point",
        "coordinates": [
          120.316667,
          22.816667
        ]
      },
      "type": "Feature",
      "properties": {
        "hierarchy": [
          "tgn:7491805",
          "tgn:7001004",
          "tgn:1000004",
          "tgn:1000141",
          "tgn:7029392"
        ],
        "placetype": [
          "aat:300008347"
        ],
        "id": 7491805,
        "name:xx": "Shamaoshi"
      }
    },
    {
      "geometry": {
        "type": "Point",
        "coordinates": [
          121.542984,
          25.148306
        ]
      },
      "type": "Feature",
      "properties": {
        "hierarchy": [
          "tgn:7491806",
          "tgn:1000004",
          "tgn:1000959",
          "tgn:1000141",
          "tgn:7029392"
        ],
        "placetype": [
          "aat:300008798"
        ],
        "id": 7491806,
        "name:xx": "Shamao Shan"
      }
    },
    {
      "geometry": {
        "type": "Point",
        "coordinates": [
          119.569015,
          23.528974
        ]
      },
      "type": "Feature",
      "properties": {
        "hierarchy": [
          "tgn:7491807",
          "tgn:1000004",
          "tgn:7004300",
          "tgn:1000141",
          "tgn:7029392"
        ],
        "placetype": [
          "aat:300387033"
        ],
        "id": 7491807,
        "name:xx": "Shamao Shan"
      }
    },
    {
      "geometry": {
        "type": "Point",
        "coordinates": [
          121.421313,
          25.185569
        ]
      },
      "type": "Feature",
      "properties": {
        "hierarchy": [
          "tgn:7491808",
          "tgn:1000004",
          "tgn:1000454",
          "tgn:1000141",
          "tgn:7029392"
        ],
        "placetype": [
          "aat:300008347"
        ],
        "id": 7491808,
        "name:xx": "Shalun"
      }
    },
    {
      "geometry": {
        "type": "Point",
        "coordinates": [
          121.352778,
          24.670556
        ]
      },
      "type": "Feature",
      "properties": {
        "hierarchy": [
          "tgn:7491809",
          "tgn:1000004",
          "tgn:7001013",
          "tgn:1000141",
          "tgn:7029392"
        ],
        "placetype": [
          "aat:300008347"
        ],
        "id": 7491809,
        "name:xx": "Shalunzi"
      }
    }
  ]
}
