{
  "type": "FeatureCollection",
  "features": [
    {
      "geometry": {
        "type": "Point",
        "coordinates": [
          31.366667,
          29.933333
        ]
      },
      "type": "Feature",
      "properties": {
        "hierarchy": [
          "tgn:7536430",
          "tgn:7001242",
          "tgn:7016833",
          "tgn:1001091",
          "tgn:7029392"
        ],
        "placetype": [
          "aat:300132339"
        ],
        "name:en": "Ghuzz, Ţal'at al",
        "id": 7536430
      }
    },
    {
      "geometry": {
        "type": "Point",
        "coordinates": [
          30.867747,
          30.631282
        ]
      },
      "type": "Feature",
      "properties": {
        "hierarchy": [
          "tgn:7536431",
          "tgn:7001242",
          "tgn:7016833",
          "tgn:1001087",
          "tgn:7029392"
        ],
        "placetype": [
          "aat:300008347"
        ],
        "name:en": "Kafr as Sawālimīyah",
        "id": 7536431
      }
    },
    {
      "geometry": {
        "type": "Point",
        "coordinates": [
          30.74526,
          30.872759
        ]
      },
      "type": "Feature",
      "properties": {
        "hierarchy": [
          "tgn:7536432",
          "tgn:7001242",
          "tgn:1001075",
          "tgn:7016833",
          "tgn:7029392"
        ],
        "placetype": [
          "aat:300008347"
        ],
        "name:en": "As Sawālim al Qiblīyah",
        "id": 7536432
      }
    },
    {
      "geometry": {
        "type": "Point",
        "coordinates": [
          30.741887,
          30.876729
        ]
      },
      "type": "Feature",
      "properties": {
        "hierarchy": [
          "tgn:7536433",
          "tgn:7001242",
          "tgn:1001075",
          "tgn:7016833",
          "tgn:7029392"
        ],
        "placetype": [
          "aat:300008347"
        ],
        "name:en": "As Sawālim al Baḩrīyah",
        "id": 7536433
      }
    },
    {
      "geometry": {
        "type": "Point",
        "coordinates": [
          31.983333,
          30.783333
        ]
      },
      "type": "Feature",
      "properties": {
        "hierarchy": [
          "tgn:7536434",
          "tgn:7001242",
          "tgn:7016833",
          "tgn:1001113",
          "tgn:7029392"
        ],
        "placetype": [
          "aat:300008347"
        ],
        "name:en": "Kafr as Sawālimah",
        "id": 7536434
      }
    },
    {
      "geometry": {
        "type": "Point",
        "coordinates": [
          31.233333,
          30.616667
        ]
      },
      "type": "Feature",
      "properties": {
        "hierarchy": [
          "tgn:7536435",
          "tgn:7001242",
          "tgn:7016833",
          "tgn:7001312",
          "tgn:7029392"
        ],
        "placetype": [
          "aat:300008347"
        ],
        "name:en": "Kafr aş Şārim al Qiblī",
        "id": 7536435
      }
    },
    {
      "geometry": {
        "type": "Point",
        "coordinates": [
          31.2309,
          30.996474
        ]
      },
      "type": "Feature",
      "properties": {
        "hierarchy": [
          "tgn:7536436",
          "tgn:7001242",
          "tgn:7016833",
          "tgn:7001312",
          "tgn:7029392"
        ],
        "placetype": [
          "aat:300008347"
        ],
        "name:en": "Kafr aş Şārim al Baḩrī",
        "id": 7536436
      }
    },
    {
      "geometry": {
        "type": "Point",
        "coordinates": [
          31.733333,
          30.616944
        ]
      },
      "type": "Feature",
      "properties": {
        "hierarchy": [
          "tgn:7536437",
          "tgn:7001242",
          "tgn:7016833",
          "tgn:1001113",
          "tgn:7029392"
        ],
        "placetype": [
          "aat:300008347"
        ],
        "id": 7536437,
        "name:xx": "Kafr as Sarāsīyah"
      }
    },
    {
      "geometry": {
        "type": "Point",
        "coordinates": [
          30.625198,
          30.827209
        ]
      },
      "type": "Feature",
      "properties": {
        "hierarchy": [
          "tgn:7536438",
          "tgn:7001242",
          "tgn:1001075",
          "tgn:7016833",
          "tgn:7029392"
        ],
        "placetype": [
          "aat:300008347"
        ],
        "name:en": "Kafr as Saqqā'",
        "id": 7536438
      }
    },
    {
      "geometry": {
        "type": "Point",
        "coordinates": [
          31.534144,
          30.775378
        ]
      },
      "type": "Feature",
      "properties": {
        "hierarchy": [
          "tgn:7536439",
          "tgn:7001242",
          "tgn:7016833",
          "tgn:1001113",
          "tgn:7029392"
        ],
        "placetype": [
          "aat:300008347"
        ],
        "id": 7536439,
        "name:xx": "Kafr as Sāqyah"
      }
    }
  ]
}
