{
  "type": "FeatureCollection",
  "features": [
    {
      "geometry": {
        "type": "Point",
        "coordinates": [
          79.670393,
          23.400676
        ]
      },
      "type": "Feature",
      "properties": {
        "hierarchy": [
          "tgn:7556590",
          "tgn:1000004",
          "tgn:7000198",
          "tgn:1001894",
          "tgn:7029392"
        ],
        "placetype": [
          "aat:300008347"
        ],
        "name:en": "Selw훮ra",
        "id": 7556590
      }
    },
    {
      "geometry": {
        "type": "Point",
        "coordinates": [
          81.416667,
          21.083333
        ]
      },
      "type": "Feature",
      "properties": {
        "hierarchy": [
          "tgn:7556591",
          "tgn:1000004",
          "tgn:7031781",
          "tgn:7000198",
          "tgn:7029392"
        ],
        "placetype": [
          "aat:300008347"
        ],
        "name:en": "Selud",
        "id": 7556591
      }
    },
    {
      "geometry": {
        "type": "Point",
        "coordinates": [
          92.856566,
          23.725523
        ]
      },
      "type": "Feature",
      "properties": {
        "hierarchy": [
          "tgn:7556592",
          "tgn:1000004",
          "tgn:7000198",
          "tgn:1001998",
          "tgn:7029392"
        ],
        "placetype": [
          "aat:300008347"
        ],
        "name:en": "Seling",
        "id": 7556592
      }
    },
    {
      "geometry": {
        "type": "Point",
        "coordinates": [
          76.716667,
          20.25
        ]
      },
      "type": "Feature",
      "properties": {
        "hierarchy": [
          "tgn:7556593",
          "tgn:1000004",
          "tgn:7000198",
          "tgn:1001895",
          "tgn:7029392"
        ],
        "placetype": [
          "aat:300008347"
        ],
        "name:en": "Selgaon",
        "id": 7556593
      }
    },
    {
      "geometry": {
        "type": "Point",
        "coordinates": [
          74.138614,
          20.87283
        ]
      },
      "type": "Feature",
      "properties": {
        "hierarchy": [
          "tgn:7556594",
          "tgn:1000004",
          "tgn:7000198",
          "tgn:1001895",
          "tgn:7029392"
        ],
        "placetype": [
          "aat:300008347"
        ],
        "name:en": "Selb훮ri",
        "id": 7556594
      }
    },
    {
      "geometry": {
        "type": "Point",
        "coordinates": [
          90.049722,
          25.340083
        ]
      },
      "type": "Feature",
      "properties": {
        "hierarchy": [
          "tgn:7556595",
          "tgn:1000004",
          "tgn:7000198",
          "tgn:1003539",
          "tgn:7029392"
        ],
        "placetype": [
          "aat:300008347"
        ],
        "name:en": "Selb훮lgiri",
        "id": 7556595
      }
    },
    {
      "geometry": {
        "type": "Point",
        "coordinates": [
          80.415928,
          23.63589
        ]
      },
      "type": "Feature",
      "properties": {
        "hierarchy": [
          "tgn:7556596",
          "tgn:1000004",
          "tgn:7000198",
          "tgn:1001894",
          "tgn:7029392"
        ],
        "placetype": [
          "aat:300008347"
        ],
        "name:en": "Sel훮rpur",
        "id": 7556596
      }
    },
    {
      "geometry": {
        "type": "Point",
        "coordinates": [
          70.731285,
          23.617537
        ]
      },
      "type": "Feature",
      "properties": {
        "hierarchy": [
          "tgn:7556597",
          "tgn:1000004",
          "tgn:1001869",
          "tgn:7000198",
          "tgn:7029392"
        ],
        "placetype": [
          "aat:300008347"
        ],
        "name:en": "Selari",
        "id": 7556597
      }
    },
    {
      "geometry": {
        "type": "Point",
        "coordinates": [
          92.066667,
          27.516667
        ]
      },
      "type": "Feature",
      "properties": {
        "hierarchy": [
          "tgn:7556598",
          "tgn:7001819",
          "tgn:1000004",
          "tgn:7000198",
          "tgn:7029392"
        ],
        "placetype": [
          "aat:300259572"
        ],
        "name:en": "Se La",
        "id": 7556598
      }
    },
    {
      "geometry": {
        "type": "Point",
        "coordinates": [
          78.366667,
          11.433333
        ]
      },
      "type": "Feature",
      "properties": {
        "hierarchy": [
          "tgn:7556599",
          "tgn:1000004",
          "tgn:7000198",
          "tgn:7001797",
          "tgn:7029392"
        ],
        "placetype": [
          "aat:300008347"
        ],
        "name:en": "Sekkadi",
        "id": 7556599
      }
    }
  ]
}
