{
  "type": "FeatureCollection",
  "features": [
    {
      "geometry": {
        "type": "Point",
        "coordinates": [
          120.333607,
          22.663282
        ]
      },
      "type": "Feature",
      "properties": {
        "hierarchy": [
          "tgn:7497940",
          "tgn:7001004",
          "tgn:1000004",
          "tgn:1000141",
          "tgn:7029392"
        ],
        "placetype": [
          "aat:300266755"
        ],
        "id": 7497940,
        "name:xx": "Fudingjin Gongmu"
      }
    },
    {
      "geometry": {
        "type": "Point",
        "coordinates": [
          120.331711,
          22.668165
        ]
      },
      "type": "Feature",
      "properties": {
        "hierarchy": [
          "tgn:7497941",
          "tgn:7001004",
          "tgn:1000004",
          "tgn:1000141",
          "tgn:7029392"
        ],
        "placetype": [
          "aat:300008688"
        ],
        "id": 7497941,
        "name:xx": "Fudingjin Zhen"
      }
    },
    {
      "geometry": {
        "type": "Point",
        "coordinates": [
          120.334178,
          22.669063
        ]
      },
      "type": "Feature",
      "properties": {
        "hierarchy": [
          "tgn:7497942",
          "tgn:7001004",
          "tgn:1000004",
          "tgn:1000141",
          "tgn:7029392"
        ],
        "placetype": [
          "aat:300266755"
        ],
        "id": 7497942,
        "name:xx": "Sanmin Qu Diyi Gongmu"
      }
    },
    {
      "geometry": {
        "type": "Point",
        "coordinates": [
          120.350151,
          22.692336
        ]
      },
      "type": "Feature",
      "properties": {
        "hierarchy": [
          "tgn:7497943",
          "tgn:7001004",
          "tgn:1000004",
          "tgn:1000141",
          "tgn:7029392"
        ],
        "placetype": [
          "aat:300007836"
        ],
        "id": 7497943,
        "name:xx": "Zhonglan Qiao"
      }
    },
    {
      "geometry": {
        "type": "Point",
        "coordinates": [
          120.31207,
          22.730568
        ]
      },
      "type": "Feature",
      "properties": {
        "hierarchy": [
          "tgn:7497944",
          "tgn:7001004",
          "tgn:1000004",
          "tgn:1000141",
          "tgn:7029392"
        ],
        "placetype": [
          "aat:300008699"
        ],
        "id": 7497944,
        "name:xx": "Nanzi Xi"
      }
    },
    {
      "geometry": {
        "type": "Point",
        "coordinates": [
          120.351497,
          22.717745
        ]
      },
      "type": "Feature",
      "properties": {
        "hierarchy": [
          "tgn:7497945",
          "tgn:7001004",
          "tgn:1000004",
          "tgn:1000141",
          "tgn:7029392"
        ],
        "placetype": [
          "aat:300007836"
        ],
        "id": 7497945,
        "name:xx": "Renda Qiao"
      }
    },
    {
      "geometry": {
        "type": "Point",
        "coordinates": [
          120.348673,
          22.737838
        ]
      },
      "type": "Feature",
      "properties": {
        "hierarchy": [
          "tgn:7497946",
          "tgn:7001004",
          "tgn:1000004",
          "tgn:1000141",
          "tgn:7029392"
        ],
        "placetype": [
          "aat:300007836"
        ],
        "id": 7497946,
        "name:xx": "Zhongzhen Qiao"
      }
    },
    {
      "geometry": {
        "type": "Point",
        "coordinates": [
          120.337734,
          22.740216
        ]
      },
      "type": "Feature",
      "properties": {
        "hierarchy": [
          "tgn:7497947",
          "tgn:7001004",
          "tgn:1000004",
          "tgn:1000141",
          "tgn:7029392"
        ],
        "placetype": [
          "aat:300007836"
        ],
        "id": 7497947,
        "name:xx": "Tuku Qiao"
      }
    },
    {
      "geometry": {
        "type": "Point",
        "coordinates": [
          120.341484,
          22.744131
        ]
      },
      "type": "Feature",
      "properties": {
        "hierarchy": [
          "tgn:7497948",
          "tgn:7001004",
          "tgn:1000004",
          "tgn:1000141",
          "tgn:7029392"
        ],
        "placetype": [
          "aat:300007836"
        ],
        "id": 7497948,
        "name:xx": "Shezi Qiao"
      }
    },
    {
      "geometry": {
        "type": "Point",
        "coordinates": [
          120.331422,
          22.539151
        ]
      },
      "type": "Feature",
      "properties": {
        "hierarchy": [
          "tgn:7497949",
          "tgn:7001004",
          "tgn:1000004",
          "tgn:1000141",
          "tgn:7029392"
        ],
        "placetype": [
          "aat:300008678"
        ],
        "id": 7497949,
        "name:xx": "Haishan Xiaogang"
      }
    }
  ]
}
