{
  "type": "FeatureCollection",
  "features": [
    {
      "geometry": {
        "type": "Point",
        "coordinates": [
          18.7333,
          59.8333
        ]
      },
      "type": "Feature",
      "properties": {
        "hierarchy": [
          "tgn:1063521",
          "tgn:1000003",
          "tgn:7003777",
          "tgn:1000097",
          "tgn:7029392"
        ],
        "placetype": [
          "aat:300008347"
        ],
        "id": 1063521,
        "name:xx": "Roslags-Bro"
      }
    },
    {
      "geometry": {
        "type": "Point",
        "coordinates": [
          18.0667,
          59.4333
        ]
      },
      "type": "Feature",
      "properties": {
        "hierarchy": [
          "tgn:1063522",
          "tgn:1000003",
          "tgn:7003777",
          "tgn:1000097",
          "tgn:7029392"
        ],
        "placetype": [
          "aat:300008347"
        ],
        "id": 1063522,
        "name:xx": "Roslags-Näsby"
      }
    },
    {
      "geometry": {
        "type": "Point",
        "coordinates": [
          16.3333,
          63.9167
        ]
      },
      "type": "Feature",
      "properties": {
        "hierarchy": [
          "tgn:1063523",
          "tgn:1000003",
          "tgn:7003773",
          "tgn:1000097",
          "tgn:7029392"
        ],
        "placetype": [
          "aat:300008347"
        ],
        "id": 1063523,
        "name:xx": "Rossön"
      }
    },
    {
      "geometry": {
        "type": "Point",
        "coordinates": [
          16.35,
          60.0667
        ]
      },
      "type": "Feature",
      "properties": {
        "hierarchy": [
          "tgn:1063524",
          "tgn:1000003",
          "tgn:7003780",
          "tgn:1000097",
          "tgn:7029392"
        ],
        "placetype": [
          "aat:300008347"
        ],
        "id": 1063524,
        "name:xx": "Rosshyttan"
      }
    },
    {
      "geometry": {
        "type": "Point",
        "coordinates": [
          19.4333,
          63.5333
        ]
      },
      "type": "Feature",
      "properties": {
        "hierarchy": [
          "tgn:1063525",
          "tgn:1000003",
          "tgn:7003779",
          "tgn:1000097",
          "tgn:7029392"
        ],
        "placetype": [
          "aat:300008347"
        ],
        "id": 1063525,
        "name:xx": "Rundvik"
      }
    },
    {
      "geometry": {
        "type": "Point",
        "coordinates": [
          16.8167,
          60.0333
        ]
      },
      "type": "Feature",
      "properties": {
        "hierarchy": [
          "tgn:1063526",
          "tgn:1000003",
          "tgn:7003780",
          "tgn:1000097",
          "tgn:7029392"
        ],
        "placetype": [
          "aat:300008347"
        ],
        "id": 1063526,
        "name:xx": "Runhällen"
      }
    },
    {
      "geometry": {
        "type": "Point",
        "coordinates": [
          14.6833,
          56.4667
        ]
      },
      "type": "Feature",
      "properties": {
        "hierarchy": [
          "tgn:1063527",
          "tgn:1000003",
          "tgn:1000405",
          "tgn:1000097",
          "tgn:7029392"
        ],
        "placetype": [
          "aat:300008347"
        ],
        "id": 1063527,
        "name:xx": "Ryd"
      }
    },
    {
      "geometry": {
        "type": "Point",
        "coordinates": [
          14.2667,
          56.9833
        ]
      },
      "type": "Feature",
      "properties": {
        "hierarchy": [
          "tgn:1063528",
          "tgn:1000003",
          "tgn:1000396",
          "tgn:1000097",
          "tgn:7029392"
        ],
        "placetype": [
          "aat:300008347"
        ],
        "id": 1063528,
        "name:xx": "Rydaholm"
      }
    },
    {
      "geometry": {
        "type": "Point",
        "coordinates": [
          18.1833,
          59.4667
        ]
      },
      "type": "Feature",
      "properties": {
        "hierarchy": [
          "tgn:1063529",
          "tgn:1000003",
          "tgn:7003777",
          "tgn:1000097",
          "tgn:7029392"
        ],
        "placetype": [
          "aat:300008347"
        ],
        "id": 1063529,
        "name:xx": "Rydbo"
      }
    }
  ]
}
