{
  "type": "FeatureCollection",
  "features": [
    {
      "geometry": {
        "type": "Point",
        "coordinates": [
          121.704642,
          24.639368
        ]
      },
      "type": "Feature",
      "properties": {
        "hierarchy": [
          "tgn:7471540",
          "tgn:1000004",
          "tgn:7489179",
          "tgn:1000141",
          "tgn:7029392"
        ],
        "placetype": [
          "aat:300008699"
        ],
        "id": 7471540,
        "name:xx": "Fanshekeng Xi"
      }
    },
    {
      "geometry": {
        "type": "Point",
        "coordinates": [
          120.35,
          22.883333
        ]
      },
      "type": "Feature",
      "properties": {
        "hierarchy": [
          "tgn:7471541",
          "tgn:7001004",
          "tgn:1000004",
          "tgn:1000141",
          "tgn:7029392"
        ],
        "placetype": [
          "aat:300008699"
        ],
        "id": 7471541,
        "name:xx": "Fanshe Xi"
      }
    },
    {
      "geometry": {
        "type": "Point",
        "coordinates": [
          121.474036,
          25.243228
        ]
      },
      "type": "Feature",
      "properties": {
        "hierarchy": [
          "tgn:7471542",
          "tgn:1000004",
          "tgn:1000454",
          "tgn:1000141",
          "tgn:7029392"
        ],
        "placetype": [
          "aat:300008347"
        ],
        "id": 7471542,
        "name:xx": "Fanshehou"
      }
    },
    {
      "geometry": {
        "type": "Point",
        "coordinates": [
          120.438611,
          23.276389
        ]
      },
      "type": "Feature",
      "properties": {
        "hierarchy": [
          "tgn:7471544",
          "tgn:1000004",
          "tgn:7490934",
          "tgn:1000141",
          "tgn:7029392"
        ],
        "placetype": [
          "aat:300008347"
        ],
        "id": 7471544,
        "name:xx": "Fanshezhuang"
      }
    },
    {
      "geometry": {
        "type": "Point",
        "coordinates": [
          121.475939,
          25.236123
        ]
      },
      "type": "Feature",
      "properties": {
        "hierarchy": [
          "tgn:7471545",
          "tgn:1000004",
          "tgn:1000454",
          "tgn:1000141",
          "tgn:7029392"
        ],
        "placetype": [
          "aat:300008347"
        ],
        "id": 7471545,
        "name:xx": "Fansheqian"
      }
    },
    {
      "geometry": {
        "type": "Point",
        "coordinates": [
          121.433333,
          25.183333
        ]
      },
      "type": "Feature",
      "properties": {
        "hierarchy": [
          "tgn:7471546",
          "tgn:1000004",
          "tgn:1000454",
          "tgn:1000141",
          "tgn:7029392"
        ],
        "placetype": [
          "aat:300008347"
        ],
        "id": 7471546,
        "name:xx": "Fanshejiao"
      }
    },
    {
      "geometry": {
        "type": "Point",
        "coordinates": [
          121.533333,
          25.083333
        ]
      },
      "type": "Feature",
      "properties": {
        "hierarchy": [
          "tgn:7471547",
          "tgn:1000004",
          "tgn:1000959",
          "tgn:1000141",
          "tgn:7029392"
        ],
        "placetype": [
          "aat:300008347"
        ],
        "id": 7471547,
        "name:xx": "Fanshe"
      }
    },
    {
      "geometry": {
        "type": "Point",
        "coordinates": [
          120.503889,
          24.033056
        ]
      },
      "type": "Feature",
      "properties": {
        "hierarchy": [
          "tgn:7471548",
          "tgn:1000004",
          "tgn:7467799",
          "tgn:1000141",
          "tgn:7029392"
        ],
        "placetype": [
          "aat:300008347"
        ],
        "id": 7471548,
        "name:xx": "Zhuangya"
      }
    },
    {
      "geometry": {
        "type": "Point",
        "coordinates": [
          121.783056,
          24.749444
        ]
      },
      "type": "Feature",
      "properties": {
        "hierarchy": [
          "tgn:7471549",
          "tgn:1000004",
          "tgn:7489179",
          "tgn:1000141",
          "tgn:7029392"
        ],
        "placetype": [
          "aat:300008347"
        ],
        "id": 7471549,
        "name:xx": "Zhuangwu"
      }
    }
  ]
}
