{
  "type": "FeatureCollection",
  "features": [
    {
      "geometry": {
        "type": "Point",
        "coordinates": [
          120.859765,
          23.80761
        ]
      },
      "type": "Feature",
      "properties": {
        "hierarchy": [
          "tgn:7477360",
          "tgn:7488858",
          "tgn:1000004",
          "tgn:1000141",
          "tgn:7029392"
        ],
        "placetype": [
          "aat:300007836"
        ],
        "id": 7477360,
        "name:xx": "Shezi Qiao"
      }
    },
    {
      "geometry": {
        "type": "Point",
        "coordinates": [
          120.923787,
          23.975285
        ]
      },
      "type": "Feature",
      "properties": {
        "hierarchy": [
          "tgn:7477361",
          "tgn:7488858",
          "tgn:1000004",
          "tgn:1000141",
          "tgn:7029392"
        ],
        "placetype": [
          "aat:300008347"
        ],
        "id": 7477361,
        "name:xx": "Ganzixikou"
      }
    },
    {
      "geometry": {
        "type": "Point",
        "coordinates": [
          120.898546,
          23.790059
        ]
      },
      "type": "Feature",
      "properties": {
        "hierarchy": [
          "tgn:7477362",
          "tgn:7488858",
          "tgn:1000004",
          "tgn:1000141",
          "tgn:7029392"
        ],
        "placetype": [
          "aat:300008347"
        ],
        "id": 7477362,
        "name:xx": "Shangwan"
      }
    },
    {
      "geometry": {
        "type": "Point",
        "coordinates": [
          120.918584,
          23.84197
        ]
      },
      "type": "Feature",
      "properties": {
        "hierarchy": [
          "tgn:7477363",
          "tgn:7488858",
          "tgn:1000004",
          "tgn:1000141",
          "tgn:7029392"
        ],
        "placetype": [
          "aat:300008347"
        ],
        "id": 7477363,
        "name:xx": "Hululun"
      }
    },
    {
      "geometry": {
        "type": "Point",
        "coordinates": [
          120.917257,
          23.846728
        ]
      },
      "type": "Feature",
      "properties": {
        "hierarchy": [
          "tgn:7477364",
          "tgn:7488858",
          "tgn:1000004",
          "tgn:1000141",
          "tgn:7029392"
        ],
        "placetype": [
          "aat:300008347"
        ],
        "id": 7477364,
        "name:xx": "Shiyin"
      }
    },
    {
      "geometry": {
        "type": "Point",
        "coordinates": [
          120.913716,
          23.851694
        ]
      },
      "type": "Feature",
      "properties": {
        "hierarchy": [
          "tgn:7477365",
          "tgn:7488858",
          "tgn:1000004",
          "tgn:1000141",
          "tgn:7029392"
        ],
        "placetype": [
          "aat:300008347"
        ],
        "id": 7477365,
        "name:xx": "Qinglongshan"
      }
    },
    {
      "geometry": {
        "type": "Point",
        "coordinates": [
          120.932162,
          23.847981
        ]
      },
      "type": "Feature",
      "properties": {
        "hierarchy": [
          "tgn:7477366",
          "tgn:7488858",
          "tgn:1000004",
          "tgn:1000141",
          "tgn:7029392"
        ],
        "placetype": [
          "aat:300008347"
        ],
        "id": 7477366,
        "name:xx": "Riyuecun"
      }
    },
    {
      "geometry": {
        "type": "Point",
        "coordinates": [
          121.806769,
          25.017159
        ]
      },
      "type": "Feature",
      "properties": {
        "hierarchy": [
          "tgn:7477367",
          "tgn:1000004",
          "tgn:1000454",
          "tgn:1000141",
          "tgn:7029392"
        ],
        "placetype": [
          "aat:300007836"
        ],
        "id": 7477367,
        "name:xx": "Ganlin Daqiao"
      }
    },
    {
      "geometry": {
        "type": "Point",
        "coordinates": [
          121.80608,
          25.017578
        ]
      },
      "type": "Feature",
      "properties": {
        "hierarchy": [
          "tgn:7477368",
          "tgn:1000004",
          "tgn:1000454",
          "tgn:1000141",
          "tgn:7029392"
        ],
        "placetype": [
          "aat:300007836"
        ],
        "id": 7477368,
        "name:xx": "Xianggan Daqiao"
      }
    },
    {
      "geometry": {
        "type": "Point",
        "coordinates": [
          121.822254,
          25.022224
        ]
      },
      "type": "Feature",
      "properties": {
        "hierarchy": [
          "tgn:7477369",
          "tgn:1000004",
          "tgn:1000454",
          "tgn:1000141",
          "tgn:7029392"
        ],
        "placetype": [
          "aat:300007836"
        ],
        "id": 7477369,
        "name:xx": "Qingshui Qiao"
      }
    }
  ]
}
