{
  "type": "FeatureCollection",
  "features": [
    {
      "geometry": {
        "type": "Point",
        "coordinates": [
          121.480278,
          24.574444
        ]
      },
      "type": "Feature",
      "properties": {
        "hierarchy": [
          "tgn:7473410",
          "tgn:1000004",
          "tgn:7489179",
          "tgn:1000141",
          "tgn:7029392"
        ],
        "placetype": [
          "aat:300008347"
        ],
        "id": 7473410,
        "name:xx": "Dulishan"
      }
    },
    {
      "geometry": {
        "type": "Point",
        "coordinates": [
          120.747943,
          24.181439
        ]
      },
      "type": "Feature",
      "properties": {
        "hierarchy": [
          "tgn:7473411",
          "tgn:1000004",
          "tgn:7001009",
          "tgn:1000141",
          "tgn:7029392"
        ],
        "placetype": [
          "aat:300387200"
        ],
        "id": 7473411,
        "name:xx": "Dongshan Li"
      }
    },
    {
      "geometry": {
        "type": "Point",
        "coordinates": [
          121.79265,
          24.636016
        ]
      },
      "type": "Feature",
      "properties": {
        "hierarchy": [
          "tgn:7473412",
          "tgn:1000004",
          "tgn:7489179",
          "tgn:1000141",
          "tgn:7029392"
        ],
        "placetype": [
          "aat:300007783"
        ],
        "id": 7473412,
        "name:xx": "Dongshan Zhan"
      }
    },
    {
      "geometry": {
        "type": "Point",
        "coordinates": [
          121.75,
          24.65
        ]
      },
      "type": "Feature",
      "properties": {
        "hierarchy": [
          "tgn:7473413",
          "tgn:1000004",
          "tgn:7489179",
          "tgn:1000141",
          "tgn:7029392"
        ],
        "placetype": [
          "aat:300387173"
        ],
        "id": 7473413,
        "name:xx": "Dongshan Xiang"
      }
    },
    {
      "geometry": {
        "type": "Point",
        "coordinates": [
          120.433333,
          23.283333
        ]
      },
      "type": "Feature",
      "properties": {
        "hierarchy": [
          "tgn:7473414",
          "tgn:1000004",
          "tgn:7490934",
          "tgn:1000141",
          "tgn:7029392"
        ],
        "placetype": [
          "aat:300387173"
        ],
        "id": 7473414,
        "name:xx": "Dongshan Xiang"
      }
    },
    {
      "geometry": {
        "type": "Point",
        "coordinates": [
          121.790974,
          24.635019
        ]
      },
      "type": "Feature",
      "properties": {
        "hierarchy": [
          "tgn:7473415",
          "tgn:1000004",
          "tgn:7489179",
          "tgn:1000141",
          "tgn:7029392"
        ],
        "placetype": [
          "aat:300008347"
        ],
        "id": 7473415,
        "name:xx": "Dongshanzhuang"
      }
    },
    {
      "geometry": {
        "type": "Point",
        "coordinates": [
          121.835028,
          24.712542
        ]
      },
      "type": "Feature",
      "properties": {
        "hierarchy": [
          "tgn:7473416",
          "tgn:1000004",
          "tgn:7489179",
          "tgn:1000141",
          "tgn:7029392"
        ],
        "placetype": [
          "aat:300008699"
        ],
        "id": 7473416,
        "name:xx": "Dongshan He"
      }
    },
    {
      "geometry": {
        "type": "Point",
        "coordinates": [
          120.120833,
          23.548611
        ]
      },
      "type": "Feature",
      "properties": {
        "hierarchy": [
          "tgn:7473417",
          "tgn:1000004",
          "tgn:7001014",
          "tgn:1000141",
          "tgn:7029392"
        ],
        "placetype": [
          "aat:300008791"
        ],
        "id": 7473417,
        "name:xx": "Tongshan Zhou"
      }
    },
    {
      "geometry": {
        "type": "Point",
        "coordinates": [
          118.430603,
          24.492262
        ]
      },
      "type": "Feature",
      "properties": {
        "hierarchy": [
          "tgn:7473418",
          "tgn:7469009",
          "tgn:1000004",
          "tgn:1000141",
          "tgn:7029392"
        ],
        "placetype": [
          "aat:300008347"
        ],
        "id": 7473418,
        "name:xx": "Dongshanqian"
      }
    },
    {
      "geometry": {
        "type": "Point",
        "coordinates": [
          120.767987,
          24.188303
        ]
      },
      "type": "Feature",
      "properties": {
        "hierarchy": [
          "tgn:7473419",
          "tgn:1000004",
          "tgn:7001009",
          "tgn:1000141",
          "tgn:7029392"
        ],
        "placetype": [
          "aat:300387173"
        ],
        "id": 7473419,
        "name:xx": "Dongshan Li"
      }
    }
  ]
}
