{
  "type": "FeatureCollection",
  "features": [
    {
      "geometry": {
        "type": "Point",
        "coordinates": [
          120.930363,
          24.552738
        ]
      },
      "type": "Feature",
      "properties": {
        "hierarchy": [
          "tgn:7475990",
          "tgn:7487020",
          "tgn:1000004",
          "tgn:1000141",
          "tgn:7029392"
        ],
        "placetype": [
          "aat:300008347"
        ],
        "id": 7475990,
        "name:xx": "Zhuchonggui"
      }
    },
    {
      "geometry": {
        "type": "Point",
        "coordinates": [
          121.005788,
          24.599559
        ]
      },
      "type": "Feature",
      "properties": {
        "hierarchy": [
          "tgn:7475991",
          "tgn:7487020",
          "tgn:1000004",
          "tgn:1000141",
          "tgn:7029392"
        ],
        "placetype": [
          "aat:300008347"
        ],
        "id": 7475991,
        "name:xx": "Shibotou"
      }
    },
    {
      "geometry": {
        "type": "Point",
        "coordinates": [
          120.940008,
          24.578184
        ]
      },
      "type": "Feature",
      "properties": {
        "hierarchy": [
          "tgn:7475992",
          "tgn:7487020",
          "tgn:1000004",
          "tgn:1000141",
          "tgn:7029392"
        ],
        "placetype": [
          "aat:300007899"
        ],
        "id": 7475992,
        "name:xx": "Baishou Suidao"
      }
    },
    {
      "geometry": {
        "type": "Point",
        "coordinates": [
          120.937514,
          24.590214
        ]
      },
      "type": "Feature",
      "properties": {
        "hierarchy": [
          "tgn:7475993",
          "tgn:7487020",
          "tgn:1000004",
          "tgn:1000141",
          "tgn:7029392"
        ],
        "placetype": [
          "aat:300008798"
        ],
        "id": 7475993,
        "name:xx": "Sanjian Shan"
      }
    },
    {
      "geometry": {
        "type": "Point",
        "coordinates": [
          120.946059,
          24.58182
        ]
      },
      "type": "Feature",
      "properties": {
        "hierarchy": [
          "tgn:7475994",
          "tgn:7487020",
          "tgn:1000004",
          "tgn:1000141",
          "tgn:7029392"
        ],
        "placetype": [
          "aat:300008347"
        ],
        "id": 7475994,
        "name:xx": "Fenshuilang"
      }
    },
    {
      "geometry": {
        "type": "Point",
        "coordinates": [
          120.9487,
          24.587409
        ]
      },
      "type": "Feature",
      "properties": {
        "hierarchy": [
          "tgn:7475995",
          "tgn:7487020",
          "tgn:1000004",
          "tgn:1000141",
          "tgn:7029392"
        ],
        "placetype": [
          "aat:300007899"
        ],
        "id": 7475995,
        "name:xx": "Xinzhuang Suidao"
      }
    },
    {
      "geometry": {
        "type": "Point",
        "coordinates": [
          120.954721,
          24.576038
        ]
      },
      "type": "Feature",
      "properties": {
        "hierarchy": [
          "tgn:7475996",
          "tgn:7487020",
          "tgn:1000004",
          "tgn:1000141",
          "tgn:7029392"
        ],
        "placetype": [
          "aat:300008347"
        ],
        "id": 7475996,
        "name:xx": "Beiliao"
      }
    },
    {
      "geometry": {
        "type": "Point",
        "coordinates": [
          120.890172,
          24.587658
        ]
      },
      "type": "Feature",
      "properties": {
        "hierarchy": [
          "tgn:7475998",
          "tgn:7487020",
          "tgn:1000004",
          "tgn:1000141",
          "tgn:7029392"
        ],
        "placetype": [
          "aat:300008791"
        ],
        "id": 7475998,
        "name:xx": "Rixindao"
      }
    },
    {
      "geometry": {
        "type": "Point",
        "coordinates": [
          121.001467,
          24.596055
        ]
      },
      "type": "Feature",
      "properties": {
        "hierarchy": [
          "tgn:7475999",
          "tgn:7487020",
          "tgn:1000004",
          "tgn:1000141",
          "tgn:7029392"
        ],
        "placetype": [
          "aat:300007836"
        ],
        "id": 7475999,
        "name:xx": "Nanzhuang Qiao"
      }
    }
  ]
}
