{
  "type": "FeatureCollection",
  "features": [
    {
      "geometry": {
        "type": "Point",
        "coordinates": [
          76.643304,
          21.986169
        ]
      },
      "type": "Feature",
      "properties": {
        "hierarchy": [
          "tgn:7555480",
          "tgn:1000004",
          "tgn:7000198",
          "tgn:1001894",
          "tgn:7029392"
        ],
        "placetype": [
          "aat:300008347"
        ],
        "name:en": "Nandgaon",
        "id": 7555480
      }
    },
    {
      "geometry": {
        "type": "Point",
        "coordinates": [
          77.826044,
          21.016418
        ]
      },
      "type": "Feature",
      "properties": {
        "hierarchy": [
          "tgn:7555481",
          "tgn:1000004",
          "tgn:7000198",
          "tgn:1001895",
          "tgn:7029392"
        ],
        "placetype": [
          "aat:300008347"
        ],
        "name:en": "Nāndgaon",
        "id": 7555481
      }
    },
    {
      "geometry": {
        "type": "Point",
        "coordinates": [
          76.15739,
          27.573747
        ]
      },
      "type": "Feature",
      "properties": {
        "hierarchy": [
          "tgn:7555482",
          "tgn:1000004",
          "tgn:7000198",
          "tgn:7016788",
          "tgn:7029392"
        ],
        "placetype": [
          "aat:300008347"
        ],
        "name:en": "Mandha",
        "id": 7555482
      }
    },
    {
      "geometry": {
        "type": "Point",
        "coordinates": [
          73.925655,
          23.774077
        ]
      },
      "type": "Feature",
      "properties": {
        "hierarchy": [
          "tgn:7555483",
          "tgn:1000004",
          "tgn:7000198",
          "tgn:7016788",
          "tgn:7029392"
        ],
        "placetype": [
          "aat:300008347"
        ],
        "name:en": "Mando",
        "id": 7555483
      }
    },
    {
      "geometry": {
        "type": "Point",
        "coordinates": [
          81.45,
          28.016667
        ]
      },
      "type": "Feature",
      "properties": {
        "hierarchy": [
          "tgn:7555484",
          "tgn:1000004",
          "tgn:7000198",
          "tgn:7016722",
          "tgn:7029392"
        ],
        "placetype": [
          "aat:300008699"
        ],
        "name:en": "Mānd Nadī",
        "id": 7555484
      }
    },
    {
      "geometry": {
        "type": "Point",
        "coordinates": [
          84.666667,
          22.25
        ]
      },
      "type": "Feature",
      "properties": {
        "hierarchy": [
          "tgn:7555485",
          "tgn:1000004",
          "tgn:7000198",
          "tgn:7016694",
          "tgn:7029392"
        ],
        "placetype": [
          "aat:300008347"
        ],
        "name:en": "Mandlia",
        "id": 7555485
      }
    },
    {
      "geometry": {
        "type": "Point",
        "coordinates": [
          73.642568,
          23.533936
        ]
      },
      "type": "Feature",
      "properties": {
        "hierarchy": [
          "tgn:7555486",
          "tgn:1000004",
          "tgn:7000198",
          "tgn:7016788",
          "tgn:7029392"
        ],
        "placetype": [
          "aat:300008347"
        ],
        "name:en": "Māndli",
        "id": 7555486
      }
    },
    {
      "geometry": {
        "type": "Point",
        "coordinates": [
          75.659947,
          22.175979
        ]
      },
      "type": "Feature",
      "properties": {
        "hierarchy": [
          "tgn:7555487",
          "tgn:1000004",
          "tgn:7000198",
          "tgn:1001894",
          "tgn:7029392"
        ],
        "placetype": [
          "aat:300008347"
        ],
        "name:en": "Māndleshwar",
        "id": 7555487
      }
    },
    {
      "geometry": {
        "type": "Point",
        "coordinates": [
          80.356155,
          22.58683
        ]
      },
      "type": "Feature",
      "properties": {
        "hierarchy": [
          "tgn:7555488",
          "tgn:1000004",
          "tgn:7000198",
          "tgn:1001894",
          "tgn:7029392"
        ],
        "placetype": [
          "aat:300007783"
        ],
        "name:en": "Mandla Fort",
        "id": 7555488
      }
    }
  ]
}
