{
  "type": "FeatureCollection",
  "features": [
    {
      "geometry": {
        "type": "Point",
        "coordinates": [
          79.136751,
          26.500509
        ]
      },
      "type": "Feature",
      "properties": {
        "hierarchy": [
          "tgn:7562640",
          "tgn:1000004",
          "tgn:7000198",
          "tgn:7016722",
          "tgn:7029392"
        ],
        "placetype": [
          "aat:300008347"
        ],
        "name:en": "Zāharpura",
        "id": 7562640
      }
    },
    {
      "geometry": {
        "type": "Point",
        "coordinates": [
          79.142255,
          26.499703
        ]
      },
      "type": "Feature",
      "properties": {
        "hierarchy": [
          "tgn:7562641",
          "tgn:1000004",
          "tgn:7000198",
          "tgn:7016722",
          "tgn:7029392"
        ],
        "placetype": [
          "aat:300008347"
        ],
        "name:en": "Kurchha",
        "id": 7562641
      }
    },
    {
      "geometry": {
        "type": "Point",
        "coordinates": [
          79.126627,
          26.48897
        ]
      },
      "type": "Feature",
      "properties": {
        "hierarchy": [
          "tgn:7562642",
          "tgn:1000004",
          "tgn:7000198",
          "tgn:7016722",
          "tgn:7029392"
        ],
        "placetype": [
          "aat:300008347"
        ],
        "name:en": "Gurbhelī",
        "id": 7562642
      }
    },
    {
      "geometry": {
        "type": "Point",
        "coordinates": [
          79.124204,
          26.499806
        ]
      },
      "type": "Feature",
      "properties": {
        "hierarchy": [
          "tgn:7562643",
          "tgn:1000004",
          "tgn:7000198",
          "tgn:7016722",
          "tgn:7029392"
        ],
        "placetype": [
          "aat:300008865"
        ],
        "name:en": "Kunwarpur Kurchha Protected Forest",
        "id": 7562643
      }
    },
    {
      "geometry": {
        "type": "Point",
        "coordinates": [
          79.100729,
          26.487063
        ]
      },
      "type": "Feature",
      "properties": {
        "hierarchy": [
          "tgn:7562644",
          "tgn:1000004",
          "tgn:7000198",
          "tgn:7016722",
          "tgn:7029392"
        ],
        "placetype": [
          "aat:300008347"
        ],
        "name:en": "Manai Ka Pura",
        "id": 7562644
      }
    },
    {
      "geometry": {
        "type": "Point",
        "coordinates": [
          79.121605,
          26.475328
        ]
      },
      "type": "Feature",
      "properties": {
        "hierarchy": [
          "tgn:7562645",
          "tgn:1000004",
          "tgn:7000198",
          "tgn:7016722",
          "tgn:7029392"
        ],
        "placetype": [
          "aat:300008865"
        ],
        "name:en": "Sindaus Protected Forest",
        "id": 7562645
      }
    },
    {
      "geometry": {
        "type": "Point",
        "coordinates": [
          79.091204,
          26.491649
        ]
      },
      "type": "Feature",
      "properties": {
        "hierarchy": [
          "tgn:7562646",
          "tgn:1000004",
          "tgn:7000198",
          "tgn:7016722",
          "tgn:7029392"
        ],
        "placetype": [
          "aat:300008865"
        ],
        "name:en": "Bindwa Khurd I Reserved Forest",
        "id": 7562646
      }
    },
    {
      "geometry": {
        "type": "Point",
        "coordinates": [
          79.100599,
          26.516527
        ]
      },
      "type": "Feature",
      "properties": {
        "hierarchy": [
          "tgn:7562647",
          "tgn:1000004",
          "tgn:7000198",
          "tgn:7016722",
          "tgn:7029392"
        ],
        "placetype": [
          "aat:300008865"
        ],
        "name:en": "Hanumantpura Reserved Forest",
        "id": 7562647
      }
    },
    {
      "geometry": {
        "type": "Point",
        "coordinates": [
          78.999447,
          26.25337
        ]
      },
      "type": "Feature",
      "properties": {
        "hierarchy": [
          "tgn:7562648",
          "tgn:1000004",
          "tgn:7000198",
          "tgn:1001894",
          "tgn:7029392"
        ],
        "placetype": [
          "aat:300008347"
        ],
        "name:en": "Kunwarpura",
        "id": 7562648
      }
    },
    {
      "geometry": {
        "type": "Point",
        "coordinates": [
          79.002385,
          26.269297
        ]
      },
      "type": "Feature",
      "properties": {
        "hierarchy": [
          "tgn:7562649",
          "tgn:1000004",
          "tgn:7000198",
          "tgn:1001894",
          "tgn:7029392"
        ],
        "placetype": [
          "aat:300008347"
        ],
        "name:en": "Chāndokh",
        "id": 7562649
      }
    }
  ]
}
