{
  "type": "FeatureCollection",
  "features": [
    {
      "geometry": {
        "type": "Point",
        "coordinates": [
          120.672957,
          22.892998
        ]
      },
      "type": "Feature",
      "properties": {
        "hierarchy": [
          "tgn:7493790",
          "tgn:7001004",
          "tgn:1000004",
          "tgn:1000141",
          "tgn:7029392"
        ],
        "placetype": [
          "aat:300007836"
        ],
        "id": 7493790,
        "name:xx": "Luomusi Qiao"
      }
    },
    {
      "geometry": {
        "type": "Point",
        "coordinates": [
          120.680093,
          22.894106
        ]
      },
      "type": "Feature",
      "properties": {
        "hierarchy": [
          "tgn:7493791",
          "tgn:7001004",
          "tgn:1000004",
          "tgn:1000141",
          "tgn:7029392"
        ],
        "placetype": [
          "aat:300008798"
        ],
        "id": 7493791,
        "name:xx": "Jiuhuanliuqiu Feng"
      }
    },
    {
      "geometry": {
        "type": "Point",
        "coordinates": [
          120.664377,
          22.881553
        ]
      },
      "type": "Feature",
      "properties": {
        "hierarchy": [
          "tgn:7493792",
          "tgn:7001004",
          "tgn:1000004",
          "tgn:1000141",
          "tgn:7029392"
        ],
        "placetype": [
          "aat:300007836"
        ],
        "id": 7493792,
        "name:xx": "Xingnong Diaoqiao"
      }
    },
    {
      "geometry": {
        "type": "Point",
        "coordinates": [
          120.664391,
          22.885437
        ]
      },
      "type": "Feature",
      "properties": {
        "hierarchy": [
          "tgn:7493793",
          "tgn:7001004",
          "tgn:1000004",
          "tgn:1000141",
          "tgn:7029392"
        ],
        "placetype": [
          "aat:300006495"
        ],
        "id": 7493793,
        "name:xx": "Maolin Guoxiao"
      }
    },
    {
      "geometry": {
        "type": "Point",
        "coordinates": [
          120.681636,
          22.907811
        ]
      },
      "type": "Feature",
      "properties": {
        "hierarchy": [
          "tgn:7493794",
          "tgn:7001004",
          "tgn:1000004",
          "tgn:1000141",
          "tgn:7029392"
        ],
        "placetype": [
          "aat:300006495"
        ],
        "id": 7493794,
        "name:xx": "Maolin Guoxiao Wanshan Fenxiao"
      }
    },
    {
      "geometry": {
        "type": "Point",
        "coordinates": [
          120.688993,
          22.911363
        ]
      },
      "type": "Feature",
      "properties": {
        "hierarchy": [
          "tgn:7493795",
          "tgn:7001004",
          "tgn:1000004",
          "tgn:1000141",
          "tgn:7029392"
        ],
        "placetype": [
          "aat:300007836"
        ],
        "id": 7493795,
        "name:xx": "Duona Qiao"
      }
    },
    {
      "geometry": {
        "type": "Point",
        "coordinates": [
          120.690299,
          22.915058
        ]
      },
      "type": "Feature",
      "properties": {
        "hierarchy": [
          "tgn:7493796",
          "tgn:7001004",
          "tgn:1000004",
          "tgn:1000141",
          "tgn:7029392"
        ],
        "placetype": [
          "aat:300007836"
        ],
        "id": 7493796,
        "name:xx": "Duona Di'er Diaoqiao"
      }
    },
    {
      "geometry": {
        "type": "Point",
        "coordinates": [
          120.683163,
          22.902374
        ]
      },
      "type": "Feature",
      "properties": {
        "hierarchy": [
          "tgn:7493797",
          "tgn:7001004",
          "tgn:1000004",
          "tgn:1000141",
          "tgn:7029392"
        ],
        "placetype": [
          "aat:300007836"
        ],
        "id": 7493797,
        "name:xx": "Wanshan Erhao Diaoqiao"
      }
    },
    {
      "geometry": {
        "type": "Point",
        "coordinates": [
          120.687644,
          22.909401
        ]
      },
      "type": "Feature",
      "properties": {
        "hierarchy": [
          "tgn:7493798",
          "tgn:7001004",
          "tgn:1000004",
          "tgn:1000141",
          "tgn:7029392"
        ],
        "placetype": [
          "aat:300008798"
        ],
        "id": 7493798,
        "name:xx": "Longtou Shan"
      }
    },
    {
      "geometry": {
        "type": "Point",
        "coordinates": [
          120.686498,
          22.918165
        ]
      },
      "type": "Feature",
      "properties": {
        "hierarchy": [
          "tgn:7493799",
          "tgn:7001004",
          "tgn:1000004",
          "tgn:1000141",
          "tgn:7029392"
        ],
        "placetype": [
          "aat:300007836"
        ],
        "id": 7493799,
        "name:xx": "Wanshan Diaoqiao"
      }
    }
  ]
}
