{
  "type": "FeatureCollection",
  "features": [
    {
      "geometry": {
        "type": "Point",
        "coordinates": [
          -100.536667,
          20.370833
        ]
      },
      "type": "Feature",
      "properties": {
        "hierarchy": [
          "tgn:7417890",
          "tgn:7005584",
          "tgn:1000001",
          "tgn:7005560",
          "tgn:7029392"
        ],
        "placetype": [
          "aat:300008347"
        ],
        "id": 7417890,
        "name:xx": "La Tinaja"
      }
    },
    {
      "geometry": {
        "type": "Point",
        "coordinates": [
          -100.501389,
          20.343611
        ]
      },
      "type": "Feature",
      "properties": {
        "hierarchy": [
          "tgn:7417891",
          "tgn:7005584",
          "tgn:1000001",
          "tgn:7005560",
          "tgn:7029392"
        ],
        "placetype": [
          "aat:300008347"
        ],
        "id": 7417891,
        "name:xx": "Quemado"
      }
    },
    {
      "geometry": {
        "type": "Point",
        "coordinates": [
          -100.543889,
          20.337778
        ]
      },
      "type": "Feature",
      "properties": {
        "hierarchy": [
          "tgn:7417892",
          "tgn:7005584",
          "tgn:1000001",
          "tgn:7005560",
          "tgn:7029392"
        ],
        "placetype": [
          "aat:300008347"
        ],
        "id": 7417892,
        "name:xx": "La Guilota"
      }
    },
    {
      "geometry": {
        "type": "Point",
        "coordinates": [
          -100.531111,
          20.344722
        ]
      },
      "type": "Feature",
      "properties": {
        "hierarchy": [
          "tgn:7417893",
          "tgn:7005584",
          "tgn:1000001",
          "tgn:7005560",
          "tgn:7029392"
        ],
        "placetype": [
          "aat:300008347"
        ],
        "id": 7417893,
        "name:xx": "El Terrero"
      }
    },
    {
      "geometry": {
        "type": "Point",
        "coordinates": [
          -100.609167,
          20.363056
        ]
      },
      "type": "Feature",
      "properties": {
        "hierarchy": [
          "tgn:7417894",
          "tgn:7005584",
          "tgn:1000001",
          "tgn:7005560",
          "tgn:7029392"
        ],
        "placetype": [
          "aat:300008347"
        ],
        "id": 7417894,
        "name:xx": "Palo Alto"
      }
    },
    {
      "geometry": {
        "type": "Point",
        "coordinates": [
          -100.611111,
          20.355278
        ]
      },
      "type": "Feature",
      "properties": {
        "hierarchy": [
          "tgn:7417895",
          "tgn:7005584",
          "tgn:1000001",
          "tgn:7005560",
          "tgn:7029392"
        ],
        "placetype": [
          "aat:300008347"
        ],
        "id": 7417895,
        "name:xx": "El Cajón"
      }
    },
    {
      "geometry": {
        "type": "Point",
        "coordinates": [
          -100.616944,
          20.340556
        ]
      },
      "type": "Feature",
      "properties": {
        "hierarchy": [
          "tgn:7417896",
          "tgn:7005584",
          "tgn:1000001",
          "tgn:7005560",
          "tgn:7029392"
        ],
        "placetype": [
          "aat:300008347"
        ],
        "id": 7417896,
        "name:xx": "La Mora del Capulín"
      }
    },
    {
      "geometry": {
        "type": "Point",
        "coordinates": [
          -100.625,
          20.370833
        ]
      },
      "type": "Feature",
      "properties": {
        "hierarchy": [
          "tgn:7417897",
          "tgn:7005584",
          "tgn:1000001",
          "tgn:7005560",
          "tgn:7029392"
        ],
        "placetype": [
          "aat:300266554",
          "aat:300008699"
        ],
        "id": 7417897,
        "name:xx": "Pájaro Azul, Arroyo"
      }
    },
    {
      "geometry": {
        "type": "Point",
        "coordinates": [
          -100.650278,
          20.351389
        ]
      },
      "type": "Feature",
      "properties": {
        "hierarchy": [
          "tgn:7417898",
          "tgn:7005584",
          "tgn:1000001",
          "tgn:7005560",
          "tgn:7029392"
        ],
        "placetype": [
          "aat:300008795"
        ],
        "id": 7417898,
        "name:xx": "Pelón, Cerro"
      }
    },
    {
      "geometry": {
        "type": "Point",
        "coordinates": [
          -100.734167,
          20.373611
        ]
      },
      "type": "Feature",
      "properties": {
        "hierarchy": [
          "tgn:7417899",
          "tgn:7005584",
          "tgn:1000001",
          "tgn:7005560",
          "tgn:7029392"
        ],
        "placetype": [
          "aat:300008347"
        ],
        "id": 7417899,
        "name:xx": "Llano Grande"
      }
    }
  ]
}
