{
  "type": "FeatureCollection",
  "features": [
    {
      "geometry": {
        "type": "Point",
        "coordinates": [
          31.236607,
          30.389374
        ]
      },
      "type": "Feature",
      "properties": {
        "hierarchy": [
          "tgn:7531030",
          "tgn:7001242",
          "tgn:7016833",
          "tgn:1001092",
          "tgn:7029392"
        ],
        "placetype": [
          "aat:300008347"
        ],
        "id": 7531030,
        "name:xx": "'Izbat 'Ākif"
      }
    },
    {
      "geometry": {
        "type": "Point",
        "coordinates": [
          31.240321,
          30.394604
        ]
      },
      "type": "Feature",
      "properties": {
        "hierarchy": [
          "tgn:7531031",
          "tgn:7001242",
          "tgn:7016833",
          "tgn:1001092",
          "tgn:7029392"
        ],
        "placetype": [
          "aat:300008347"
        ],
        "id": 7531031,
        "name:xx": "'Izbat Jubrān Ḩaddād"
      }
    },
    {
      "geometry": {
        "type": "Point",
        "coordinates": [
          31.211895,
          30.056463
        ]
      },
      "type": "Feature",
      "properties": {
        "hierarchy": [
          "tgn:7531032",
          "tgn:7001242",
          "tgn:7016833",
          "tgn:1001083",
          "tgn:7029392"
        ],
        "placetype": [
          "aat:300386970"
        ],
        "id": 7531032,
        "name:xx": "Fayşal al Islāmī, Bank"
      }
    },
    {
      "geometry": {
        "type": "Point",
        "coordinates": [
          31.214473,
          30.059726
        ]
      },
      "type": "Feature",
      "properties": {
        "hierarchy": [
          "tgn:7531033",
          "tgn:7001242",
          "tgn:7016833",
          "tgn:1001083",
          "tgn:7029392"
        ],
        "placetype": [
          "aat:300004792"
        ],
        "id": 7531033,
        "name:xx": "As Sīrk al Qawmī"
      }
    },
    {
      "geometry": {
        "type": "Point",
        "coordinates": [
          31.213914,
          30.061244
        ]
      },
      "type": "Feature",
      "properties": {
        "hierarchy": [
          "tgn:7531034",
          "tgn:7001242",
          "tgn:7016833",
          "tgn:1001083",
          "tgn:7029392"
        ],
        "placetype": [
          "aat:300004792"
        ],
        "id": 7531034,
        "name:xx": "Masraḩ al Bālūn"
      }
    },
    {
      "geometry": {
        "type": "Point",
        "coordinates": [
          31.208761,
          30.059857
        ]
      },
      "type": "Feature",
      "properties": {
        "hierarchy": [
          "tgn:7531035",
          "tgn:7001242",
          "tgn:7016833",
          "tgn:1001083",
          "tgn:7029392"
        ],
        "placetype": [
          "aat:300247594"
        ],
        "name:en": "Sphinx Mall",
        "id": 7531035
      }
    },
    {
      "geometry": {
        "type": "Point",
        "coordinates": [
          31.19749,
          30.070226
        ]
      },
      "type": "Feature",
      "properties": {
        "hierarchy": [
          "tgn:7531036",
          "tgn:7001242",
          "tgn:7016833",
          "tgn:1001083",
          "tgn:7029392"
        ],
        "placetype": [
          "aat:300000745"
        ],
        "id": 7531036,
        "name:xx": "Masākin Muntaşir lil 'Arāyis"
      }
    },
    {
      "geometry": {
        "type": "Point",
        "coordinates": [
          31.196175,
          30.069691
        ]
      },
      "type": "Feature",
      "properties": {
        "hierarchy": [
          "tgn:7531037",
          "tgn:7001242",
          "tgn:7016833",
          "tgn:1001083",
          "tgn:7029392"
        ],
        "placetype": [
          "aat:300007836"
        ],
        "id": 7531037,
        "name:xx": "Kūbrī 'Urābī"
      }
    },
    {
      "geometry": {
        "type": "Point",
        "coordinates": [
          31.197345,
          30.069361
        ]
      },
      "type": "Feature",
      "properties": {
        "hierarchy": [
          "tgn:7531038",
          "tgn:7001242",
          "tgn:7016833",
          "tgn:1001083",
          "tgn:7029392"
        ],
        "placetype": [
          "aat:300006676"
        ],
        "id": 7531038,
        "name:xx": "Mustashfá al Madīnah"
      }
    },
    {
      "geometry": {
        "type": "Point",
        "coordinates": [
          31.2026,
          30.072019
        ]
      },
      "type": "Feature",
      "properties": {
        "hierarchy": [
          "tgn:7531039",
          "tgn:7001242",
          "tgn:7016833",
          "tgn:1001083",
          "tgn:7029392"
        ],
        "placetype": [
          "aat:300000745"
        ],
        "id": 7531039,
        "name:xx": "Madīnat at Ţālibāt bi Imbābah"
      }
    }
  ]
}
