{
  "type": "FeatureCollection",
  "features": [
    {
      "geometry": {
        "type": "Point",
        "coordinates": [
          31.287752,
          30.047688
        ]
      },
      "type": "Feature",
      "properties": {
        "hierarchy": [
          "tgn:7526340",
          "tgn:7001242",
          "tgn:7016833",
          "tgn:1001091",
          "tgn:7029392"
        ],
        "placetype": [
          "aat:300007544"
        ],
        "id": 7526340,
        "name:xx": "Masjid al Hawwārī al Aḩmadī"
      }
    },
    {
      "geometry": {
        "type": "Point",
        "coordinates": [
          31.288634,
          30.049299
        ]
      },
      "type": "Feature",
      "properties": {
        "hierarchy": [
          "tgn:7526341",
          "tgn:7001242",
          "tgn:7016833",
          "tgn:1001091",
          "tgn:7029392"
        ],
        "placetype": [
          "aat:300004792"
        ],
        "id": 7526341,
        "name:xx": "Ri'āsat Ḩayy Munsha'at Nāşir"
      }
    },
    {
      "geometry": {
        "type": "Point",
        "coordinates": [
          31.297069,
          30.054487
        ]
      },
      "type": "Feature",
      "properties": {
        "hierarchy": [
          "tgn:7526342",
          "tgn:7001242",
          "tgn:7016833",
          "tgn:1001091",
          "tgn:7029392"
        ],
        "placetype": [
          "aat:300006676"
        ],
        "id": 7526342,
        "name:xx": "Mustashfá al Muqāwilūn al 'Arab"
      }
    },
    {
      "geometry": {
        "type": "Point",
        "coordinates": [
          31.29152,
          30.052795
        ]
      },
      "type": "Feature",
      "properties": {
        "hierarchy": [
          "tgn:7526343",
          "tgn:7001242",
          "tgn:7016833",
          "tgn:1001091",
          "tgn:7029392"
        ],
        "placetype": [
          "aat:300000745"
        ],
        "id": 7526343,
        "name:xx": "Qiţā' al Imdād al Muqāwilīn al 'Arab"
      }
    },
    {
      "geometry": {
        "type": "Point",
        "coordinates": [
          31.290542,
          30.045779
        ]
      },
      "type": "Feature",
      "properties": {
        "hierarchy": [
          "tgn:7526344",
          "tgn:7001242",
          "tgn:7016833",
          "tgn:1001091",
          "tgn:7029392"
        ],
        "placetype": [
          "aat:300004792"
        ],
        "id": 7526344,
        "name:xx": "Majma' Manshīyat Nāşr lil Şarf al Şiḩḩī"
      }
    },
    {
      "geometry": {
        "type": "Point",
        "coordinates": [
          31.29223,
          30.050201
        ]
      },
      "type": "Feature",
      "properties": {
        "hierarchy": [
          "tgn:7526345",
          "tgn:7001242",
          "tgn:7016833",
          "tgn:1001091",
          "tgn:7029392"
        ],
        "placetype": [
          "aat:300006653"
        ],
        "id": 7526345,
        "name:xx": "Markaz al Manshīyah al Islāmī lil 'Ilāj"
      }
    },
    {
      "geometry": {
        "type": "Point",
        "coordinates": [
          31.291581,
          30.051151
        ]
      },
      "type": "Feature",
      "properties": {
        "hierarchy": [
          "tgn:7526346",
          "tgn:7001242",
          "tgn:7016833",
          "tgn:1001091",
          "tgn:7029392"
        ],
        "placetype": [
          "aat:300007544"
        ],
        "id": 7526346,
        "name:xx": "Masjid as Salām"
      }
    },
    {
      "geometry": {
        "type": "Point",
        "coordinates": [
          31.294199,
          30.049367
        ]
      },
      "type": "Feature",
      "properties": {
        "hierarchy": [
          "tgn:7526347",
          "tgn:7001242",
          "tgn:7016833",
          "tgn:1001091",
          "tgn:7029392"
        ],
        "placetype": [
          "aat:300007544"
        ],
        "id": 7526347,
        "name:xx": "Masjid an Naşr"
      }
    },
    {
      "geometry": {
        "type": "Point",
        "coordinates": [
          31.293798,
          30.047319
        ]
      },
      "type": "Feature",
      "properties": {
        "hierarchy": [
          "tgn:7526348",
          "tgn:7001242",
          "tgn:7016833",
          "tgn:1001091",
          "tgn:7029392"
        ],
        "placetype": [
          "aat:300000745"
        ],
        "id": 7526348,
        "name:xx": "'Izbat al 'Arab"
      }
    },
    {
      "geometry": {
        "type": "Point",
        "coordinates": [
          31.29487,
          30.044556
        ]
      },
      "type": "Feature",
      "properties": {
        "hierarchy": [
          "tgn:7526349",
          "tgn:7001242",
          "tgn:7016833",
          "tgn:1001091",
          "tgn:7029392"
        ],
        "placetype": [
          "aat:300000745"
        ],
        "id": 7526349,
        "name:xx": "Masākin 'Izbat Mubārak"
      }
    }
  ]
}
