{
  "type": "FeatureCollection",
  "features": [
    {
      "geometry": {
        "type": "Point",
        "coordinates": [
          121.579811,
          24.0089
        ]
      },
      "type": "Feature",
      "properties": {
        "hierarchy": [
          "tgn:7471950",
          "tgn:7001010",
          "tgn:1000004",
          "tgn:1000141",
          "tgn:7029392"
        ],
        "placetype": [
          "aat:300006495"
        ],
        "id": 7471950,
        "name:xx": "Guofu Guoxiao"
      }
    },
    {
      "geometry": {
        "type": "Point",
        "coordinates": [
          121.556687,
          24.004086
        ]
      },
      "type": "Feature",
      "properties": {
        "hierarchy": [
          "tgn:7471951",
          "tgn:7001010",
          "tgn:1000004",
          "tgn:1000141",
          "tgn:7029392"
        ],
        "placetype": [
          "aat:300006495"
        ],
        "id": 7471951,
        "name:xx": "Shuiyuan Guoxiao"
      }
    },
    {
      "geometry": {
        "type": "Point",
        "coordinates": [
          121.556751,
          24.006267
        ]
      },
      "type": "Feature",
      "properties": {
        "hierarchy": [
          "tgn:7471952",
          "tgn:7001010",
          "tgn:1000004",
          "tgn:1000141",
          "tgn:7029392"
        ],
        "placetype": [
          "aat:300007595"
        ],
        "id": 7471952,
        "name:xx": "Mingshan Daotang"
      }
    },
    {
      "geometry": {
        "type": "Point",
        "coordinates": [
          121.60891,
          24.015179
        ]
      },
      "type": "Feature",
      "properties": {
        "hierarchy": [
          "tgn:7471953",
          "tgn:7001010",
          "tgn:1000004",
          "tgn:1000141",
          "tgn:7029392"
        ],
        "placetype": [
          "aat:300006495"
        ],
        "id": 7471953,
        "name:xx": "Jiali Guoxiao"
      }
    },
    {
      "geometry": {
        "type": "Point",
        "coordinates": [
          121.606255,
          24.0174
        ]
      },
      "type": "Feature",
      "properties": {
        "hierarchy": [
          "tgn:7471954",
          "tgn:7001010",
          "tgn:1000004",
          "tgn:1000141",
          "tgn:7029392"
        ],
        "placetype": [
          "aat:300007595"
        ],
        "id": 7471954,
        "name:xx": "Bao'an Gong"
      }
    },
    {
      "geometry": {
        "type": "Point",
        "coordinates": [
          121.603572,
          24.030386
        ]
      },
      "type": "Feature",
      "properties": {
        "hierarchy": [
          "tgn:7471955",
          "tgn:7001010",
          "tgn:1000004",
          "tgn:1000141",
          "tgn:7029392"
        ],
        "placetype": [
          "aat:300006495"
        ],
        "id": 7471955,
        "name:xx": "Xincheng Guozhong"
      }
    },
    {
      "geometry": {
        "type": "Point",
        "coordinates": [
          121.6037,
          24.0323
        ]
      },
      "type": "Feature",
      "properties": {
        "hierarchy": [
          "tgn:7471956",
          "tgn:7001010",
          "tgn:1000004",
          "tgn:1000141",
          "tgn:7029392"
        ],
        "placetype": [
          "aat:300007595"
        ],
        "id": 7471956,
        "name:xx": "Fusheng Gong"
      }
    },
    {
      "geometry": {
        "type": "Point",
        "coordinates": [
          121.6053,
          24.0318
        ]
      },
      "type": "Feature",
      "properties": {
        "hierarchy": [
          "tgn:7471957",
          "tgn:7001010",
          "tgn:1000004",
          "tgn:1000141",
          "tgn:7029392"
        ],
        "placetype": [
          "aat:300006495"
        ],
        "id": 7471957,
        "name:xx": "Beibu Guoxiao"
      }
    },
    {
      "geometry": {
        "type": "Point",
        "coordinates": [
          121.6004,
          24.0365
        ]
      },
      "type": "Feature",
      "properties": {
        "hierarchy": [
          "tgn:7471958",
          "tgn:7001010",
          "tgn:1000004",
          "tgn:1000141",
          "tgn:7029392"
        ],
        "placetype": [
          "aat:300007595"
        ],
        "id": 7471958,
        "name:xx": "Wu'an Gong"
      }
    },
    {
      "geometry": {
        "type": "Point",
        "coordinates": [
          121.544607,
          24.046684
        ]
      },
      "type": "Feature",
      "properties": {
        "hierarchy": [
          "tgn:7471959",
          "tgn:7001010",
          "tgn:1000004",
          "tgn:1000141",
          "tgn:7029392"
        ],
        "placetype": [
          "aat:300008798"
        ],
        "id": 7471959,
        "name:xx": "Donglan Shan"
      }
    }
  ]
}
