{
  "type": "FeatureCollection",
  "features": [
    {
      "geometry": {
        "type": "Point",
        "coordinates": [
          120.509885,
          23.530956
        ]
      },
      "type": "Feature",
      "properties": {
        "hierarchy": [
          "tgn:7491130",
          "tgn:7468018",
          "tgn:1000004",
          "tgn:1000141",
          "tgn:7029392"
        ],
        "placetype": [
          "aat:300387173"
        ],
        "id": 7491130,
        "name:xx": "Shiye Cun"
      }
    },
    {
      "geometry": {
        "type": "Point",
        "coordinates": [
          120.924722,
          23.161389
        ]
      },
      "type": "Feature",
      "properties": {
        "hierarchy": [
          "tgn:7491131",
          "tgn:1000004",
          "tgn:7491221",
          "tgn:1000141",
          "tgn:7029392"
        ],
        "placetype": [
          "aat:300008798"
        ],
        "id": 7491131,
        "name:xx": "Shichang Shan"
      }
    },
    {
      "geometry": {
        "type": "Point",
        "coordinates": [
          120.990466,
          24.678094
        ]
      },
      "type": "Feature",
      "properties": {
        "hierarchy": [
          "tgn:7491132",
          "tgn:1000004",
          "tgn:7471332",
          "tgn:1000141",
          "tgn:7029392"
        ],
        "placetype": [
          "aat:300008347"
        ],
        "id": 7491132,
        "name:xx": "Shiwuliao"
      }
    },
    {
      "geometry": {
        "type": "Point",
        "coordinates": [
          120.423889,
          24.003889
        ]
      },
      "type": "Feature",
      "properties": {
        "hierarchy": [
          "tgn:7491134",
          "tgn:1000004",
          "tgn:7467799",
          "tgn:1000141",
          "tgn:7029392"
        ],
        "placetype": [
          "aat:300008347"
        ],
        "id": 7491134,
        "name:xx": "Shiwufan"
      }
    },
    {
      "geometry": {
        "type": "Point",
        "coordinates": [
          121.054444,
          24.953611
        ]
      },
      "type": "Feature",
      "properties": {
        "hierarchy": [
          "tgn:7491135",
          "tgn:1000004",
          "tgn:7001013",
          "tgn:1000141",
          "tgn:7029392"
        ],
        "placetype": [
          "aat:300008347"
        ],
        "id": 7491135,
        "name:xx": "Shiwujian"
      }
    },
    {
      "geometry": {
        "type": "Point",
        "coordinates": [
          120.602105,
          23.829781
        ]
      },
      "type": "Feature",
      "properties": {
        "hierarchy": [
          "tgn:7491136",
          "tgn:1000004",
          "tgn:7467799",
          "tgn:1000141",
          "tgn:7029392"
        ],
        "placetype": [
          "aat:300008347"
        ],
        "id": 7491136,
        "name:xx": "Shiwuzhuang"
      }
    },
    {
      "geometry": {
        "type": "Point",
        "coordinates": [
          120.602515,
          23.827433
        ]
      },
      "type": "Feature",
      "properties": {
        "hierarchy": [
          "tgn:7491137",
          "tgn:1000004",
          "tgn:7467799",
          "tgn:1000141",
          "tgn:7029392"
        ],
        "placetype": [
          "aat:300387173"
        ],
        "id": 7491137,
        "name:xx": "Shiwu Cun"
      }
    },
    {
      "geometry": {
        "type": "Point",
        "coordinates": [
          120.663056,
          22.368611
        ]
      },
      "type": "Feature",
      "properties": {
        "hierarchy": [
          "tgn:7491138",
          "tgn:1000004",
          "tgn:7492971",
          "tgn:1000141",
          "tgn:7029392"
        ],
        "placetype": [
          "aat:300008347"
        ],
        "id": 7491138,
        "name:xx": "Shiwen"
      }
    },
    {
      "geometry": {
        "type": "Point",
        "coordinates": [
          121.000428,
          24.196523
        ]
      },
      "type": "Feature",
      "properties": {
        "hierarchy": [
          "tgn:7491139",
          "tgn:1000004",
          "tgn:7001009",
          "tgn:1000141",
          "tgn:7029392"
        ],
        "placetype": [
          "aat:300008699"
        ],
        "id": 7491139,
        "name:xx": "Shiwen Xi"
      }
    }
  ]
}
