{
  "type": "FeatureCollection",
  "features": [
    {
      "geometry": {
        "type": "Point",
        "coordinates": [
          120.973853,
          24.391379
        ]
      },
      "type": "Feature",
      "properties": {
        "hierarchy": [
          "tgn:7495470",
          "tgn:7487020",
          "tgn:1000004",
          "tgn:1000141",
          "tgn:7029392"
        ],
        "placetype": [
          "aat:300007836"
        ],
        "id": 7495470,
        "name:xx": "Meiyuan Qiao"
      }
    },
    {
      "geometry": {
        "type": "Point",
        "coordinates": [
          120.902284,
          24.410102
        ]
      },
      "type": "Feature",
      "properties": {
        "hierarchy": [
          "tgn:7495471",
          "tgn:7487020",
          "tgn:1000004",
          "tgn:1000141",
          "tgn:7029392"
        ],
        "placetype": [
          "aat:300006495"
        ],
        "id": 7495471,
        "name:xx": "Danan Guoxiao"
      }
    },
    {
      "geometry": {
        "type": "Point",
        "coordinates": [
          120.883482,
          24.391724
        ]
      },
      "type": "Feature",
      "properties": {
        "hierarchy": [
          "tgn:7495472",
          "tgn:7487020",
          "tgn:1000004",
          "tgn:1000141",
          "tgn:7029392"
        ],
        "placetype": [
          "aat:300008798"
        ],
        "id": 7495472,
        "name:xx": "Huozidong Shan"
      }
    },
    {
      "geometry": {
        "type": "Point",
        "coordinates": [
          120.87563,
          24.39065
        ]
      },
      "type": "Feature",
      "properties": {
        "hierarchy": [
          "tgn:7495473",
          "tgn:7487020",
          "tgn:1000004",
          "tgn:1000141",
          "tgn:7029392"
        ],
        "placetype": [
          "aat:300007595"
        ],
        "id": 7495473,
        "name:xx": "Shiyun Gong"
      }
    },
    {
      "geometry": {
        "type": "Point",
        "coordinates": [
          120.8687,
          24.4024
        ]
      },
      "type": "Feature",
      "properties": {
        "hierarchy": [
          "tgn:7495474",
          "tgn:7487020",
          "tgn:1000004",
          "tgn:1000141",
          "tgn:7029392"
        ],
        "placetype": [
          "aat:300007595"
        ],
        "id": 7495474,
        "name:xx": "Hu'an Ci"
      }
    },
    {
      "geometry": {
        "type": "Point",
        "coordinates": [
          120.861111,
          24.398611
        ]
      },
      "type": "Feature",
      "properties": {
        "hierarchy": [
          "tgn:7495475",
          "tgn:7487020",
          "tgn:1000004",
          "tgn:1000141",
          "tgn:7029392"
        ],
        "placetype": [
          "aat:300006495"
        ],
        "id": 7495475,
        "name:xx": "Nanhu Guozhong"
      }
    },
    {
      "geometry": {
        "type": "Point",
        "coordinates": [
          120.858056,
          24.399722
        ]
      },
      "type": "Feature",
      "properties": {
        "hierarchy": [
          "tgn:7495476",
          "tgn:7487020",
          "tgn:1000004",
          "tgn:1000141",
          "tgn:7029392"
        ],
        "placetype": [
          "aat:300006495"
        ],
        "id": 7495476,
        "name:xx": "Nanhu Guoxiao"
      }
    },
    {
      "geometry": {
        "type": "Point",
        "coordinates": [
          120.866973,
          24.401065
        ]
      },
      "type": "Feature",
      "properties": {
        "hierarchy": [
          "tgn:7495477",
          "tgn:7487020",
          "tgn:1000004",
          "tgn:1000141",
          "tgn:7029392"
        ],
        "placetype": [
          "aat:300007836"
        ],
        "id": 7495477,
        "name:xx": "Nanhu Yi Qiao"
      }
    },
    {
      "geometry": {
        "type": "Point",
        "coordinates": [
          120.7958,
          24.3871
        ]
      },
      "type": "Feature",
      "properties": {
        "hierarchy": [
          "tgn:7495478",
          "tgn:7487020",
          "tgn:1000004",
          "tgn:1000141",
          "tgn:7029392"
        ],
        "placetype": [
          "aat:300007836"
        ],
        "id": 7495478,
        "name:xx": "Cuicheng Qiao"
      }
    },
    {
      "geometry": {
        "type": "Point",
        "coordinates": [
          120.773299,
          24.380456
        ]
      },
      "type": "Feature",
      "properties": {
        "hierarchy": [
          "tgn:7495479",
          "tgn:7487020",
          "tgn:1000004",
          "tgn:1000141",
          "tgn:7029392"
        ],
        "placetype": [
          "aat:300008795"
        ],
        "id": 7495479,
        "name:xx": "Guaizihu"
      }
    }
  ]
}
