{
  "type": "FeatureCollection",
  "features": [
    {
      "geometry": {
        "type": "Point",
        "coordinates": [
          79.351804,
          26.396333
        ]
      },
      "type": "Feature",
      "properties": {
        "hierarchy": [
          "tgn:7564600",
          "tgn:1000004",
          "tgn:7000198",
          "tgn:7016722",
          "tgn:7029392"
        ],
        "placetype": [
          "aat:300008347"
        ],
        "name:en": "Kota Diwāra",
        "id": 7564600
      }
    },
    {
      "geometry": {
        "type": "Point",
        "coordinates": [
          79.343795,
          26.398162
        ]
      },
      "type": "Feature",
      "properties": {
        "hierarchy": [
          "tgn:7564601",
          "tgn:1000004",
          "tgn:7000198",
          "tgn:7016722",
          "tgn:7029392"
        ],
        "placetype": [
          "aat:300008347"
        ],
        "name:en": "Silaua",
        "id": 7564601
      }
    },
    {
      "geometry": {
        "type": "Point",
        "coordinates": [
          79.368449,
          26.40309
        ]
      },
      "type": "Feature",
      "properties": {
        "hierarchy": [
          "tgn:7564602",
          "tgn:1000004",
          "tgn:7000198",
          "tgn:7016722",
          "tgn:7029392"
        ],
        "placetype": [
          "aat:300008347"
        ],
        "name:en": "Tulakpur",
        "id": 7564602
      }
    },
    {
      "geometry": {
        "type": "Point",
        "coordinates": [
          79.359913,
          26.41599
        ]
      },
      "type": "Feature",
      "properties": {
        "hierarchy": [
          "tgn:7564603",
          "tgn:1000004",
          "tgn:7000198",
          "tgn:7016722",
          "tgn:7029392"
        ],
        "placetype": [
          "aat:300008347"
        ],
        "name:en": "Sadhrāpur",
        "id": 7564603
      }
    },
    {
      "geometry": {
        "type": "Point",
        "coordinates": [
          79.347201,
          26.410282
        ]
      },
      "type": "Feature",
      "properties": {
        "hierarchy": [
          "tgn:7564604",
          "tgn:1000004",
          "tgn:7000198",
          "tgn:7016722",
          "tgn:7029392"
        ],
        "placetype": [
          "aat:300008347"
        ],
        "name:en": "Mishrapur Pratāpsingh",
        "id": 7564604
      }
    },
    {
      "geometry": {
        "type": "Point",
        "coordinates": [
          79.333833,
          26.40841
        ]
      },
      "type": "Feature",
      "properties": {
        "hierarchy": [
          "tgn:7564605",
          "tgn:1000004",
          "tgn:7000198",
          "tgn:7016722",
          "tgn:7029392"
        ],
        "placetype": [
          "aat:300008347"
        ],
        "name:en": "Bijhalpur",
        "id": 7564605
      }
    },
    {
      "geometry": {
        "type": "Point",
        "coordinates": [
          79.341926,
          26.390817
        ]
      },
      "type": "Feature",
      "properties": {
        "hierarchy": [
          "tgn:7564606",
          "tgn:1000004",
          "tgn:7000198",
          "tgn:7016722",
          "tgn:7029392"
        ],
        "placetype": [
          "aat:300008865"
        ],
        "name:en": "Silaua Reserved Forest",
        "id": 7564606
      }
    },
    {
      "geometry": {
        "type": "Point",
        "coordinates": [
          79.36685,
          26.366408
        ]
      },
      "type": "Feature",
      "properties": {
        "hierarchy": [
          "tgn:7564607",
          "tgn:1000004",
          "tgn:7000198",
          "tgn:7016722",
          "tgn:7029392"
        ],
        "placetype": [
          "aat:300008347"
        ],
        "name:en": "Wāwali",
        "id": 7564607
      }
    },
    {
      "geometry": {
        "type": "Point",
        "coordinates": [
          79.367076,
          26.354408
        ]
      },
      "type": "Feature",
      "properties": {
        "hierarchy": [
          "tgn:7564608",
          "tgn:1000004",
          "tgn:7000198",
          "tgn:7016722",
          "tgn:7029392"
        ],
        "placetype": [
          "aat:300008347"
        ],
        "name:en": "Bhojāpur",
        "id": 7564608
      }
    },
    {
      "geometry": {
        "type": "Point",
        "coordinates": [
          79.358129,
          26.35797
        ]
      },
      "type": "Feature",
      "properties": {
        "hierarchy": [
          "tgn:7564609",
          "tgn:1000004",
          "tgn:7000198",
          "tgn:7016722",
          "tgn:7029392"
        ],
        "placetype": [
          "aat:300008347"
        ],
        "name:en": "Nakelpura",
        "id": 7564609
      }
    }
  ]
}
