{
  "type": "FeatureCollection",
  "features": [
    {
      "geometry": {
        "type": "Point",
        "coordinates": [
          74.778139,
          32.928419
        ]
      },
      "type": "Feature",
      "properties": {
        "hierarchy": [
          "tgn:7591810",
          "tgn:1000004",
          "tgn:7000198",
          "tgn:7000799",
          "tgn:7029392"
        ],
        "placetype": [
          "aat:300008347"
        ],
        "name:en": "Dagāh",
        "id": 7591810
      }
    },
    {
      "geometry": {
        "type": "Point",
        "coordinates": [
          74.772217,
          32.932492
        ]
      },
      "type": "Feature",
      "properties": {
        "hierarchy": [
          "tgn:7591811",
          "tgn:1000004",
          "tgn:7000198",
          "tgn:7000799",
          "tgn:7029392"
        ],
        "placetype": [
          "aat:300008347"
        ],
        "name:en": "Channi",
        "id": 7591811
      }
    },
    {
      "geometry": {
        "type": "Point",
        "coordinates": [
          74.76667,
          32.938545
        ]
      },
      "type": "Feature",
      "properties": {
        "hierarchy": [
          "tgn:7591812",
          "tgn:1000004",
          "tgn:7000198",
          "tgn:7000799",
          "tgn:7029392"
        ],
        "placetype": [
          "aat:300008347"
        ],
        "name:en": "Targūāl",
        "id": 7591812
      }
    },
    {
      "geometry": {
        "type": "Point",
        "coordinates": [
          74.758371,
          32.927236
        ]
      },
      "type": "Feature",
      "properties": {
        "hierarchy": [
          "tgn:7591813",
          "tgn:1000004",
          "tgn:7000198",
          "tgn:7000799",
          "tgn:7029392"
        ],
        "placetype": [
          "aat:300008347"
        ],
        "name:en": "Patīāri",
        "id": 7591813
      }
    },
    {
      "geometry": {
        "type": "Point",
        "coordinates": [
          74.753068,
          32.928328
        ]
      },
      "type": "Feature",
      "properties": {
        "hierarchy": [
          "tgn:7591814",
          "tgn:1000004",
          "tgn:7000198",
          "tgn:7000799",
          "tgn:7029392"
        ],
        "placetype": [
          "aat:300008347"
        ],
        "name:en": "Sanel",
        "id": 7591814
      }
    },
    {
      "geometry": {
        "type": "Point",
        "coordinates": [
          74.754292,
          32.934948
        ]
      },
      "type": "Feature",
      "properties": {
        "hierarchy": [
          "tgn:7591815",
          "tgn:1000004",
          "tgn:7000198",
          "tgn:7000799",
          "tgn:7029392"
        ],
        "placetype": [
          "aat:300008347"
        ],
        "name:en": "Jakhāri",
        "id": 7591815
      }
    },
    {
      "geometry": {
        "type": "Point",
        "coordinates": [
          74.751389,
          32.944444
        ]
      },
      "type": "Feature",
      "properties": {
        "hierarchy": [
          "tgn:7591816",
          "tgn:1000004",
          "tgn:7000198",
          "tgn:7000799",
          "tgn:7029392"
        ],
        "placetype": [
          "aat:300008347"
        ],
        "name:en": "Janti",
        "id": 7591816
      }
    },
    {
      "geometry": {
        "type": "Point",
        "coordinates": [
          74.762707,
          32.949534
        ]
      },
      "type": "Feature",
      "properties": {
        "hierarchy": [
          "tgn:7591817",
          "tgn:1000004",
          "tgn:7000198",
          "tgn:7000799",
          "tgn:7029392"
        ],
        "placetype": [
          "aat:300008347"
        ],
        "name:en": "Meshīāni",
        "id": 7591817
      }
    },
    {
      "geometry": {
        "type": "Point",
        "coordinates": [
          74.775628,
          32.94381
        ]
      },
      "type": "Feature",
      "properties": {
        "hierarchy": [
          "tgn:7591818",
          "tgn:1000004",
          "tgn:7000198",
          "tgn:7000799",
          "tgn:7029392"
        ],
        "placetype": [
          "aat:300008347"
        ],
        "name:en": "Balgāra",
        "id": 7591818
      }
    },
    {
      "geometry": {
        "type": "Point",
        "coordinates": [
          74.784949,
          32.932133
        ]
      },
      "type": "Feature",
      "properties": {
        "hierarchy": [
          "tgn:7591819",
          "tgn:1000004",
          "tgn:7000198",
          "tgn:7000799",
          "tgn:7029392"
        ],
        "placetype": [
          "aat:300266554",
          "aat:300008699"
        ],
        "name:en": "Rāutewāli Khad",
        "id": 7591819
      }
    }
  ]
}
