{
  "type": "FeatureCollection",
  "features": [
    {
      "geometry": {
        "type": "Point",
        "coordinates": [
          78.593729,
          29.873288
        ]
      },
      "type": "Feature",
      "properties": {
        "hierarchy": [
          "tgn:7570410",
          "tgn:1000004",
          "tgn:7000198",
          "tgn:7031786",
          "tgn:7029392"
        ],
        "placetype": [
          "aat:300008347"
        ],
        "name:en": "Bistāna",
        "id": 7570410
      }
    },
    {
      "geometry": {
        "type": "Point",
        "coordinates": [
          78.580892,
          29.875391
        ]
      },
      "type": "Feature",
      "properties": {
        "hierarchy": [
          "tgn:7570411",
          "tgn:1000004",
          "tgn:7000198",
          "tgn:7031786",
          "tgn:7029392"
        ],
        "placetype": [
          "aat:300008347"
        ],
        "name:en": "Hathnūr",
        "id": 7570411
      }
    },
    {
      "geometry": {
        "type": "Point",
        "coordinates": [
          78.575804,
          29.877399
        ]
      },
      "type": "Feature",
      "properties": {
        "hierarchy": [
          "tgn:7570412",
          "tgn:1000004",
          "tgn:7000198",
          "tgn:7031786",
          "tgn:7029392"
        ],
        "placetype": [
          "aat:300008347"
        ],
        "name:en": "Kānda",
        "id": 7570412
      }
    },
    {
      "geometry": {
        "type": "Point",
        "coordinates": [
          78.54805,
          29.870871
        ]
      },
      "type": "Feature",
      "properties": {
        "hierarchy": [
          "tgn:7570413",
          "tgn:1000004",
          "tgn:7000198",
          "tgn:7031786",
          "tgn:7029392"
        ],
        "placetype": [
          "aat:300008347"
        ],
        "name:en": "Bhairgaon",
        "id": 7570413
      }
    },
    {
      "geometry": {
        "type": "Point",
        "coordinates": [
          78.544926,
          29.876892
        ]
      },
      "type": "Feature",
      "properties": {
        "hierarchy": [
          "tgn:7570414",
          "tgn:1000004",
          "tgn:7000198",
          "tgn:7031786",
          "tgn:7029392"
        ],
        "placetype": [
          "aat:300008347"
        ],
        "name:en": "Bāgi",
        "id": 7570414
      }
    },
    {
      "geometry": {
        "type": "Point",
        "coordinates": [
          78.539091,
          29.877991
        ]
      },
      "type": "Feature",
      "properties": {
        "hierarchy": [
          "tgn:7570415",
          "tgn:1000004",
          "tgn:7000198",
          "tgn:7031786",
          "tgn:7029392"
        ],
        "placetype": [
          "aat:300008347"
        ],
        "name:en": "Mūni Sakri",
        "id": 7570415
      }
    },
    {
      "geometry": {
        "type": "Point",
        "coordinates": [
          78.531678,
          29.877337
        ]
      },
      "type": "Feature",
      "properties": {
        "hierarchy": [
          "tgn:7570416",
          "tgn:1000004",
          "tgn:7000198",
          "tgn:7031786",
          "tgn:7029392"
        ],
        "placetype": [
          "aat:300008347"
        ],
        "name:en": "Kathūr",
        "id": 7570416
      }
    },
    {
      "geometry": {
        "type": "Point",
        "coordinates": [
          78.523836,
          29.879683
        ]
      },
      "type": "Feature",
      "properties": {
        "hierarchy": [
          "tgn:7570417",
          "tgn:1000004",
          "tgn:7000198",
          "tgn:7031786",
          "tgn:7029392"
        ],
        "placetype": [
          "aat:300008347"
        ],
        "name:en": "Purwāna",
        "id": 7570417
      }
    },
    {
      "geometry": {
        "type": "Point",
        "coordinates": [
          78.509581,
          29.878718
        ]
      },
      "type": "Feature",
      "properties": {
        "hierarchy": [
          "tgn:7570418",
          "tgn:1000004",
          "tgn:7000198",
          "tgn:7031786",
          "tgn:7029392"
        ],
        "placetype": [
          "aat:300008347"
        ],
        "name:en": "Paukhāl",
        "id": 7570418
      }
    },
    {
      "geometry": {
        "type": "Point",
        "coordinates": [
          78.743274,
          29.885312
        ]
      },
      "type": "Feature",
      "properties": {
        "hierarchy": [
          "tgn:7570419",
          "tgn:1000004",
          "tgn:7000198",
          "tgn:7031786",
          "tgn:7029392"
        ],
        "placetype": [
          "aat:300008347"
        ],
        "name:en": "Malethi",
        "id": 7570419
      }
    }
  ]
}
