{
  "type": "FeatureCollection",
  "features": [
    {
      "geometry": {
        "type": "Point",
        "coordinates": [
          120.479831,
          22.576213
        ]
      },
      "type": "Feature",
      "properties": {
        "hierarchy": [
          "tgn:7469710",
          "tgn:1000004",
          "tgn:7492971",
          "tgn:1000141",
          "tgn:7029392"
        ],
        "placetype": [
          "aat:300008347"
        ],
        "id": 7469710,
        "name:xx": "Xiapou"
      }
    },
    {
      "geometry": {
        "type": "Point",
        "coordinates": [
          120.914282,
          23.790822
        ]
      },
      "type": "Feature",
      "properties": {
        "hierarchy": [
          "tgn:7469711",
          "tgn:7488858",
          "tgn:1000004",
          "tgn:1000141",
          "tgn:7029392"
        ],
        "placetype": [
          "aat:300008347"
        ],
        "id": 7469711,
        "name:xx": "Xiaboshi"
      }
    },
    {
      "geometry": {
        "type": "Point",
        "coordinates": [
          120.148056,
          23.1225
        ]
      },
      "type": "Feature",
      "properties": {
        "hierarchy": [
          "tgn:7469712",
          "tgn:1000004",
          "tgn:7490934",
          "tgn:1000141",
          "tgn:7029392"
        ],
        "placetype": [
          "aat:300008347"
        ],
        "id": 7469712,
        "name:xx": "Xiacuoping"
      }
    },
    {
      "geometry": {
        "type": "Point",
        "coordinates": [
          120.743889,
          24.355
        ]
      },
      "type": "Feature",
      "properties": {
        "hierarchy": [
          "tgn:7469713",
          "tgn:7487020",
          "tgn:1000004",
          "tgn:1000141",
          "tgn:7029392"
        ],
        "placetype": [
          "aat:300008347"
        ],
        "id": 7469713,
        "name:xx": "Xiabogongkeng"
      }
    },
    {
      "geometry": {
        "type": "Point",
        "coordinates": [
          121.165,
          24.845278
        ]
      },
      "type": "Feature",
      "properties": {
        "hierarchy": [
          "tgn:7469714",
          "tgn:1000004",
          "tgn:7471332",
          "tgn:1000141",
          "tgn:7029392"
        ],
        "placetype": [
          "aat:300008347"
        ],
        "id": 7469714,
        "name:xx": "Xiabogong"
      }
    },
    {
      "geometry": {
        "type": "Point",
        "coordinates": [
          121.685872,
          25.0891
        ]
      },
      "type": "Feature",
      "properties": {
        "hierarchy": [
          "tgn:7469715",
          "tgn:1000957",
          "tgn:1000004",
          "tgn:1000141",
          "tgn:7029392"
        ],
        "placetype": [
          "aat:300008347"
        ],
        "id": 7469715,
        "name:xx": "Xiapo"
      }
    },
    {
      "geometry": {
        "type": "Point",
        "coordinates": [
          120.40936,
          23.492796
        ]
      },
      "type": "Feature",
      "properties": {
        "hierarchy": [
          "tgn:7469716",
          "tgn:7001001",
          "tgn:1000004",
          "tgn:1000141",
          "tgn:7029392"
        ],
        "placetype": [
          "aat:300008347"
        ],
        "id": 7469716,
        "name:xx": "Xiapi"
      }
    },
    {
      "geometry": {
        "type": "Point",
        "coordinates": [
          121.533333,
          25.066667
        ]
      },
      "type": "Feature",
      "properties": {
        "hierarchy": [
          "tgn:7469717",
          "tgn:1000004",
          "tgn:1000959",
          "tgn:1000141",
          "tgn:7029392"
        ],
        "placetype": [
          "aat:300008347"
        ],
        "id": 7469717,
        "name:xx": "Xiapitou"
      }
    },
    {
      "geometry": {
        "type": "Point",
        "coordinates": [
          120.478247,
          23.767949
        ]
      },
      "type": "Feature",
      "properties": {
        "hierarchy": [
          "tgn:7469718",
          "tgn:1000004",
          "tgn:7001014",
          "tgn:1000141",
          "tgn:7029392"
        ],
        "placetype": [
          "aat:300008347"
        ],
        "id": 7469718,
        "name:xx": "Dongxing"
      }
    },
    {
      "geometry": {
        "type": "Point",
        "coordinates": [
          120.849025,
          24.513252
        ]
      },
      "type": "Feature",
      "properties": {
        "hierarchy": [
          "tgn:7469719",
          "tgn:7487020",
          "tgn:1000004",
          "tgn:1000141",
          "tgn:7029392"
        ],
        "placetype": [
          "aat:300008347"
        ],
        "id": 7469719,
        "name:xx": "Xiapingding"
      }
    }
  ]
}
