{
  "type": "FeatureCollection",
  "features": [
    {
      "geometry": {
        "type": "Point",
        "coordinates": [
          120.90638,
          24.48972
        ]
      },
      "type": "Feature",
      "properties": {
        "hierarchy": [
          "tgn:7487020",
          "tgn:1000004",
          "tgn:1000141",
          "tgn:7029392"
        ],
        "placetype": [
          "aat:300387064",
          "aat:300000771"
        ],
        "id": 7487020,
        "name:xx": "Miaoli Xian"
      }
    },
    {
      "geometry": {
        "type": "Point",
        "coordinates": [
          120.822181,
          24.56922
        ]
      },
      "type": "Feature",
      "properties": {
        "hierarchy": [
          "tgn:7487022",
          "tgn:7487020",
          "tgn:1000004",
          "tgn:1000141",
          "tgn:7029392"
        ],
        "placetype": [
          "aat:300007783"
        ],
        "id": 7487022,
        "name:xx": "Miaoli Chezhan"
      }
    },
    {
      "geometry": {
        "type": "Point",
        "coordinates": [
          121.298388,
          25.054474
        ]
      },
      "type": "Feature",
      "properties": {
        "hierarchy": [
          "tgn:7487024",
          "tgn:1000004",
          "tgn:7001013",
          "tgn:1000141",
          "tgn:7029392"
        ],
        "placetype": [
          "aat:300008347"
        ],
        "id": 7487024,
        "name:xx": "Miaokou"
      }
    },
    {
      "geometry": {
        "type": "Point",
        "coordinates": [
          120.471667,
          23.428611
        ]
      },
      "type": "Feature",
      "properties": {
        "hierarchy": [
          "tgn:7487025",
          "tgn:7468018",
          "tgn:1000004",
          "tgn:1000141",
          "tgn:7029392"
        ],
        "placetype": [
          "aat:300008347"
        ],
        "id": 7487025,
        "name:xx": "Miaohou"
      }
    },
    {
      "geometry": {
        "type": "Point",
        "coordinates": [
          120.972299,
          23.926015
        ]
      },
      "type": "Feature",
      "properties": {
        "hierarchy": [
          "tgn:7487026",
          "tgn:7488858",
          "tgn:1000004",
          "tgn:1000141",
          "tgn:7029392"
        ],
        "placetype": [
          "aat:300008347"
        ],
        "id": 7487026,
        "name:xx": "Miaoqian"
      }
    },
    {
      "geometry": {
        "type": "Point",
        "coordinates": [
          119.518333,
          23.367222
        ]
      },
      "type": "Feature",
      "properties": {
        "hierarchy": [
          "tgn:7487027",
          "tgn:1000004",
          "tgn:7004300",
          "tgn:1000141",
          "tgn:7029392"
        ],
        "placetype": [
          "aat:300266559"
        ],
        "name:en": "Men-tzu, Srait of",
        "id": 7487027
      }
    },
    {
      "geometry": {
        "type": "Point",
        "coordinates": [
          121.088333,
          24.574444
        ]
      },
      "type": "Feature",
      "properties": {
        "hierarchy": [
          "tgn:7487028",
          "tgn:1000004",
          "tgn:7471332",
          "tgn:1000141",
          "tgn:7029392"
        ],
        "placetype": [
          "aat:300008798"
        ],
        "id": 7487028,
        "name:xx": "Mentuoyou Shan"
      }
    },
    {
      "geometry": {
        "type": "Point",
        "coordinates": [
          121.31,
          24.258889
        ]
      },
      "type": "Feature",
      "properties": {
        "hierarchy": [
          "tgn:7487029",
          "tgn:1000004",
          "tgn:7001009",
          "tgn:1000141",
          "tgn:7029392"
        ],
        "placetype": [
          "aat:300008795"
        ],
        "id": 7487029,
        "name:xx": "Men Shan"
      }
    }
  ]
}
