{
  "type": "FeatureCollection",
  "features": [
    {
      "geometry": {
        "type": "Point",
        "coordinates": [
          75.54602,
          25.529295
        ]
      },
      "type": "Feature",
      "properties": {
        "hierarchy": [
          "tgn:7569650",
          "tgn:1000004",
          "tgn:7000198",
          "tgn:7016788",
          "tgn:7029392"
        ],
        "placetype": [
          "aat:300008347"
        ],
        "name:en": "Bīchri",
        "id": 7569650
      }
    },
    {
      "geometry": {
        "type": "Point",
        "coordinates": [
          75.56423,
          25.5342
        ]
      },
      "type": "Feature",
      "properties": {
        "hierarchy": [
          "tgn:7569651",
          "tgn:1000004",
          "tgn:7000198",
          "tgn:7016788",
          "tgn:7029392"
        ],
        "placetype": [
          "aat:300008347"
        ],
        "name:en": "Bādarpura",
        "id": 7569651
      }
    },
    {
      "geometry": {
        "type": "Point",
        "coordinates": [
          75.565844,
          25.542945
        ]
      },
      "type": "Feature",
      "properties": {
        "hierarchy": [
          "tgn:7569652",
          "tgn:1000004",
          "tgn:7000198",
          "tgn:7016788",
          "tgn:7029392"
        ],
        "placetype": [
          "aat:300008347"
        ],
        "name:en": "Chetan",
        "id": 7569652
      }
    },
    {
      "geometry": {
        "type": "Point",
        "coordinates": [
          75.531941,
          25.553294
        ]
      },
      "type": "Feature",
      "properties": {
        "hierarchy": [
          "tgn:7569653",
          "tgn:1000004",
          "tgn:7000198",
          "tgn:7016788",
          "tgn:7029392"
        ],
        "placetype": [
          "aat:300006075"
        ],
        "name:en": "Chetan Minor",
        "id": 7569653
      }
    },
    {
      "geometry": {
        "type": "Point",
        "coordinates": [
          75.513248,
          25.538466
        ]
      },
      "type": "Feature",
      "properties": {
        "hierarchy": [
          "tgn:7569654",
          "tgn:1000004",
          "tgn:7000198",
          "tgn:7016788",
          "tgn:7029392"
        ],
        "placetype": [
          "aat:300008347"
        ],
        "name:en": "Dhanpura",
        "id": 7569654
      }
    },
    {
      "geometry": {
        "type": "Point",
        "coordinates": [
          75.528541,
          25.539415
        ]
      },
      "type": "Feature",
      "properties": {
        "hierarchy": [
          "tgn:7569655",
          "tgn:1000004",
          "tgn:7000198",
          "tgn:7016788",
          "tgn:7029392"
        ],
        "placetype": [
          "aat:300008347"
        ],
        "name:en": "Chatarganj",
        "id": 7569655
      }
    },
    {
      "geometry": {
        "type": "Point",
        "coordinates": [
          75.549634,
          25.535986
        ]
      },
      "type": "Feature",
      "properties": {
        "hierarchy": [
          "tgn:7569656",
          "tgn:1000004",
          "tgn:7000198",
          "tgn:7016788",
          "tgn:7029392"
        ],
        "placetype": [
          "aat:300266554",
          "aat:300008699"
        ],
        "name:en": "Balāndi Nadi",
        "id": 7569656
      }
    },
    {
      "geometry": {
        "type": "Point",
        "coordinates": [
          75.547842,
          25.548904
        ]
      },
      "type": "Feature",
      "properties": {
        "hierarchy": [
          "tgn:7569657",
          "tgn:1000004",
          "tgn:7000198",
          "tgn:7016788",
          "tgn:7029392"
        ],
        "placetype": [
          "aat:300008347"
        ],
        "name:en": "Chetan ka Jhonpara",
        "id": 7569657
      }
    },
    {
      "geometry": {
        "type": "Point",
        "coordinates": [
          75.503587,
          25.563517
        ]
      },
      "type": "Feature",
      "properties": {
        "hierarchy": [
          "tgn:7569658",
          "tgn:1000004",
          "tgn:7000198",
          "tgn:7016788",
          "tgn:7029392"
        ],
        "placetype": [
          "aat:300008347"
        ],
        "name:en": "Bābāji ka Barda",
        "id": 7569658
      }
    },
    {
      "geometry": {
        "type": "Point",
        "coordinates": [
          75.525013,
          25.556255
        ]
      },
      "type": "Feature",
      "properties": {
        "hierarchy": [
          "tgn:7569659",
          "tgn:1000004",
          "tgn:7000198",
          "tgn:7016788",
          "tgn:7029392"
        ],
        "placetype": [
          "aat:300008347"
        ],
        "name:en": "Aklor",
        "id": 7569659
      }
    }
  ]
}
