{
  "type": "FeatureCollection",
  "features": [
    {
      "geometry": {
        "type": "Point",
        "coordinates": [
          65.9167,
          37.0167
        ]
      },
      "type": "Feature",
      "properties": {
        "hierarchy": [
          "tgn:1065370",
          "tgn:7016612",
          "tgn:1000004",
          "tgn:1001327",
          "tgn:7029392"
        ],
        "placetype": [
          "aat:300008347"
        ],
        "id": 1065370,
        "name:xx": "Alamlik"
      }
    },
    {
      "geometry": {
        "type": "Point",
        "coordinates": [
          65.6833,
          31.6167
        ]
      },
      "type": "Feature",
      "properties": {
        "hierarchy": [
          "tgn:1065371",
          "tgn:7016612",
          "tgn:1000004",
          "tgn:1001493",
          "tgn:7029392"
        ],
        "placetype": [
          "aat:300008347"
        ],
        "id": 1065371,
        "name:xx": "Dand"
      }
    },
    {
      "geometry": {
        "type": "Point",
        "coordinates": [
          62.2667,
          33.6333
        ]
      },
      "type": "Feature",
      "properties": {
        "hierarchy": [
          "tgn:1065372",
          "tgn:7016612",
          "tgn:1000004",
          "tgn:1001293",
          "tgn:7029392"
        ],
        "placetype": [
          "aat:300008347"
        ],
        "id": 1065372,
        "name:xx": "Adraskan"
      }
    },
    {
      "geometry": {
        "type": "Point",
        "coordinates": [
          61.6333,
          32.75
        ]
      },
      "type": "Feature",
      "properties": {
        "hierarchy": [
          "tgn:1065373",
          "tgn:7016612",
          "tgn:1000004",
          "tgn:1001249",
          "tgn:7029392"
        ],
        "placetype": [
          "aat:300008347"
        ],
        "id": 1065373,
        "name:xx": "Anār Darreh"
      }
    },
    {
      "geometry": {
        "type": "Point",
        "coordinates": [
          65.0833,
          36.9333
        ]
      },
      "type": "Feature",
      "properties": {
        "hierarchy": [
          "tgn:1065374",
          "tgn:7016612",
          "tgn:1000004",
          "tgn:1001248",
          "tgn:7029392"
        ],
        "placetype": [
          "aat:300008347"
        ],
        "id": 1065374,
        "name:xx": "Andkhvoy"
      }
    },
    {
      "geometry": {
        "type": "Point",
        "coordinates": [
          71.45,
          37.0333
        ]
      },
      "type": "Feature",
      "properties": {
        "hierarchy": [
          "tgn:1065375",
          "tgn:7011626",
          "tgn:1000004",
          "tgn:7014835",
          "tgn:7029392"
        ],
        "placetype": [
          "aat:300008347"
        ],
        "id": 1065375,
        "name:xx": "Andowj"
      }
    },
    {
      "geometry": {
        "type": "Point",
        "coordinates": [
          71.1333,
          34.8667
        ]
      },
      "type": "Feature",
      "properties": {
        "hierarchy": [
          "tgn:1065376",
          "tgn:7016612",
          "tgn:1000004",
          "tgn:1001362",
          "tgn:7029392"
        ],
        "placetype": [
          "aat:300008347",
          "aat:300387223",
          "aat:300008375"
        ],
        "id": 1065376,
        "name:xx": "Asadābād"
      }
    },
    {
      "geometry": {
        "type": "Point",
        "coordinates": [
          65.6667,
          31.6667
        ]
      },
      "type": "Feature",
      "properties": {
        "hierarchy": [
          "tgn:1065377",
          "tgn:7016612",
          "tgn:1000004",
          "tgn:1001493",
          "tgn:7029392"
        ],
        "placetype": [
          "aat:300008347"
        ],
        "id": 1065377,
        "name:xx": "Baba Vali Saheb"
      }
    },
    {
      "geometry": {
        "type": "Point",
        "coordinates": [
          70.2167,
          34.3833
        ]
      },
      "type": "Feature",
      "properties": {
        "hierarchy": [
          "tgn:1065378",
          "tgn:7016612",
          "tgn:1000004",
          "tgn:1001445",
          "tgn:7029392"
        ],
        "placetype": [
          "aat:300008347"
        ],
        "id": 1065378,
        "name:xx": "Bala Bagh"
      }
    },
    {
      "geometry": {
        "type": "Point",
        "coordinates": [
          63.3333,
          35.5833
        ]
      },
      "type": "Feature",
      "properties": {
        "hierarchy": [
          "tgn:1065379",
          "tgn:7016612",
          "tgn:1001121",
          "tgn:1000004",
          "tgn:7029392"
        ],
        "placetype": [
          "aat:300008347"
        ],
        "id": 1065379,
        "name:xx": "Morghab"
      }
    }
  ]
}
