{
  "type": "FeatureCollection",
  "features": [
    {
      "geometry": {
        "type": "Point",
        "coordinates": [
          13.428889,
          46.182778
        ]
      },
      "type": "Feature",
      "properties": {
        "hierarchy": [
          "tgn:7035140",
          "tgn:1003506",
          "tgn:1000003",
          "tgn:7002993",
          "tgn:1000080",
          "tgn:7029392"
        ],
        "placetype": [
          "aat:300008347"
        ],
        "id": 7035140,
        "name:xx": "Calla"
      }
    },
    {
      "geometry": {
        "type": "Point",
        "coordinates": [
          13.453333,
          46.180278
        ]
      },
      "type": "Feature",
      "properties": {
        "hierarchy": [
          "tgn:7035141",
          "tgn:1003506",
          "tgn:1000003",
          "tgn:7002993",
          "tgn:1000080",
          "tgn:7029392"
        ],
        "placetype": [
          "aat:300008347"
        ],
        "id": 7035141,
        "name:xx": "Marsarolis"
      }
    },
    {
      "geometry": {
        "type": "Point",
        "coordinates": [
          13.479444,
          46.161944
        ]
      },
      "type": "Feature",
      "properties": {
        "hierarchy": [
          "tgn:7035142",
          "tgn:1003506",
          "tgn:1000003",
          "tgn:7002993",
          "tgn:1000080",
          "tgn:7029392"
        ],
        "placetype": [
          "aat:300008347"
        ],
        "id": 7035142,
        "name:xx": "Tarcetta"
      }
    },
    {
      "geometry": {
        "type": "Point",
        "coordinates": [
          13.483889,
          46.165833
        ]
      },
      "type": "Feature",
      "properties": {
        "hierarchy": [
          "tgn:7035143",
          "tgn:1003506",
          "tgn:1000003",
          "tgn:7002993",
          "tgn:1000080",
          "tgn:7029392"
        ],
        "placetype": [
          "aat:300008347"
        ],
        "id": 7035143,
        "name:xx": "Brischis"
      }
    },
    {
      "geometry": {
        "type": "Point",
        "coordinates": [
          13.534444,
          46.158056
        ]
      },
      "type": "Feature",
      "properties": {
        "hierarchy": [
          "tgn:7035144",
          "tgn:1003506",
          "tgn:1000003",
          "tgn:7002993",
          "tgn:1000080",
          "tgn:7029392"
        ],
        "placetype": [
          "aat:300008347"
        ],
        "id": 7035144,
        "name:xx": "Savogna"
      }
    },
    {
      "geometry": {
        "type": "Point",
        "coordinates": [
          13.576389,
          46.158611
        ]
      },
      "type": "Feature",
      "properties": {
        "hierarchy": [
          "tgn:7035145",
          "tgn:1003506",
          "tgn:1000003",
          "tgn:7002993",
          "tgn:1000080",
          "tgn:7029392"
        ],
        "placetype": [
          "aat:300008347"
        ],
        "id": 7035145,
        "name:xx": "Grimacco"
      }
    },
    {
      "geometry": {
        "type": "Point",
        "coordinates": [
          13.520556,
          46.166111
        ]
      },
      "type": "Feature",
      "properties": {
        "hierarchy": [
          "tgn:7035146",
          "tgn:1003506",
          "tgn:1000003",
          "tgn:7002993",
          "tgn:1000080",
          "tgn:7029392"
        ],
        "placetype": [
          "aat:300008347"
        ],
        "id": 7035146,
        "name:xx": "Costa"
      }
    },
    {
      "geometry": {
        "type": "Point",
        "coordinates": [
          13.513889,
          46.175
        ]
      },
      "type": "Feature",
      "properties": {
        "hierarchy": [
          "tgn:7035147",
          "tgn:1003506",
          "tgn:1000003",
          "tgn:7002993",
          "tgn:1000080",
          "tgn:7029392"
        ],
        "placetype": [
          "aat:300008347"
        ],
        "id": 7035147,
        "name:xx": "Tercimonte"
      }
    },
    {
      "geometry": {
        "type": "Point",
        "coordinates": [
          13.53,
          46.182778
        ]
      },
      "type": "Feature",
      "properties": {
        "hierarchy": [
          "tgn:7035148",
          "tgn:1003506",
          "tgn:1000003",
          "tgn:7002993",
          "tgn:1000080",
          "tgn:7029392"
        ],
        "placetype": [
          "aat:300008347"
        ],
        "id": 7035148,
        "name:xx": "Pechinie"
      }
    },
    {
      "geometry": {
        "type": "Point",
        "coordinates": [
          13.498333,
          46.1825
        ]
      },
      "type": "Feature",
      "properties": {
        "hierarchy": [
          "tgn:7035149",
          "tgn:1003506",
          "tgn:1000003",
          "tgn:7002993",
          "tgn:1000080",
          "tgn:7029392"
        ],
        "placetype": [
          "aat:300008347"
        ],
        "id": 7035149,
        "name:xx": "Ossiach"
      }
    }
  ]
}
