{
  "type": "FeatureCollection",
  "features": [
    {
      "geometry": {
        "type": "Point",
        "coordinates": [
          75.500668,
          24.739825
        ]
      },
      "type": "Feature",
      "properties": {
        "hierarchy": [
          "tgn:7583460",
          "tgn:1000004",
          "tgn:7000198",
          "tgn:1001894",
          "tgn:7029392"
        ],
        "placetype": [
          "aat:300008699"
        ],
        "name:en": "Kuldi Nadī",
        "id": 7583460
      }
    },
    {
      "geometry": {
        "type": "Point",
        "coordinates": [
          75.547517,
          24.695975
        ]
      },
      "type": "Feature",
      "properties": {
        "hierarchy": [
          "tgn:7583461",
          "tgn:1000004",
          "tgn:7000198",
          "tgn:1001894",
          "tgn:7029392"
        ],
        "placetype": [
          "aat:300008347"
        ],
        "name:en": "Gota",
        "id": 7583461
      }
    },
    {
      "geometry": {
        "type": "Point",
        "coordinates": [
          75.564084,
          24.693538
        ]
      },
      "type": "Feature",
      "properties": {
        "hierarchy": [
          "tgn:7583462",
          "tgn:1000004",
          "tgn:7000198",
          "tgn:1001894",
          "tgn:7029392"
        ],
        "placetype": [
          "aat:300008347"
        ],
        "name:en": "Gao",
        "id": 7583462
      }
    },
    {
      "geometry": {
        "type": "Point",
        "coordinates": [
          75.548293,
          24.694352
        ]
      },
      "type": "Feature",
      "properties": {
        "hierarchy": [
          "tgn:7583463",
          "tgn:1000004",
          "tgn:7000198",
          "tgn:1001894",
          "tgn:7029392"
        ],
        "placetype": [
          "aat:300008347"
        ],
        "name:en": "Rāmpura Pathār",
        "id": 7583463
      }
    },
    {
      "geometry": {
        "type": "Point",
        "coordinates": [
          75.566795,
          24.69048
        ]
      },
      "type": "Feature",
      "properties": {
        "hierarchy": [
          "tgn:7583464",
          "tgn:1000004",
          "tgn:7000198",
          "tgn:1001894",
          "tgn:7029392"
        ],
        "placetype": [
          "aat:300008347"
        ],
        "name:en": "Gandhīsāgar Colony",
        "id": 7583464
      }
    },
    {
      "geometry": {
        "type": "Point",
        "coordinates": [
          75.733185,
          24.69817
        ]
      },
      "type": "Feature",
      "properties": {
        "hierarchy": [
          "tgn:7583465",
          "tgn:1000004",
          "tgn:7000198",
          "tgn:1001894",
          "tgn:7029392"
        ],
        "placetype": [
          "aat:300387086"
        ],
        "name:en": "Phut Talāv",
        "id": 7583465
      }
    },
    {
      "geometry": {
        "type": "Point",
        "coordinates": [
          75.719471,
          24.722139
        ]
      },
      "type": "Feature",
      "properties": {
        "hierarchy": [
          "tgn:7583466",
          "tgn:1000004",
          "tgn:7000198",
          "tgn:1001894",
          "tgn:7029392"
        ],
        "placetype": [
          "aat:300008347"
        ],
        "name:en": "Bakchāch",
        "id": 7583466
      }
    },
    {
      "geometry": {
        "type": "Point",
        "coordinates": [
          75.60504,
          24.73157
        ]
      },
      "type": "Feature",
      "properties": {
        "hierarchy": [
          "tgn:7583467",
          "tgn:1000004",
          "tgn:7000198",
          "tgn:7016788",
          "tgn:7029392"
        ],
        "placetype": [
          "aat:300266554",
          "aat:300008699"
        ],
        "name:en": "Andhāriya Nāla",
        "id": 7583467
      }
    },
    {
      "geometry": {
        "type": "Point",
        "coordinates": [
          75.62538,
          24.717786
        ]
      },
      "type": "Feature",
      "properties": {
        "hierarchy": [
          "tgn:7583468",
          "tgn:1000004",
          "tgn:7000198",
          "tgn:7016788",
          "tgn:7029392"
        ],
        "placetype": [
          "aat:300008347"
        ],
        "name:en": "Barkhera",
        "id": 7583468
      }
    },
    {
      "geometry": {
        "type": "Point",
        "coordinates": [
          75.577051,
          24.716274
        ]
      },
      "type": "Feature",
      "properties": {
        "hierarchy": [
          "tgn:7583469",
          "tgn:1000004",
          "tgn:7000198",
          "tgn:7016788",
          "tgn:7029392"
        ],
        "placetype": [
          "aat:300008347"
        ],
        "name:en": "Phuttala",
        "id": 7583469
      }
    }
  ]
}
