{
  "type": "FeatureCollection",
  "features": [
    {
      "geometry": {
        "type": "Point",
        "coordinates": [
          75.066667,
          15.55
        ]
      },
      "type": "Feature",
      "properties": {
        "hierarchy": [
          "tgn:7545761",
          "tgn:1000004",
          "tgn:7000198",
          "tgn:1001882",
          "tgn:7029392"
        ],
        "placetype": [
          "aat:300008347"
        ],
        "name:en": "Amīnbhāvi",
        "id": 7545761
      }
    },
    {
      "geometry": {
        "type": "Point",
        "coordinates": [
          83.44263,
          26.547301
        ]
      },
      "type": "Feature",
      "properties": {
        "hierarchy": [
          "tgn:7545762",
          "tgn:1000004",
          "tgn:7000198",
          "tgn:7016722",
          "tgn:7029392"
        ],
        "placetype": [
          "aat:300008699"
        ],
        "name:en": "Ami Nadī",
        "id": 7545762
      }
    },
    {
      "geometry": {
        "type": "Point",
        "coordinates": [
          76.867431,
          29.904795
        ]
      },
      "type": "Feature",
      "properties": {
        "hierarchy": [
          "tgn:7545763",
          "tgn:1000004",
          "tgn:1001871",
          "tgn:7000198",
          "tgn:7029392"
        ],
        "placetype": [
          "aat:300008347"
        ],
        "name:en": "Amīn",
        "id": 7545763
      }
    },
    {
      "geometry": {
        "type": "Point",
        "coordinates": [
          83.806259,
          25.776371
        ]
      },
      "type": "Feature",
      "properties": {
        "hierarchy": [
          "tgn:7545765",
          "tgn:1000004",
          "tgn:7000198",
          "tgn:7016722",
          "tgn:7029392"
        ],
        "placetype": [
          "aat:300008347"
        ],
        "name:en": "Amhat",
        "id": 7545765
      }
    },
    {
      "geometry": {
        "type": "Point",
        "coordinates": [
          87.326607,
          26.284587
        ]
      },
      "type": "Feature",
      "properties": {
        "hierarchy": [
          "tgn:7545766",
          "tgn:1000004",
          "tgn:1001842",
          "tgn:7000198",
          "tgn:7029392"
        ],
        "placetype": [
          "aat:300008347"
        ],
        "name:en": "Amhāra",
        "id": 7545766
      }
    },
    {
      "geometry": {
        "type": "Point",
        "coordinates": [
          90.564177,
          26.635242
        ]
      },
      "type": "Feature",
      "properties": {
        "hierarchy": [
          "tgn:7545767",
          "tgn:1000004",
          "tgn:1001832",
          "tgn:7000198",
          "tgn:7029392"
        ],
        "placetype": [
          "aat:300008347"
        ],
        "name:en": "Amguri Bāzār",
        "id": 7545767
      }
    },
    {
      "geometry": {
        "type": "Point",
        "coordinates": [
          94.526138,
          26.81482
        ]
      },
      "type": "Feature",
      "properties": {
        "hierarchy": [
          "tgn:7545768",
          "tgn:1000004",
          "tgn:1001832",
          "tgn:7000198",
          "tgn:7029392"
        ],
        "placetype": [
          "aat:300008347"
        ],
        "name:en": "Amguri",
        "id": 7545768
      }
    },
    {
      "geometry": {
        "type": "Point",
        "coordinates": [
          93.051115,
          26.571219
        ]
      },
      "type": "Feature",
      "properties": {
        "hierarchy": [
          "tgn:7545769",
          "tgn:1000004",
          "tgn:1001832",
          "tgn:7000198",
          "tgn:7029392"
        ],
        "placetype": [
          "aat:300008347"
        ],
        "name:en": "Amguri",
        "id": 7545769
      }
    }
  ]
}
