{
  "type": "FeatureCollection",
  "features": [
    {
      "geometry": {
        "type": "Point",
        "coordinates": [
          120.486111,
          24.010833
        ]
      },
      "type": "Feature",
      "properties": {
        "hierarchy": [
          "tgn:7485410",
          "tgn:1000004",
          "tgn:7467799",
          "tgn:1000141",
          "tgn:7029392"
        ],
        "placetype": [
          "aat:300007836"
        ],
        "id": 7485410,
        "name:xx": "Wanxiang Qiao"
      }
    },
    {
      "geometry": {
        "type": "Point",
        "coordinates": [
          120.454722,
          24.008056
        ]
      },
      "type": "Feature",
      "properties": {
        "hierarchy": [
          "tgn:7485411",
          "tgn:1000004",
          "tgn:7467799",
          "tgn:1000141",
          "tgn:7029392"
        ],
        "placetype": [
          "aat:300266755"
        ],
        "id": 7485411,
        "name:xx": "Dijiu Gongmu"
      }
    },
    {
      "geometry": {
        "type": "Point",
        "coordinates": [
          120.491944,
          24.026667
        ]
      },
      "type": "Feature",
      "properties": {
        "hierarchy": [
          "tgn:7485412",
          "tgn:1000004",
          "tgn:7467799",
          "tgn:1000141",
          "tgn:7029392"
        ],
        "placetype": [
          "aat:300006495"
        ],
        "id": 7485412,
        "name:xx": "Mingzheng Guoxiao"
      }
    },
    {
      "geometry": {
        "type": "Point",
        "coordinates": [
          120.43,
          24.008889
        ]
      },
      "type": "Feature",
      "properties": {
        "hierarchy": [
          "tgn:7485413",
          "tgn:1000004",
          "tgn:7467799",
          "tgn:1000141",
          "tgn:7029392"
        ],
        "placetype": [
          "aat:300007836"
        ],
        "id": 7485413,
        "name:xx": "Wailunzijiao Qiao"
      }
    },
    {
      "geometry": {
        "type": "Point",
        "coordinates": [
          120.431389,
          24.000556
        ]
      },
      "type": "Feature",
      "properties": {
        "hierarchy": [
          "tgn:7485414",
          "tgn:1000004",
          "tgn:7467799",
          "tgn:1000141",
          "tgn:7029392"
        ],
        "placetype": [
          "aat:300006495"
        ],
        "id": 7485414,
        "name:xx": "Yongle Guoxiao"
      }
    },
    {
      "geometry": {
        "type": "Point",
        "coordinates": [
          120.419444,
          24.006944
        ]
      },
      "type": "Feature",
      "properties": {
        "hierarchy": [
          "tgn:7485415",
          "tgn:1000004",
          "tgn:7467799",
          "tgn:1000141",
          "tgn:7029392"
        ],
        "placetype": [
          "aat:300006495"
        ],
        "id": 7485415,
        "name:xx": "Wenchang Guoxiao"
      }
    },
    {
      "geometry": {
        "type": "Point",
        "coordinates": [
          120.383889,
          24.005833
        ]
      },
      "type": "Feature",
      "properties": {
        "hierarchy": [
          "tgn:7485416",
          "tgn:1000004",
          "tgn:7467799",
          "tgn:1000141",
          "tgn:7029392"
        ],
        "placetype": [
          "aat:300006495"
        ],
        "id": 7485416,
        "name:xx": "Hanbao Guoxiao"
      }
    },
    {
      "geometry": {
        "type": "Point",
        "coordinates": [
          120.484722,
          24.087222
        ]
      },
      "type": "Feature",
      "properties": {
        "hierarchy": [
          "tgn:7485417",
          "tgn:1000004",
          "tgn:7467799",
          "tgn:1000141",
          "tgn:7029392"
        ],
        "placetype": [
          "aat:300007595"
        ],
        "id": 7485417,
        "name:xx": "Yufeng Gong"
      }
    },
    {
      "geometry": {
        "type": "Point",
        "coordinates": [
          120.490556,
          24.098333
        ]
      },
      "type": "Feature",
      "properties": {
        "hierarchy": [
          "tgn:7485418",
          "tgn:1000004",
          "tgn:7467799",
          "tgn:1000141",
          "tgn:7029392"
        ],
        "placetype": [
          "aat:300007595"
        ],
        "id": 7485418,
        "name:xx": "Cihshan Sih"
      }
    },
    {
      "geometry": {
        "type": "Point",
        "coordinates": [
          120.732778,
          22.041944
        ]
      },
      "type": "Feature",
      "properties": {
        "hierarchy": [
          "tgn:7485419",
          "tgn:1000004",
          "tgn:7492971",
          "tgn:1000141",
          "tgn:7029392"
        ],
        "placetype": [
          "aat:300008347"
        ],
        "id": 7485419,
        "name:xx": "Wuyi"
      }
    }
  ]
}
