{
  "type": "FeatureCollection",
  "features": [
    {
      "geometry": {
        "type": "Point",
        "coordinates": [
          -98.815278,
          20.133333
        ]
      },
      "type": "Feature",
      "properties": {
        "hierarchy": [
          "tgn:7412440",
          "tgn:7005587",
          "tgn:1000001",
          "tgn:7005560",
          "tgn:7029392"
        ],
        "placetype": [
          "aat:300007783"
        ],
        "id": 7412440,
        "name:es": "Estación Concepción"
      }
    },
    {
      "geometry": {
        "type": "Point",
        "coordinates": [
          -98.85,
          20.133333
        ]
      },
      "type": "Feature",
      "properties": {
        "hierarchy": [
          "tgn:7412441",
          "tgn:7005587",
          "tgn:1000001",
          "tgn:7005560",
          "tgn:7029392"
        ],
        "placetype": [
          "aat:300008347"
        ],
        "id": 7412441,
        "name:es": "El Durazno"
      }
    },
    {
      "geometry": {
        "type": "Point",
        "coordinates": [
          -98.883333,
          20.133333
        ]
      },
      "type": "Feature",
      "properties": {
        "hierarchy": [
          "tgn:7412442",
          "tgn:7005587",
          "tgn:1000001",
          "tgn:7005560",
          "tgn:7029392"
        ],
        "placetype": [
          "aat:300007783"
        ],
        "id": 7412442,
        "name:es": "Estación Tecamatl"
      }
    },
    {
      "geometry": {
        "type": "Point",
        "coordinates": [
          -98.881944,
          20.083333
        ]
      },
      "type": "Feature",
      "properties": {
        "hierarchy": [
          "tgn:7412443",
          "tgn:7005587",
          "tgn:1000001",
          "tgn:7005560",
          "tgn:7029392"
        ],
        "placetype": [
          "aat:300008347"
        ],
        "id": 7412443,
        "name:es": "Pino Suárez"
      }
    },
    {
      "geometry": {
        "type": "Point",
        "coordinates": [
          -98.848611,
          20.009722
        ]
      },
      "type": "Feature",
      "properties": {
        "hierarchy": [
          "tgn:7412444",
          "tgn:7005587",
          "tgn:1000001",
          "tgn:7005560",
          "tgn:7029392"
        ],
        "placetype": [
          "aat:300006191"
        ],
        "id": 7412444,
        "name:es": "Bordo Huatongo"
      }
    },
    {
      "geometry": {
        "type": "Point",
        "coordinates": [
          -98.904167,
          20.008333
        ]
      },
      "type": "Feature",
      "properties": {
        "hierarchy": [
          "tgn:7412445",
          "tgn:7005587",
          "tgn:1000001",
          "tgn:7005560",
          "tgn:7029392"
        ],
        "placetype": [
          "aat:300008347"
        ],
        "id": 7412445,
        "name:es": "La Biznaga"
      }
    },
    {
      "geometry": {
        "type": "Point",
        "coordinates": [
          -98.948611,
          20.034722
        ]
      },
      "type": "Feature",
      "properties": {
        "hierarchy": [
          "tgn:7412446",
          "tgn:7005587",
          "tgn:1000001",
          "tgn:7005560",
          "tgn:7029392"
        ],
        "placetype": [
          "aat:300008347"
        ],
        "id": 7412446,
        "name:es": "Matías Rodríguez"
      }
    },
    {
      "geometry": {
        "type": "Point",
        "coordinates": [
          -98.929167,
          20.093056
        ]
      },
      "type": "Feature",
      "properties": {
        "hierarchy": [
          "tgn:7412447",
          "tgn:7005587",
          "tgn:1000001",
          "tgn:7005560",
          "tgn:7029392"
        ],
        "placetype": [
          "aat:300008347"
        ],
        "id": 7412447,
        "name:es": "El Campanario"
      }
    },
    {
      "geometry": {
        "type": "Point",
        "coordinates": [
          -98.981944,
          20.109722
        ]
      },
      "type": "Feature",
      "properties": {
        "hierarchy": [
          "tgn:7412448",
          "tgn:7005587",
          "tgn:1000001",
          "tgn:7005560",
          "tgn:7029392"
        ],
        "placetype": [
          "aat:300008347"
        ],
        "id": 7412448,
        "name:es": "Casas Coloradas"
      }
    },
    {
      "geometry": {
        "type": "Point",
        "coordinates": [
          -98.916667,
          20.130556
        ]
      },
      "type": "Feature",
      "properties": {
        "hierarchy": [
          "tgn:7412449",
          "tgn:7005587",
          "tgn:1000001",
          "tgn:7005560",
          "tgn:7029392"
        ],
        "placetype": [
          "aat:300007783"
        ],
        "id": 7412449,
        "name:es": "Estación Traxjaca"
      }
    }
  ]
}
