{
  "type": "FeatureCollection",
  "features": [
    {
      "geometry": {
        "type": "Point",
        "coordinates": [
          121.1025,
          24.616389
        ]
      },
      "type": "Feature",
      "properties": {
        "hierarchy": [
          "tgn:7486410",
          "tgn:1000004",
          "tgn:7471332",
          "tgn:1000141",
          "tgn:7029392"
        ],
        "placetype": [
          "aat:300008347"
        ],
        "id": 7486410,
        "name:xx": "Maobu"
      }
    },
    {
      "geometry": {
        "type": "Point",
        "coordinates": [
          120.880503,
          23.889612
        ]
      },
      "type": "Feature",
      "properties": {
        "hierarchy": [
          "tgn:7486411",
          "tgn:7488858",
          "tgn:1000004",
          "tgn:1000141",
          "tgn:7029392"
        ],
        "placetype": [
          "aat:300008347"
        ],
        "id": 7486411,
        "name:xx": "Yantouqiao"
      }
    },
    {
      "geometry": {
        "type": "Point",
        "coordinates": [
          120.524444,
          23.083611
        ]
      },
      "type": "Feature",
      "properties": {
        "hierarchy": [
          "tgn:7486412",
          "tgn:1000004",
          "tgn:7490934",
          "tgn:1000141",
          "tgn:7029392"
        ],
        "placetype": [
          "aat:300008347"
        ],
        "id": 7486412,
        "name:xx": "Maobu"
      }
    },
    {
      "geometry": {
        "type": "Point",
        "coordinates": [
          120.448611,
          22.959722
        ]
      },
      "type": "Feature",
      "properties": {
        "hierarchy": [
          "tgn:7486413",
          "tgn:7001004",
          "tgn:1000004",
          "tgn:1000141",
          "tgn:7029392"
        ],
        "placetype": [
          "aat:300008347"
        ],
        "id": 7486413,
        "name:xx": "Maobu"
      }
    },
    {
      "geometry": {
        "type": "Point",
        "coordinates": [
          120.728611,
          21.918611
        ]
      },
      "type": "Feature",
      "properties": {
        "hierarchy": [
          "tgn:7486414",
          "tgn:1000004",
          "tgn:7492971",
          "tgn:1000141",
          "tgn:7029392"
        ],
        "placetype": [
          "aat:300386846"
        ],
        "id": 7486414,
        "name:xx": "Nyopii, Point"
      }
    },
    {
      "geometry": {
        "type": "Point",
        "coordinates": [
          120.738056,
          21.920833
        ]
      },
      "type": "Feature",
      "properties": {
        "hierarchy": [
          "tgn:7486415",
          "tgn:1000004",
          "tgn:7492971",
          "tgn:1000141",
          "tgn:7029392"
        ],
        "placetype": [
          "aat:300008347"
        ],
        "id": 7486415,
        "name:xx": "Maobitou"
      }
    },
    {
      "geometry": {
        "type": "Point",
        "coordinates": [
          121.482903,
          23.43022
        ]
      },
      "type": "Feature",
      "properties": {
        "hierarchy": [
          "tgn:7486416",
          "tgn:7001010",
          "tgn:1000004",
          "tgn:1000141",
          "tgn:7029392"
        ],
        "placetype": [
          "aat:300008777"
        ],
        "id": 7486416,
        "name:xx": "Maoping Shan"
      }
    },
    {
      "geometry": {
        "type": "Point",
        "coordinates": [
          121.495723,
          23.441319
        ]
      },
      "type": "Feature",
      "properties": {
        "hierarchy": [
          "tgn:7486417",
          "tgn:7001010",
          "tgn:1000004",
          "tgn:1000141",
          "tgn:7029392"
        ],
        "placetype": [
          "aat:300007836"
        ],
        "id": 7486417,
        "name:xx": "Maoping Qiao"
      }
    },
    {
      "geometry": {
        "type": "Point",
        "coordinates": [
          120.724722,
          21.925833
        ]
      },
      "type": "Feature",
      "properties": {
        "hierarchy": [
          "tgn:7486418",
          "tgn:1000004",
          "tgn:7492971",
          "tgn:1000141",
          "tgn:7029392"
        ],
        "placetype": [
          "aat:300008347"
        ],
        "id": 7486418,
        "name:xx": "Maobi"
      }
    },
    {
      "geometry": {
        "type": "Point",
        "coordinates": [
          121.316667,
          24.187222
        ]
      },
      "type": "Feature",
      "properties": {
        "hierarchy": [
          "tgn:7486419",
          "tgn:7488858",
          "tgn:1000004",
          "tgn:1000141",
          "tgn:7029392"
        ],
        "placetype": [
          "aat:300008798"
        ],
        "id": 7486419,
        "name:xx": "Maomu Shan"
      }
    }
  ]
}
