{
  "type": "FeatureCollection",
  "features": [
    {
      "geometry": {
        "type": "Point",
        "coordinates": [
          76.138326,
          30.590789
        ]
      },
      "type": "Feature",
      "properties": {
        "hierarchy": [
          "tgn:7583520",
          "tgn:1000004",
          "tgn:7000198",
          "tgn:7016883",
          "tgn:7029392"
        ],
        "placetype": [
          "aat:300008347"
        ],
        "name:en": "Kanjāhri",
        "id": 7583520
      }
    },
    {
      "geometry": {
        "type": "Point",
        "coordinates": [
          76.169901,
          30.595421
        ]
      },
      "type": "Feature",
      "properties": {
        "hierarchy": [
          "tgn:7583521",
          "tgn:1000004",
          "tgn:7000198",
          "tgn:7016883",
          "tgn:7029392"
        ],
        "placetype": [
          "aat:300008347"
        ],
        "name:en": "Miānpur",
        "id": 7583521
      }
    },
    {
      "geometry": {
        "type": "Point",
        "coordinates": [
          76.149663,
          30.595989
        ]
      },
      "type": "Feature",
      "properties": {
        "hierarchy": [
          "tgn:7583522",
          "tgn:1000004",
          "tgn:7000198",
          "tgn:7016883",
          "tgn:7029392"
        ],
        "placetype": [
          "aat:300008347"
        ],
        "name:en": "Lādpur",
        "id": 7583522
      }
    },
    {
      "geometry": {
        "type": "Point",
        "coordinates": [
          76.155132,
          30.601728
        ]
      },
      "type": "Feature",
      "properties": {
        "hierarchy": [
          "tgn:7583523",
          "tgn:1000004",
          "tgn:7000198",
          "tgn:7016883",
          "tgn:7029392"
        ],
        "placetype": [
          "aat:300008347"
        ],
        "name:en": "Shamshpur",
        "id": 7583523
      }
    },
    {
      "geometry": {
        "type": "Point",
        "coordinates": [
          76.128933,
          30.606648
        ]
      },
      "type": "Feature",
      "properties": {
        "hierarchy": [
          "tgn:7583524",
          "tgn:1000004",
          "tgn:7000198",
          "tgn:7016883",
          "tgn:7029392"
        ],
        "placetype": [
          "aat:300006075"
        ],
        "name:en": "Rauni Minor",
        "id": 7583524
      }
    },
    {
      "geometry": {
        "type": "Point",
        "coordinates": [
          76.136117,
          30.615978
        ]
      },
      "type": "Feature",
      "properties": {
        "hierarchy": [
          "tgn:7583525",
          "tgn:1000004",
          "tgn:7000198",
          "tgn:7016883",
          "tgn:7029392"
        ],
        "placetype": [
          "aat:300008347"
        ],
        "name:en": "Mahmudpur",
        "id": 7583525
      }
    },
    {
      "geometry": {
        "type": "Point",
        "coordinates": [
          76.163242,
          30.61431
        ]
      },
      "type": "Feature",
      "properties": {
        "hierarchy": [
          "tgn:7583526",
          "tgn:1000004",
          "tgn:7000198",
          "tgn:7016883",
          "tgn:7029392"
        ],
        "placetype": [
          "aat:300008347"
        ],
        "name:en": "Kolgarh",
        "id": 7583526
      }
    },
    {
      "geometry": {
        "type": "Point",
        "coordinates": [
          76.175383,
          30.615226
        ]
      },
      "type": "Feature",
      "properties": {
        "hierarchy": [
          "tgn:7583527",
          "tgn:1000004",
          "tgn:7000198",
          "tgn:7016883",
          "tgn:7029392"
        ],
        "placetype": [
          "aat:300008347"
        ],
        "name:en": "Nawān Kālgarh",
        "id": 7583527
      }
    },
    {
      "geometry": {
        "type": "Point",
        "coordinates": [
          76.189092,
          30.603287
        ]
      },
      "type": "Feature",
      "properties": {
        "hierarchy": [
          "tgn:7583528",
          "tgn:1000004",
          "tgn:7000198",
          "tgn:7016883",
          "tgn:7029392"
        ],
        "placetype": [
          "aat:300008347"
        ],
        "name:en": "Lakha Singhwāla",
        "id": 7583528
      }
    },
    {
      "geometry": {
        "type": "Point",
        "coordinates": [
          76.202433,
          30.608397
        ]
      },
      "type": "Feature",
      "properties": {
        "hierarchy": [
          "tgn:7583529",
          "tgn:1000004",
          "tgn:7000198",
          "tgn:7016883",
          "tgn:7029392"
        ],
        "placetype": [
          "aat:300008347"
        ],
        "name:en": "Chāhilān",
        "id": 7583529
      }
    }
  ]
}
