{
  "type": "FeatureCollection",
  "features": [
    {
      "geometry": {
        "type": "Point",
        "coordinates": [
          79.286303,
          24.780079
        ]
      },
      "type": "Feature",
      "properties": {
        "hierarchy": [
          "tgn:7564560",
          "tgn:1000004",
          "tgn:7000198",
          "tgn:1001894",
          "tgn:7029392"
        ],
        "placetype": [
          "aat:300008347"
        ],
        "name:en": "Purainiyān",
        "id": 7564560
      }
    },
    {
      "geometry": {
        "type": "Point",
        "coordinates": [
          79.276636,
          24.778288
        ]
      },
      "type": "Feature",
      "properties": {
        "hierarchy": [
          "tgn:7564561",
          "tgn:1000004",
          "tgn:7000198",
          "tgn:1001894",
          "tgn:7029392"
        ],
        "placetype": [
          "aat:300008347"
        ],
        "name:en": "Tapariyān",
        "id": 7564561
      }
    },
    {
      "geometry": {
        "type": "Point",
        "coordinates": [
          79.270554,
          24.768843
        ]
      },
      "type": "Feature",
      "properties": {
        "hierarchy": [
          "tgn:7564562",
          "tgn:1000004",
          "tgn:7000198",
          "tgn:1001894",
          "tgn:7029392"
        ],
        "placetype": [
          "aat:300008347"
        ],
        "name:en": "Hīrāpur",
        "id": 7564562
      }
    },
    {
      "geometry": {
        "type": "Point",
        "coordinates": [
          79.26679,
          24.752556
        ]
      },
      "type": "Feature",
      "properties": {
        "hierarchy": [
          "tgn:7564563",
          "tgn:1000004",
          "tgn:7000198",
          "tgn:1001894",
          "tgn:7029392"
        ],
        "placetype": [
          "aat:300008347"
        ],
        "name:en": "Digoda",
        "id": 7564563
      }
    },
    {
      "geometry": {
        "type": "Point",
        "coordinates": [
          79.259353,
          24.775164
        ]
      },
      "type": "Feature",
      "properties": {
        "hierarchy": [
          "tgn:7564564",
          "tgn:1000004",
          "tgn:7000198",
          "tgn:1001894",
          "tgn:7029392"
        ],
        "placetype": [
          "aat:300008347"
        ],
        "name:en": "Khajrār",
        "id": 7564564
      }
    },
    {
      "geometry": {
        "type": "Point",
        "coordinates": [
          79.494381,
          24.762678
        ]
      },
      "type": "Feature",
      "properties": {
        "hierarchy": [
          "tgn:7564565",
          "tgn:1000004",
          "tgn:7000198",
          "tgn:1001894",
          "tgn:7029392"
        ],
        "placetype": [
          "aat:300008347"
        ],
        "name:en": "Pagāro",
        "id": 7564565
      }
    },
    {
      "geometry": {
        "type": "Point",
        "coordinates": [
          79.46186,
          24.763014
        ]
      },
      "type": "Feature",
      "properties": {
        "hierarchy": [
          "tgn:7564566",
          "tgn:1000004",
          "tgn:7000198",
          "tgn:1001894",
          "tgn:7029392"
        ],
        "placetype": [
          "aat:300008347"
        ],
        "name:en": "Māmon",
        "id": 7564566
      }
    },
    {
      "geometry": {
        "type": "Point",
        "coordinates": [
          79.424003,
          24.7554
        ]
      },
      "type": "Feature",
      "properties": {
        "hierarchy": [
          "tgn:7564567",
          "tgn:1000004",
          "tgn:7000198",
          "tgn:1001894",
          "tgn:7029392"
        ],
        "placetype": [
          "aat:300008347"
        ],
        "name:en": "Bara Mahua ka Purwa",
        "id": 7564567
      }
    },
    {
      "geometry": {
        "type": "Point",
        "coordinates": [
          79.366992,
          24.757135
        ]
      },
      "type": "Feature",
      "properties": {
        "hierarchy": [
          "tgn:7564568",
          "tgn:1000004",
          "tgn:7000198",
          "tgn:1001894",
          "tgn:7029392"
        ],
        "placetype": [
          "aat:300008347"
        ],
        "name:en": "Garha",
        "id": 7564568
      }
    },
    {
      "geometry": {
        "type": "Point",
        "coordinates": [
          79.349463,
          24.74418
        ]
      },
      "type": "Feature",
      "properties": {
        "hierarchy": [
          "tgn:7564569",
          "tgn:1000004",
          "tgn:7000198",
          "tgn:1001894",
          "tgn:7029392"
        ],
        "placetype": [
          "aat:300008865"
        ],
        "name:en": "Bhartoli Reserved Forest",
        "id": 7564569
      }
    }
  ]
}
