{
  "type": "FeatureCollection",
  "features": [
    {
      "geometry": {
        "type": "Point",
        "coordinates": [
          121.756023,
          25.1565
        ]
      },
      "type": "Feature",
      "properties": {
        "hierarchy": [
          "tgn:7498280",
          "tgn:1000957",
          "tgn:1000004",
          "tgn:1000141",
          "tgn:7029392"
        ],
        "placetype": [
          "aat:300007741"
        ],
        "id": 7498280,
        "name:xx": "Dongsuibo Ti Denggan"
      }
    },
    {
      "geometry": {
        "type": "Point",
        "coordinates": [
          121.753328,
          25.161451
        ]
      },
      "type": "Feature",
      "properties": {
        "hierarchy": [
          "tgn:7498281",
          "tgn:1000957",
          "tgn:1000004",
          "tgn:1000141",
          "tgn:7029392"
        ],
        "placetype": [
          "aat:300007741"
        ],
        "id": 7498281,
        "name:xx": "Sheliaodao Baidengta"
      }
    },
    {
      "geometry": {
        "type": "Point",
        "coordinates": [
          121.75262,
          25.158475
        ]
      },
      "type": "Feature",
      "properties": {
        "hierarchy": [
          "tgn:7498282",
          "tgn:1000957",
          "tgn:1000004",
          "tgn:1000141",
          "tgn:7029392"
        ],
        "placetype": [
          "aat:300007741"
        ],
        "id": 7498282,
        "name:xx": "Xifangboti Denggan"
      }
    },
    {
      "geometry": {
        "type": "Point",
        "coordinates": [
          120.557385,
          22.983917
        ]
      },
      "type": "Feature",
      "properties": {
        "hierarchy": [
          "tgn:7498283",
          "tgn:7001004",
          "tgn:1000004",
          "tgn:1000141",
          "tgn:7029392"
        ],
        "placetype": [
          "aat:300008347"
        ],
        "id": 7498283,
        "name:xx": "Xin'aidingliao"
      }
    },
    {
      "geometry": {
        "type": "Point",
        "coordinates": [
          120.53768,
          22.846011
        ]
      },
      "type": "Feature",
      "properties": {
        "hierarchy": [
          "tgn:7498284",
          "tgn:1000004",
          "tgn:7492971",
          "tgn:1000141",
          "tgn:7029392"
        ],
        "placetype": [
          "aat:300007836"
        ],
        "id": 7498284,
        "name:xx": "Xibuliao Qiao"
      }
    },
    {
      "geometry": {
        "type": "Point",
        "coordinates": [
          120.520492,
          22.909825
        ]
      },
      "type": "Feature",
      "properties": {
        "hierarchy": [
          "tgn:7498286",
          "tgn:7001004",
          "tgn:1000004",
          "tgn:1000141",
          "tgn:7029392"
        ],
        "placetype": [
          "aat:300008347"
        ],
        "id": 7498286,
        "name:xx": "Lingshan"
      }
    },
    {
      "geometry": {
        "type": "Point",
        "coordinates": [
          120.509764,
          22.90543
        ]
      },
      "type": "Feature",
      "properties": {
        "hierarchy": [
          "tgn:7498287",
          "tgn:7001004",
          "tgn:1000004",
          "tgn:1000141",
          "tgn:7029392"
        ],
        "placetype": [
          "aat:300008798"
        ],
        "id": 7498287,
        "name:xx": "Jinzimian Shan"
      }
    },
    {
      "geometry": {
        "type": "Point",
        "coordinates": [
          120.594359,
          22.932557
        ]
      },
      "type": "Feature",
      "properties": {
        "hierarchy": [
          "tgn:7498288",
          "tgn:7001004",
          "tgn:1000004",
          "tgn:1000141",
          "tgn:7029392"
        ],
        "placetype": [
          "aat:300008347"
        ],
        "id": 7498288,
        "name:xx": "Huangdiecuigu"
      }
    },
    {
      "geometry": {
        "type": "Point",
        "coordinates": [
          120.537195,
          22.897737
        ]
      },
      "type": "Feature",
      "properties": {
        "hierarchy": [
          "tgn:7498289",
          "tgn:7001004",
          "tgn:1000004",
          "tgn:1000141",
          "tgn:7029392"
        ],
        "placetype": [
          "aat:300007836"
        ],
        "id": 7498289,
        "name:xx": "Shui Qiao"
      }
    }
  ]
}
