{
  "type": "FeatureCollection",
  "features": [
    {
      "geometry": {
        "type": "Point",
        "coordinates": [
          26.916667,
          31.133333
        ]
      },
      "type": "Feature",
      "properties": {
        "hierarchy": [
          "tgn:7534690",
          "tgn:7001242",
          "tgn:7016833",
          "tgn:1001418",
          "tgn:7029392"
        ],
        "placetype": [
          "aat:300006207"
        ],
        "name:en": "Bi'r al Kalkh",
        "id": 7534690
      }
    },
    {
      "geometry": {
        "type": "Point",
        "coordinates": [
          31.069167,
          30.662778
        ]
      },
      "type": "Feature",
      "properties": {
        "hierarchy": [
          "tgn:7534691",
          "tgn:7001242",
          "tgn:7016833",
          "tgn:7001312",
          "tgn:7029392"
        ],
        "placetype": [
          "aat:300008347"
        ],
        "name:en": "Kalbishū",
        "id": 7534691
      }
    },
    {
      "geometry": {
        "type": "Point",
        "coordinates": [
          25.896726,
          30.206107
        ]
      },
      "type": "Feature",
      "properties": {
        "hierarchy": [
          "tgn:7534692",
          "tgn:7001242",
          "tgn:7016833",
          "tgn:1001418",
          "tgn:7029392"
        ],
        "placetype": [
          "aat:300008777"
        ],
        "name:en": "Kalb, Ra's al",
        "id": 7534692
      }
    },
    {
      "geometry": {
        "type": "Point",
        "coordinates": [
          25.255119,
          31.047676
        ]
      },
      "type": "Feature",
      "properties": {
        "hierarchy": [
          "tgn:7534693",
          "tgn:7001242",
          "tgn:7016833",
          "tgn:1001418",
          "tgn:7029392"
        ],
        "placetype": [
          "aat:300008777"
        ],
        "name:en": "Kalb, Qārat al",
        "id": 7534693
      }
    },
    {
      "geometry": {
        "type": "Point",
        "coordinates": [
          30.849309,
          30.219884
        ]
      },
      "type": "Feature",
      "properties": {
        "hierarchy": [
          "tgn:7534694",
          "tgn:7001242",
          "tgn:7016833",
          "tgn:1001083",
          "tgn:7029392"
        ],
        "placetype": [
          "aat:300008777"
        ],
        "name:en": "Kalb, Khashm al",
        "id": 7534694
      }
    },
    {
      "geometry": {
        "type": "Point",
        "coordinates": [
          32.891111,
          29.455833
        ]
      },
      "type": "Feature",
      "properties": {
        "hierarchy": [
          "tgn:7534695",
          "tgn:7001242",
          "tgn:7016833",
          "tgn:7001336",
          "tgn:7029392"
        ],
        "placetype": [
          "aat:300132353"
        ],
        "name:en": "Irayq al Kalb",
        "id": 7534695
      }
    },
    {
      "geometry": {
        "type": "Point",
        "coordinates": [
          25.033333,
          29.416667
        ]
      },
      "type": "Feature",
      "properties": {
        "hierarchy": [
          "tgn:7534696",
          "tgn:7001242",
          "tgn:7016833",
          "tgn:1001418",
          "tgn:7029392"
        ],
        "placetype": [
          "aat:300386891"
        ],
        "name:en": "Kalb, Ḩaţīyat al",
        "id": 7534696
      }
    },
    {
      "geometry": {
        "type": "Point",
        "coordinates": [
          29.601516,
          29.609343
        ]
      },
      "type": "Feature",
      "properties": {
        "hierarchy": [
          "tgn:7534697",
          "tgn:7001242",
          "tgn:7016833",
          "tgn:1001418",
          "tgn:7029392"
        ],
        "placetype": [
          "aat:300008750"
        ],
        "name:en": "Kalb, Ghurd al",
        "id": 7534697
      }
    },
    {
      "geometry": {
        "type": "Point",
        "coordinates": [
          27.226639,
          30.905004
        ]
      },
      "type": "Feature",
      "properties": {
        "hierarchy": [
          "tgn:7534698",
          "tgn:7001242",
          "tgn:7016833",
          "tgn:1001418",
          "tgn:7029392"
        ],
        "placetype": [
          "aat:300006207"
        ],
        "name:en": "Ābār al Kalb",
        "id": 7534698
      }
    },
    {
      "geometry": {
        "type": "Point",
        "coordinates": [
          35.400268,
          23.860214
        ]
      },
      "type": "Feature",
      "properties": {
        "hierarchy": [
          "tgn:7534699",
          "tgn:7001242",
          "tgn:7001311",
          "tgn:7016833",
          "tgn:7029392"
        ],
        "placetype": [
          "aat:300379998"
        ],
        "name:en": "Kalâlât, Wâdi",
        "id": 7534699
      }
    }
  ]
}
