{
  "type": "FeatureCollection",
  "features": [
    {
      "geometry": {
        "type": "Point",
        "coordinates": [
          78.26773,
          24.873128
        ]
      },
      "type": "Feature",
      "properties": {
        "hierarchy": [
          "tgn:7582050",
          "tgn:1000004",
          "tgn:7000198",
          "tgn:7016722",
          "tgn:7029392"
        ],
        "placetype": [
          "aat:300008347"
        ],
        "name:en": "Tilehri",
        "id": 7582050
      }
    },
    {
      "geometry": {
        "type": "Point",
        "coordinates": [
          78.253925,
          24.876214
        ]
      },
      "type": "Feature",
      "properties": {
        "hierarchy": [
          "tgn:7582051",
          "tgn:1000004",
          "tgn:7000198",
          "tgn:7016722",
          "tgn:7029392"
        ],
        "placetype": [
          "aat:300008699"
        ],
        "name:en": "Kaura Nāla",
        "id": 7582051
      }
    },
    {
      "geometry": {
        "type": "Point",
        "coordinates": [
          78.254565,
          24.878308
        ]
      },
      "type": "Feature",
      "properties": {
        "hierarchy": [
          "tgn:7582052",
          "tgn:1000004",
          "tgn:7000198",
          "tgn:7016722",
          "tgn:7029392"
        ],
        "placetype": [
          "aat:300008680"
        ],
        "name:en": "Nanaura Tāl",
        "id": 7582052
      }
    },
    {
      "geometry": {
        "type": "Point",
        "coordinates": [
          78.25431,
          24.786163
        ]
      },
      "type": "Feature",
      "properties": {
        "hierarchy": [
          "tgn:7582053",
          "tgn:1000004",
          "tgn:7000198",
          "tgn:7016722",
          "tgn:7029392"
        ],
        "placetype": [
          "aat:300008347"
        ],
        "name:en": "Sati",
        "id": 7582053
      }
    },
    {
      "geometry": {
        "type": "Point",
        "coordinates": [
          78.334078,
          24.902052
        ]
      },
      "type": "Feature",
      "properties": {
        "hierarchy": [
          "tgn:7582054",
          "tgn:1000004",
          "tgn:7000198",
          "tgn:7016722",
          "tgn:7029392"
        ],
        "placetype": [
          "aat:300008699"
        ],
        "name:en": "Dābar Nāla",
        "id": 7582054
      }
    },
    {
      "geometry": {
        "type": "Point",
        "coordinates": [
          78.302419,
          24.903492
        ]
      },
      "type": "Feature",
      "properties": {
        "hierarchy": [
          "tgn:7582055",
          "tgn:1000004",
          "tgn:7000198",
          "tgn:7016722",
          "tgn:7029392"
        ],
        "placetype": [
          "aat:300008347"
        ],
        "name:en": "Chitra",
        "id": 7582055
      }
    },
    {
      "geometry": {
        "type": "Point",
        "coordinates": [
          78.291431,
          24.904491
        ]
      },
      "type": "Feature",
      "properties": {
        "hierarchy": [
          "tgn:7582056",
          "tgn:1000004",
          "tgn:7000198",
          "tgn:7016722",
          "tgn:7029392"
        ],
        "placetype": [
          "aat:300008865"
        ],
        "name:en": "Āgar South Reserved Forest",
        "id": 7582056
      }
    },
    {
      "geometry": {
        "type": "Point",
        "coordinates": [
          78.301449,
          24.912707
        ]
      },
      "type": "Feature",
      "properties": {
        "hierarchy": [
          "tgn:7582057",
          "tgn:1000004",
          "tgn:7000198",
          "tgn:7016722",
          "tgn:7029392"
        ],
        "placetype": [
          "aat:300008865"
        ],
        "name:en": "Āgar Reserved Forest",
        "id": 7582057
      }
    },
    {
      "geometry": {
        "type": "Point",
        "coordinates": [
          78.289668,
          24.912331
        ]
      },
      "type": "Feature",
      "properties": {
        "hierarchy": [
          "tgn:7582058",
          "tgn:1000004",
          "tgn:7000198",
          "tgn:7016722",
          "tgn:7029392"
        ],
        "placetype": [
          "aat:300008347"
        ],
        "name:en": "Agar",
        "id": 7582058
      }
    },
    {
      "geometry": {
        "type": "Point",
        "coordinates": [
          78.248865,
          24.903413
        ]
      },
      "type": "Feature",
      "properties": {
        "hierarchy": [
          "tgn:7582059",
          "tgn:1000004",
          "tgn:7000198",
          "tgn:7016722",
          "tgn:7029392"
        ],
        "placetype": [
          "aat:300008347"
        ],
        "name:en": "Sati",
        "id": 7582059
      }
    }
  ]
}
