{
  "type": "FeatureCollection",
  "features": [
    {
      "geometry": {
        "type": "Point",
        "coordinates": [
          120.687778,
          23.508056
        ]
      },
      "type": "Feature",
      "properties": {
        "hierarchy": [
          "tgn:7485060",
          "tgn:7468018",
          "tgn:1000004",
          "tgn:1000141",
          "tgn:7029392"
        ],
        "placetype": [
          "aat:300008798"
        ],
        "id": 7485060,
        "name:xx": "Guanglun Shan"
      }
    },
    {
      "geometry": {
        "type": "Point",
        "coordinates": [
          120.739722,
          23.529722
        ]
      },
      "type": "Feature",
      "properties": {
        "hierarchy": [
          "tgn:7485062",
          "tgn:7468018",
          "tgn:1000004",
          "tgn:1000141",
          "tgn:7029392"
        ],
        "placetype": [
          "aat:300008347"
        ],
        "id": 7485062,
        "name:xx": "Wailaiji"
      }
    },
    {
      "geometry": {
        "type": "Point",
        "coordinates": [
          120.726944,
          23.54
        ]
      },
      "type": "Feature",
      "properties": {
        "hierarchy": [
          "tgn:7485063",
          "tgn:7468018",
          "tgn:1000004",
          "tgn:1000141",
          "tgn:7029392"
        ],
        "placetype": [
          "aat:300008347"
        ],
        "id": 7485063,
        "name:xx": "Taihe"
      }
    },
    {
      "geometry": {
        "type": "Point",
        "coordinates": [
          120.732778,
          23.5675
        ]
      },
      "type": "Feature",
      "properties": {
        "hierarchy": [
          "tgn:7485064",
          "tgn:7468018",
          "tgn:1000004",
          "tgn:1000141",
          "tgn:7029392"
        ],
        "placetype": [
          "aat:300008347"
        ],
        "id": 7485064,
        "name:xx": "Quanzishe"
      }
    },
    {
      "geometry": {
        "type": "Point",
        "coordinates": [
          120.723889,
          23.555833
        ]
      },
      "type": "Feature",
      "properties": {
        "hierarchy": [
          "tgn:7485065",
          "tgn:7468018",
          "tgn:1000004",
          "tgn:1000141",
          "tgn:7029392"
        ],
        "placetype": [
          "aat:300006495"
        ],
        "id": 7485065,
        "name:xx": "Renhe Guoxiao"
      }
    },
    {
      "geometry": {
        "type": "Point",
        "coordinates": [
          120.733611,
          23.552778
        ]
      },
      "type": "Feature",
      "properties": {
        "hierarchy": [
          "tgn:7485066",
          "tgn:7468018",
          "tgn:1000004",
          "tgn:1000141",
          "tgn:7029392"
        ],
        "placetype": [
          "aat:300008347"
        ],
        "id": 7485066,
        "name:xx": "Daliwang"
      }
    },
    {
      "geometry": {
        "type": "Point",
        "coordinates": [
          120.727222,
          23.556389
        ]
      },
      "type": "Feature",
      "properties": {
        "hierarchy": [
          "tgn:7485067",
          "tgn:7468018",
          "tgn:1000004",
          "tgn:1000141",
          "tgn:7029392"
        ],
        "placetype": [
          "aat:300007836"
        ],
        "id": 7485067,
        "name:xx": "Shexing Qiao"
      }
    },
    {
      "geometry": {
        "type": "Point",
        "coordinates": [
          120.725556,
          23.558611
        ]
      },
      "type": "Feature",
      "properties": {
        "hierarchy": [
          "tgn:7485068",
          "tgn:7468018",
          "tgn:1000004",
          "tgn:1000141",
          "tgn:7029392"
        ],
        "placetype": [
          "aat:300007836"
        ],
        "id": 7485068,
        "name:xx": "Shexing Diaoqiao"
      }
    },
    {
      "geometry": {
        "type": "Point",
        "coordinates": [
          120.720278,
          23.57
        ]
      },
      "type": "Feature",
      "properties": {
        "hierarchy": [
          "tgn:7485069",
          "tgn:7468018",
          "tgn:1000004",
          "tgn:1000141",
          "tgn:7029392"
        ],
        "placetype": [
          "aat:300008699"
        ],
        "id": 7485069,
        "name:xx": "Shigupan Xi"
      }
    }
  ]
}
