{
  "type": "FeatureCollection",
  "features": [
    {
      "geometry": {
        "type": "Point",
        "coordinates": [
          8.113056,
          49.162222
        ]
      },
      "type": "Feature",
      "properties": {
        "hierarchy": [
          "tgn:1039730",
          "tgn:1000003",
          "tgn:7003682",
          "tgn:7000084",
          "tgn:7029392"
        ],
        "placetype": [
          "aat:300008347"
        ],
        "id": 1039730,
        "name:xx": "Impflingen"
      }
    },
    {
      "geometry": {
        "type": "Point",
        "coordinates": [
          7.383333,
          51.333333
        ]
      },
      "type": "Feature",
      "properties": {
        "hierarchy": [
          "tgn:1039731",
          "tgn:1000003",
          "tgn:7003677",
          "tgn:7000084",
          "tgn:7029392"
        ],
        "placetype": [
          "aat:300008347"
        ],
        "id": 1039731,
        "name:xx": "In der Bredde"
      }
    },
    {
      "geometry": {
        "type": "Point",
        "coordinates": [
          9.655,
          49.300556
        ]
      },
      "type": "Feature",
      "properties": {
        "hierarchy": [
          "tgn:1039732",
          "tgn:7003692",
          "tgn:1000003",
          "tgn:7000084",
          "tgn:7029392"
        ],
        "placetype": [
          "aat:300008347"
        ],
        "id": 1039732,
        "name:xx": "Ingelfingen"
      }
    },
    {
      "geometry": {
        "type": "Point",
        "coordinates": [
          11.15,
          48.083333
        ]
      },
      "type": "Feature",
      "properties": {
        "hierarchy": [
          "tgn:1039735",
          "tgn:7003669",
          "tgn:1000003",
          "tgn:7000084",
          "tgn:7029392"
        ],
        "placetype": [
          "aat:300008347"
        ],
        "id": 1039735,
        "name:xx": "Inning"
      }
    },
    {
      "geometry": {
        "type": "Point",
        "coordinates": [
          12.75,
          47.766667
        ]
      },
      "type": "Feature",
      "properties": {
        "hierarchy": [
          "tgn:1039736",
          "tgn:7003669",
          "tgn:1000003",
          "tgn:7000084",
          "tgn:7029392"
        ],
        "placetype": [
          "aat:300008347"
        ],
        "id": 1039736,
        "name:xx": "Inzell"
      }
    },
    {
      "geometry": {
        "type": "Point",
        "coordinates": [
          9.15,
          51.266667
        ]
      },
      "type": "Feature",
      "properties": {
        "hierarchy": [
          "tgn:1039738",
          "tgn:1000003",
          "tgn:7003678",
          "tgn:7000084",
          "tgn:7029392"
        ],
        "placetype": [
          "aat:300008347"
        ],
        "id": 1039738,
        "name:xx": "Ippinghausen"
      }
    },
    {
      "geometry": {
        "type": "Point",
        "coordinates": [
          6.466667,
          49.85
        ]
      },
      "type": "Feature",
      "properties": {
        "hierarchy": [
          "tgn:1039739",
          "tgn:1000003",
          "tgn:7003682",
          "tgn:7000084",
          "tgn:7029392"
        ],
        "placetype": [
          "aat:300008347"
        ],
        "id": 1039739,
        "name:xx": "Irrel"
      }
    }
  ]
}
