{
  "type": "FeatureCollection",
  "features": [
    {
      "geometry": {
        "type": "Point",
        "coordinates": [
          120.6944,
          24.1376
        ]
      },
      "type": "Feature",
      "properties": {
        "hierarchy": [
          "tgn:7497160",
          "tgn:1000004",
          "tgn:7001009",
          "tgn:1000141",
          "tgn:7029392"
        ],
        "placetype": [
          "aat:300006495"
        ],
        "id": 7497160,
        "name:xx": "Leye Guoxiao"
      }
    },
    {
      "geometry": {
        "type": "Point",
        "coordinates": [
          120.677463,
          24.134596
        ]
      },
      "type": "Feature",
      "properties": {
        "hierarchy": [
          "tgn:7497161",
          "tgn:1000004",
          "tgn:7001009",
          "tgn:1000141",
          "tgn:7029392"
        ],
        "placetype": [
          "aat:300006495"
        ],
        "id": 7497161,
        "name:xx": "Datong Guoxiao"
      }
    },
    {
      "geometry": {
        "type": "Point",
        "coordinates": [
          120.674724,
          24.13865
        ]
      },
      "type": "Feature",
      "properties": {
        "hierarchy": [
          "tgn:7497162",
          "tgn:1000004",
          "tgn:7001009",
          "tgn:1000141",
          "tgn:7029392"
        ],
        "placetype": [
          "aat:300006495"
        ],
        "id": 7497162,
        "name:xx": "Zhongxiao Guoxiao"
      }
    },
    {
      "geometry": {
        "type": "Point",
        "coordinates": [
          120.658111,
          24.135047
        ]
      },
      "type": "Feature",
      "properties": {
        "hierarchy": [
          "tgn:7497163",
          "tgn:1000004",
          "tgn:7001009",
          "tgn:1000141",
          "tgn:7029392"
        ],
        "placetype": [
          "aat:300006495"
        ],
        "id": 7497163,
        "name:xx": "Dayong Guoxiao"
      }
    },
    {
      "geometry": {
        "type": "Point",
        "coordinates": [
          120.6382,
          24.1371
        ]
      },
      "type": "Feature",
      "properties": {
        "hierarchy": [
          "tgn:7497164",
          "tgn:1000004",
          "tgn:7001009",
          "tgn:1000141",
          "tgn:7029392"
        ],
        "placetype": [
          "aat:300006495"
        ],
        "id": 7497164,
        "name:xx": "Nantun Guoxiao"
      }
    },
    {
      "geometry": {
        "type": "Point",
        "coordinates": [
          120.663015,
          24.143716
        ]
      },
      "type": "Feature",
      "properties": {
        "hierarchy": [
          "tgn:7497165",
          "tgn:1000004",
          "tgn:7001009",
          "tgn:1000141",
          "tgn:7029392"
        ],
        "placetype": [
          "aat:300006495"
        ],
        "id": 7497165,
        "name:xx": "Xiangshang Guozhong"
      }
    },
    {
      "geometry": {
        "type": "Point",
        "coordinates": [
          120.673625,
          24.144527
        ]
      },
      "type": "Feature",
      "properties": {
        "hierarchy": [
          "tgn:7497166",
          "tgn:1000004",
          "tgn:7001009",
          "tgn:1000141",
          "tgn:7029392"
        ],
        "placetype": [
          "aat:300006495"
        ],
        "id": 7497166,
        "name:xx": "Shifan Fuxiao"
      }
    },
    {
      "geometry": {
        "type": "Point",
        "coordinates": [
          120.681987,
          24.143538
        ]
      },
      "type": "Feature",
      "properties": {
        "hierarchy": [
          "tgn:7497167",
          "tgn:1000004",
          "tgn:7001009",
          "tgn:1000141",
          "tgn:7029392"
        ],
        "placetype": [
          "aat:300006495"
        ],
        "id": 7497167,
        "name:xx": "Guangfu Guoxiao"
      }
    },
    {
      "geometry": {
        "type": "Point",
        "coordinates": [
          120.693046,
          24.14514
        ]
      },
      "type": "Feature",
      "properties": {
        "hierarchy": [
          "tgn:7497168",
          "tgn:1000004",
          "tgn:7001009",
          "tgn:1000141",
          "tgn:7029392"
        ],
        "placetype": [
          "aat:300006495"
        ],
        "id": 7497168,
        "name:xx": "Jinde Guoxiao"
      }
    },
    {
      "geometry": {
        "type": "Point",
        "coordinates": [
          120.732296,
          24.142952
        ]
      },
      "type": "Feature",
      "properties": {
        "hierarchy": [
          "tgn:7497169",
          "tgn:1000004",
          "tgn:7001009",
          "tgn:1000141",
          "tgn:7029392"
        ],
        "placetype": [
          "aat:300006495"
        ],
        "id": 7497169,
        "name:xx": "Taiping Guozhong"
      }
    }
  ]
}
