{
  "type": "FeatureCollection",
  "features": [
    {
      "geometry": {
        "type": "Point",
        "coordinates": [
          78.201667,
          17.583056
        ]
      },
      "type": "Feature",
      "properties": {
        "hierarchy": [
          "tgn:7567320",
          "tgn:1001828",
          "tgn:1000004",
          "tgn:7000198",
          "tgn:7029392"
        ],
        "placetype": [
          "aat:300008347"
        ],
        "name:en": "Lakdāram",
        "id": 7567320
      }
    },
    {
      "geometry": {
        "type": "Point",
        "coordinates": [
          78.700833,
          17.662222
        ]
      },
      "type": "Feature",
      "properties": {
        "hierarchy": [
          "tgn:7567321",
          "tgn:1001828",
          "tgn:1000004",
          "tgn:7000198",
          "tgn:7029392"
        ],
        "placetype": [
          "aat:300008347"
        ],
        "name:en": "Lachhmāpur",
        "id": 7567321
      }
    },
    {
      "geometry": {
        "type": "Point",
        "coordinates": [
          76.547361,
          28.923094
        ]
      },
      "type": "Feature",
      "properties": {
        "hierarchy": [
          "tgn:7567322",
          "tgn:1000004",
          "tgn:1001871",
          "tgn:7000198",
          "tgn:7029392"
        ],
        "placetype": [
          "aat:300008347"
        ],
        "name:en": "Singhpura Kalān",
        "id": 7567322
      }
    },
    {
      "geometry": {
        "type": "Point",
        "coordinates": [
          76.559572,
          28.940745
        ]
      },
      "type": "Feature",
      "properties": {
        "hierarchy": [
          "tgn:7567323",
          "tgn:1000004",
          "tgn:1001871",
          "tgn:7000198",
          "tgn:7029392"
        ],
        "placetype": [
          "aat:300008347"
        ],
        "name:en": "Sundarpur",
        "id": 7567323
      }
    },
    {
      "geometry": {
        "type": "Point",
        "coordinates": [
          76.531139,
          28.918827
        ]
      },
      "type": "Feature",
      "properties": {
        "hierarchy": [
          "tgn:7567324",
          "tgn:1000004",
          "tgn:1001871",
          "tgn:7000198",
          "tgn:7029392"
        ],
        "placetype": [
          "aat:300008347"
        ],
        "name:en": "Singhpura Khurd",
        "id": 7567324
      }
    },
    {
      "geometry": {
        "type": "Point",
        "coordinates": [
          76.601382,
          28.965378
        ]
      },
      "type": "Feature",
      "properties": {
        "hierarchy": [
          "tgn:7567325",
          "tgn:1000004",
          "tgn:1001871",
          "tgn:7000198",
          "tgn:7029392"
        ],
        "placetype": [
          "aat:300008347"
        ],
        "name:en": "Chamāri",
        "id": 7567325
      }
    },
    {
      "geometry": {
        "type": "Point",
        "coordinates": [
          76.575882,
          28.96444
        ]
      },
      "type": "Feature",
      "properties": {
        "hierarchy": [
          "tgn:7567326",
          "tgn:1000004",
          "tgn:1001871",
          "tgn:7000198",
          "tgn:7029392"
        ],
        "placetype": [
          "aat:300008347"
        ],
        "name:en": "Sasroli",
        "id": 7567326
      }
    },
    {
      "geometry": {
        "type": "Point",
        "coordinates": [
          76.559737,
          28.971984
        ]
      },
      "type": "Feature",
      "properties": {
        "hierarchy": [
          "tgn:7567327",
          "tgn:1000004",
          "tgn:1001871",
          "tgn:7000198",
          "tgn:7029392"
        ],
        "placetype": [
          "aat:300008347"
        ],
        "name:en": "Tatauli",
        "id": 7567327
      }
    },
    {
      "geometry": {
        "type": "Point",
        "coordinates": [
          76.574532,
          28.997379
        ]
      },
      "type": "Feature",
      "properties": {
        "hierarchy": [
          "tgn:7567328",
          "tgn:1000004",
          "tgn:1001871",
          "tgn:7000198",
          "tgn:7029392"
        ],
        "placetype": [
          "aat:300008347"
        ],
        "name:en": "Jindrān",
        "id": 7567328
      }
    },
    {
      "geometry": {
        "type": "Point",
        "coordinates": [
          76.518375,
          28.958995
        ]
      },
      "type": "Feature",
      "properties": {
        "hierarchy": [
          "tgn:7567329",
          "tgn:1000004",
          "tgn:1001871",
          "tgn:7000198",
          "tgn:7029392"
        ],
        "placetype": [
          "aat:300007783"
        ],
        "name:en": "Sāmar Gopālpur Railroad Station",
        "id": 7567329
      }
    }
  ]
}
