{
  "type": "FeatureCollection",
  "features": [
    {
      "geometry": {
        "type": "Point",
        "coordinates": [
          120.361667,
          22.789167
        ]
      },
      "type": "Feature",
      "properties": {
        "hierarchy": [
          "tgn:7500870",
          "tgn:7001004",
          "tgn:1000004",
          "tgn:1000141",
          "tgn:7029392"
        ],
        "placetype": [
          "aat:300000745"
        ],
        "id": 7500870,
        "name:xx": "Meiyuan"
      }
    },
    {
      "geometry": {
        "type": "Point",
        "coordinates": [
          120.267778,
          22.775
        ]
      },
      "type": "Feature",
      "properties": {
        "hierarchy": [
          "tgn:7500873",
          "tgn:7001004",
          "tgn:1000004",
          "tgn:1000141",
          "tgn:7029392"
        ],
        "placetype": [
          "aat:300008347"
        ],
        "id": 7500873,
        "name:xx": "Shitan"
      }
    },
    {
      "geometry": {
        "type": "Point",
        "coordinates": [
          120.334444,
          22.888056
        ]
      },
      "type": "Feature",
      "properties": {
        "hierarchy": [
          "tgn:7500874",
          "tgn:7001004",
          "tgn:1000004",
          "tgn:1000141",
          "tgn:7029392"
        ],
        "placetype": [
          "aat:300006676"
        ],
        "id": 7500874,
        "name:xx": "Liangren Jingshenke Yiyuan"
      }
    },
    {
      "geometry": {
        "type": "Point",
        "coordinates": [
          120.3575,
          22.853333
        ]
      },
      "type": "Feature",
      "properties": {
        "hierarchy": [
          "tgn:7500875",
          "tgn:7001004",
          "tgn:1000004",
          "tgn:1000141",
          "tgn:7029392"
        ],
        "placetype": [
          "aat:300007595"
        ],
        "id": 7500875,
        "name:xx": "Chaoyuan Si"
      }
    },
    {
      "geometry": {
        "type": "Point",
        "coordinates": [
          120.349167,
          22.830556
        ]
      },
      "type": "Feature",
      "properties": {
        "hierarchy": [
          "tgn:7500876",
          "tgn:7001004",
          "tgn:1000004",
          "tgn:1000141",
          "tgn:7029392"
        ],
        "placetype": [
          "aat:300007595"
        ],
        "id": 7500876,
        "name:xx": "Shengruo Miao"
      }
    },
    {
      "geometry": {
        "type": "Point",
        "coordinates": [
          120.312222,
          22.768056
        ]
      },
      "type": "Feature",
      "properties": {
        "hierarchy": [
          "tgn:7500877",
          "tgn:7001004",
          "tgn:1000004",
          "tgn:1000141",
          "tgn:7029392"
        ],
        "placetype": [
          "aat:300007595"
        ],
        "id": 7500877,
        "name:xx": "Tianhou Gong"
      }
    },
    {
      "geometry": {
        "type": "Point",
        "coordinates": [
          120.362778,
          22.794167
        ]
      },
      "type": "Feature",
      "properties": {
        "hierarchy": [
          "tgn:7500878",
          "tgn:7001004",
          "tgn:1000004",
          "tgn:1000141",
          "tgn:7029392"
        ],
        "placetype": [
          "aat:300007595"
        ],
        "id": 7500878,
        "name:xx": "Weiling Si"
      }
    },
    {
      "geometry": {
        "type": "Point",
        "coordinates": [
          120.359444,
          22.943056
        ]
      },
      "type": "Feature",
      "properties": {
        "hierarchy": [
          "tgn:7500879",
          "tgn:1000004",
          "tgn:7490934",
          "tgn:1000141",
          "tgn:7029392"
        ],
        "placetype": [
          "aat:300007595"
        ],
        "id": 7500879,
        "name:xx": "Qingshui Tan"
      }
    }
  ]
}
