{
  "type": "FeatureCollection",
  "features": [
    {
      "geometry": {
        "type": "Point",
        "coordinates": [
          121.548544,
          25.292794
        ]
      },
      "type": "Feature",
      "properties": {
        "hierarchy": [
          "tgn:7475290",
          "tgn:1000004",
          "tgn:1000454",
          "tgn:1000141",
          "tgn:7029392"
        ],
        "placetype": [
          "aat:300387057"
        ],
        "id": 7475290,
        "name:xx": "Laomei Xikou"
      }
    },
    {
      "geometry": {
        "type": "Point",
        "coordinates": [
          121.574762,
          25.250552
        ]
      },
      "type": "Feature",
      "properties": {
        "hierarchy": [
          "tgn:7475291",
          "tgn:1000004",
          "tgn:1000454",
          "tgn:1000141",
          "tgn:7029392"
        ],
        "placetype": [
          "aat:300008798"
        ],
        "id": 7475291,
        "name:xx": "Jiuxionglin Shan"
      }
    },
    {
      "geometry": {
        "type": "Point",
        "coordinates": [
          121.543407,
          25.265883
        ]
      },
      "type": "Feature",
      "properties": {
        "hierarchy": [
          "tgn:7475292",
          "tgn:1000004",
          "tgn:1000454",
          "tgn:1000141",
          "tgn:7029392"
        ],
        "placetype": [
          "aat:300008347"
        ],
        "id": 7475292,
        "name:xx": "Waihengshan"
      }
    },
    {
      "geometry": {
        "type": "Point",
        "coordinates": [
          121.510059,
          25.268359
        ]
      },
      "type": "Feature",
      "properties": {
        "hierarchy": [
          "tgn:7475293",
          "tgn:1000004",
          "tgn:1000454",
          "tgn:1000141",
          "tgn:7029392"
        ],
        "placetype": [
          "aat:300007836"
        ],
        "id": 7475293,
        "name:xx": "Dishiqihao Qiao"
      }
    },
    {
      "geometry": {
        "type": "Point",
        "coordinates": [
          121.565848,
          25.250557
        ]
      },
      "type": "Feature",
      "properties": {
        "hierarchy": [
          "tgn:7475294",
          "tgn:1000004",
          "tgn:1000454",
          "tgn:1000141",
          "tgn:7029392"
        ],
        "placetype": [
          "aat:300007836"
        ],
        "id": 7475294,
        "name:xx": "Jianshanhu Qiao"
      }
    },
    {
      "geometry": {
        "type": "Point",
        "coordinates": [
          121.547474,
          25.289411
        ]
      },
      "type": "Feature",
      "properties": {
        "hierarchy": [
          "tgn:7475295",
          "tgn:1000004",
          "tgn:1000454",
          "tgn:1000141",
          "tgn:7029392"
        ],
        "placetype": [
          "aat:300007836"
        ],
        "id": 7475295,
        "name:xx": "Ershisanhao Qiao"
      }
    },
    {
      "geometry": {
        "type": "Point",
        "coordinates": [
          121.543989,
          25.290061
        ]
      },
      "type": "Feature",
      "properties": {
        "hierarchy": [
          "tgn:7475296",
          "tgn:1000004",
          "tgn:1000454",
          "tgn:1000141",
          "tgn:7029392"
        ],
        "placetype": [
          "aat:300007836"
        ],
        "id": 7475296,
        "name:xx": "Di'ershi'erhao Qiao"
      }
    },
    {
      "geometry": {
        "type": "Point",
        "coordinates": [
          121.54826,
          25.257414
        ]
      },
      "type": "Feature",
      "properties": {
        "hierarchy": [
          "tgn:7475297",
          "tgn:1000004",
          "tgn:1000454",
          "tgn:1000141",
          "tgn:7029392"
        ],
        "placetype": [
          "aat:300007836"
        ],
        "id": 7475297,
        "name:xx": "Shiheng Yihao Qiao"
      }
    },
    {
      "geometry": {
        "type": "Point",
        "coordinates": [
          121.606907,
          25.278826
        ]
      },
      "type": "Feature",
      "properties": {
        "hierarchy": [
          "tgn:7475298",
          "tgn:1000004",
          "tgn:1000454",
          "tgn:1000141",
          "tgn:7029392"
        ],
        "placetype": [
          "aat:300006495"
        ],
        "id": 7475298,
        "name:xx": "Qianhua Guoxiao Fenxiao"
      }
    },
    {
      "geometry": {
        "type": "Point",
        "coordinates": [
          121.546346,
          25.292693
        ]
      },
      "type": "Feature",
      "properties": {
        "hierarchy": [
          "tgn:7475299",
          "tgn:1000004",
          "tgn:1000454",
          "tgn:1000141",
          "tgn:7029392"
        ],
        "placetype": [
          "aat:300008699"
        ],
        "id": 7475299,
        "name:xx": "Xiaokengzi Xi"
      }
    }
  ]
}
