{
  "type": "FeatureCollection",
  "features": [
    {
      "geometry": {
        "type": "Point",
        "coordinates": [
          120.164769,
          23.496586
        ]
      },
      "type": "Feature",
      "properties": {
        "hierarchy": [
          "tgn:7467610",
          "tgn:1000004",
          "tgn:7001014",
          "tgn:1000141",
          "tgn:7029392"
        ],
        "placetype": [
          "aat:300000206"
        ],
        "id": 7467610,
        "name:xx": "Aogu Nongchang"
      }
    },
    {
      "geometry": {
        "type": "Point",
        "coordinates": [
          120.173193,
          23.493878
        ]
      },
      "type": "Feature",
      "properties": {
        "hierarchy": [
          "tgn:7467611",
          "tgn:7468018",
          "tgn:1000004",
          "tgn:1000141",
          "tgn:7029392"
        ],
        "placetype": [
          "aat:300008347"
        ],
        "id": 7467611,
        "name:xx": "Aogu"
      }
    },
    {
      "geometry": {
        "type": "Point",
        "coordinates": [
          121.765556,
          24.326111
        ]
      },
      "type": "Feature",
      "properties": {
        "hierarchy": [
          "tgn:7467612",
          "tgn:1000004",
          "tgn:7489179",
          "tgn:1000141",
          "tgn:7029392"
        ],
        "placetype": [
          "aat:300008347"
        ],
        "id": 7467612,
        "name:xx": "Aohua"
      }
    },
    {
      "geometry": {
        "type": "Point",
        "coordinates": [
          120.817736,
          24.138105
        ]
      },
      "type": "Feature",
      "properties": {
        "hierarchy": [
          "tgn:7467614",
          "tgn:1000004",
          "tgn:7001009",
          "tgn:1000141",
          "tgn:7029392"
        ],
        "placetype": [
          "aat:300008798"
        ],
        "id": 7467614,
        "name:xx": "Anying Shan"
      }
    },
    {
      "geometry": {
        "type": "Point",
        "coordinates": [
          120.886853,
          24.523523
        ]
      },
      "type": "Feature",
      "properties": {
        "hierarchy": [
          "tgn:7467615",
          "tgn:7487020",
          "tgn:1000004",
          "tgn:1000141",
          "tgn:7029392"
        ],
        "placetype": [
          "aat:300008347"
        ],
        "id": 7467615,
        "name:xx": "Anying"
      }
    },
    {
      "geometry": {
        "type": "Point",
        "coordinates": [
          120.245,
          23.158611
        ]
      },
      "type": "Feature",
      "properties": {
        "hierarchy": [
          "tgn:7467616",
          "tgn:1000004",
          "tgn:7490934",
          "tgn:1000141",
          "tgn:7029392"
        ],
        "placetype": [
          "aat:300008347"
        ],
        "id": 7467616,
        "name:xx": "Anye"
      }
    },
    {
      "geometry": {
        "type": "Point",
        "coordinates": [
          121.480303,
          25.216645
        ]
      },
      "type": "Feature",
      "properties": {
        "hierarchy": [
          "tgn:7467617",
          "tgn:1000004",
          "tgn:1000454",
          "tgn:1000141",
          "tgn:7029392"
        ],
        "placetype": [
          "aat:300008347"
        ],
        "id": 7467617,
        "name:xx": "Anzinei"
      }
    },
    {
      "geometry": {
        "type": "Point",
        "coordinates": [
          121.36453,
          23.25813
        ]
      },
      "type": "Feature",
      "properties": {
        "hierarchy": [
          "tgn:7467618",
          "tgn:1000004",
          "tgn:7491221",
          "tgn:1000141",
          "tgn:7029392"
        ],
        "placetype": [
          "aat:300008795"
        ],
        "id": 7467618,
        "name:xx": "Antongyue Shan"
      }
    },
    {
      "geometry": {
        "type": "Point",
        "coordinates": [
          121.342465,
          23.280804
        ]
      },
      "type": "Feature",
      "properties": {
        "hierarchy": [
          "tgn:7467619",
          "tgn:7001010",
          "tgn:1000004",
          "tgn:1000141",
          "tgn:7029392"
        ],
        "placetype": [
          "aat:300008697"
        ],
        "id": 7467619,
        "name:xx": "Antong Wenquan"
      }
    }
  ]
}
