{
  "type": "FeatureCollection",
  "features": [
    {
      "geometry": {
        "type": "Point",
        "coordinates": [
          118.331389,
          24.4625
        ]
      },
      "type": "Feature",
      "properties": {
        "hierarchy": [
          "tgn:7469150",
          "tgn:7469009",
          "tgn:1000004",
          "tgn:1000141",
          "tgn:7029392"
        ],
        "placetype": [
          "aat:300008347"
        ],
        "id": 7469150,
        "name:xx": "Xibao"
      }
    },
    {
      "geometry": {
        "type": "Point",
        "coordinates": [
          120.674438,
          24.231236
        ]
      },
      "type": "Feature",
      "properties": {
        "hierarchy": [
          "tgn:7469151",
          "tgn:1000004",
          "tgn:7001009",
          "tgn:1000141",
          "tgn:7029392"
        ],
        "placetype": [
          "aat:300008347"
        ],
        "id": 7469151,
        "name:xx": "Huamei"
      }
    },
    {
      "geometry": {
        "type": "Point",
        "coordinates": [
          121.483611,
          24.201389
        ]
      },
      "type": "Feature",
      "properties": {
        "hierarchy": [
          "tgn:7469152",
          "tgn:7001010",
          "tgn:1000004",
          "tgn:1000141",
          "tgn:7029392"
        ],
        "placetype": [
          "aat:300008347"
        ],
        "id": 7469152,
        "name:xx": "Xibao"
      }
    },
    {
      "geometry": {
        "type": "Point",
        "coordinates": [
          120.416428,
          23.9656
        ]
      },
      "type": "Feature",
      "properties": {
        "hierarchy": [
          "tgn:7469153",
          "tgn:1000004",
          "tgn:7467799",
          "tgn:1000141",
          "tgn:7029392"
        ],
        "placetype": [
          "aat:300008347"
        ],
        "id": 7469153,
        "name:xx": "Xibao"
      }
    },
    {
      "geometry": {
        "type": "Point",
        "coordinates": [
          120.535595,
          23.900896
        ]
      },
      "type": "Feature",
      "properties": {
        "hierarchy": [
          "tgn:7469154",
          "tgn:1000004",
          "tgn:7467799",
          "tgn:1000141",
          "tgn:7029392"
        ],
        "placetype": [
          "aat:300387173"
        ],
        "id": 7469154,
        "name:xx": "Xipan Cun"
      }
    },
    {
      "geometry": {
        "type": "Point",
        "coordinates": [
          120.5403,
          23.8324
        ]
      },
      "type": "Feature",
      "properties": {
        "hierarchy": [
          "tgn:7469155",
          "tgn:1000004",
          "tgn:7467799",
          "tgn:1000141",
          "tgn:7029392"
        ],
        "placetype": [
          "aat:300008347"
        ],
        "id": 7469155,
        "name:xx": "Xipan"
      }
    },
    {
      "geometry": {
        "type": "Point",
        "coordinates": [
          120.641713,
          24.097243
        ]
      },
      "type": "Feature",
      "properties": {
        "hierarchy": [
          "tgn:7469157",
          "tgn:1000004",
          "tgn:7001009",
          "tgn:1000141",
          "tgn:7029392"
        ],
        "placetype": [
          "aat:300008347"
        ],
        "id": 7469157,
        "name:xx": "Xixinba"
      }
    },
    {
      "geometry": {
        "type": "Point",
        "coordinates": [
          120.303889,
          22.806111
        ]
      },
      "type": "Feature",
      "properties": {
        "hierarchy": [
          "tgn:7469158",
          "tgn:7001004",
          "tgn:1000004",
          "tgn:1000141",
          "tgn:7029392"
        ],
        "placetype": [
          "aat:300008347"
        ],
        "id": 7469158,
        "name:xx": "Xinyuan"
      }
    },
    {
      "geometry": {
        "type": "Point",
        "coordinates": [
          120.285,
          22.891389
        ]
      },
      "type": "Feature",
      "properties": {
        "hierarchy": [
          "tgn:7469159",
          "tgn:7001004",
          "tgn:1000004",
          "tgn:1000141",
          "tgn:7029392"
        ],
        "placetype": [
          "aat:300000206"
        ],
        "id": 7469159,
        "name:xx": "Xinyuan Nongchang"
      }
    }
  ]
}
