{
  "type": "FeatureCollection",
  "features": [
    {
      "geometry": {
        "type": "Point",
        "coordinates": [
          78.563653,
          24.742411
        ]
      },
      "type": "Feature",
      "properties": {
        "hierarchy": [
          "tgn:7573440",
          "tgn:1000004",
          "tgn:7000198",
          "tgn:7016722",
          "tgn:7029392"
        ],
        "placetype": [
          "aat:300008347"
        ],
        "name:en": "Kachnoda Kal훮n",
        "id": 7573440
      }
    },
    {
      "geometry": {
        "type": "Point",
        "coordinates": [
          75.1084,
          23.841209
        ]
      },
      "type": "Feature",
      "properties": {
        "hierarchy": [
          "tgn:7573441",
          "tgn:1000004",
          "tgn:7000198",
          "tgn:1001894",
          "tgn:7029392"
        ],
        "placetype": [
          "aat:300008347"
        ],
        "name:en": "Kachn훮ra",
        "id": 7573441
      }
    },
    {
      "geometry": {
        "type": "Point",
        "coordinates": [
          77.633611,
          24.435684
        ]
      },
      "type": "Feature",
      "properties": {
        "hierarchy": [
          "tgn:7573442",
          "tgn:1000004",
          "tgn:7000198",
          "tgn:1001894",
          "tgn:7029392"
        ],
        "placetype": [
          "aat:300008347"
        ],
        "name:en": "Kachn훮r",
        "id": 7573442
      }
    },
    {
      "geometry": {
        "type": "Point",
        "coordinates": [
          88.01927,
          25.635824
        ]
      },
      "type": "Feature",
      "properties": {
        "hierarchy": [
          "tgn:7573443",
          "tgn:1000004",
          "tgn:7000198",
          "tgn:1001977",
          "tgn:7029392"
        ],
        "placetype": [
          "aat:300007783"
        ],
        "name:en": "Kachna",
        "id": 7573443
      }
    },
    {
      "geometry": {
        "type": "Point",
        "coordinates": [
          68.95,
          22.333333
        ]
      },
      "type": "Feature",
      "properties": {
        "hierarchy": [
          "tgn:7573444",
          "tgn:1000004",
          "tgn:1001869",
          "tgn:7000198",
          "tgn:7029392"
        ],
        "placetype": [
          "aat:300008347"
        ],
        "name:en": "Kachchigadh",
        "id": 7573444
      }
    },
    {
      "geometry": {
        "type": "Point",
        "coordinates": [
          80.078256,
          23.390212
        ]
      },
      "type": "Feature",
      "properties": {
        "hierarchy": [
          "tgn:7573446",
          "tgn:1000004",
          "tgn:7000198",
          "tgn:1001894",
          "tgn:7029392"
        ],
        "placetype": [
          "aat:300008347"
        ],
        "name:en": "Kachhpura",
        "id": 7573446
      }
    },
    {
      "geometry": {
        "type": "Point",
        "coordinates": [
          72.966667,
          20.833333
        ]
      },
      "type": "Feature",
      "properties": {
        "hierarchy": [
          "tgn:7573447",
          "tgn:1000004",
          "tgn:1001869",
          "tgn:7000198",
          "tgn:7029392"
        ],
        "placetype": [
          "aat:300008347"
        ],
        "name:en": "Kachholi",
        "id": 7573447
      }
    },
    {
      "geometry": {
        "type": "Point",
        "coordinates": [
          78.869399,
          27.952984
        ]
      },
      "type": "Feature",
      "properties": {
        "hierarchy": [
          "tgn:7573448",
          "tgn:1000004",
          "tgn:7000198",
          "tgn:7016722",
          "tgn:7029392"
        ],
        "placetype": [
          "aat:300007783"
        ],
        "name:en": "Kachhla Gh훮t",
        "id": 7573448
      }
    },
    {
      "geometry": {
        "type": "Point",
        "coordinates": [
          80.343847,
          27.160901
        ]
      },
      "type": "Feature",
      "properties": {
        "hierarchy": [
          "tgn:7573449",
          "tgn:1000004",
          "tgn:7000198",
          "tgn:7016722",
          "tgn:7029392"
        ],
        "placetype": [
          "aat:300008347"
        ],
        "name:en": "Kachhauna",
        "id": 7573449
      }
    }
  ]
}
