{
  "type": "FeatureCollection",
  "features": [
    {
      "geometry": {
        "type": "Point",
        "coordinates": [
          79.416751,
          27.20971
        ]
      },
      "type": "Feature",
      "properties": {
        "hierarchy": [
          "tgn:7560610",
          "tgn:1000004",
          "tgn:7000198",
          "tgn:7016722",
          "tgn:7029392"
        ],
        "placetype": [
          "aat:300008347"
        ],
        "name:en": "Mānpur",
        "id": 7560610
      }
    },
    {
      "geometry": {
        "type": "Point",
        "coordinates": [
          79.423958,
          27.214414
        ]
      },
      "type": "Feature",
      "properties": {
        "hierarchy": [
          "tgn:7560611",
          "tgn:1000004",
          "tgn:7000198",
          "tgn:7016722",
          "tgn:7029392"
        ],
        "placetype": [
          "aat:300008347"
        ],
        "name:en": "Nagla Ahīrān",
        "id": 7560611
      }
    },
    {
      "geometry": {
        "type": "Point",
        "coordinates": [
          79.421482,
          27.213315
        ]
      },
      "type": "Feature",
      "properties": {
        "hierarchy": [
          "tgn:7560612",
          "tgn:1000004",
          "tgn:7000198",
          "tgn:7016722",
          "tgn:7029392"
        ],
        "placetype": [
          "aat:300008347"
        ],
        "name:en": "Dīnpur",
        "id": 7560612
      }
    },
    {
      "geometry": {
        "type": "Point",
        "coordinates": [
          79.416593,
          27.216648
        ]
      },
      "type": "Feature",
      "properties": {
        "hierarchy": [
          "tgn:7560613",
          "tgn:1000004",
          "tgn:7000198",
          "tgn:7016722",
          "tgn:7029392"
        ],
        "placetype": [
          "aat:300008347"
        ],
        "name:en": "Farīdpur",
        "id": 7560613
      }
    },
    {
      "geometry": {
        "type": "Point",
        "coordinates": [
          79.454939,
          27.220042
        ]
      },
      "type": "Feature",
      "properties": {
        "hierarchy": [
          "tgn:7560614",
          "tgn:1000004",
          "tgn:7000198",
          "tgn:7016722",
          "tgn:7029392"
        ],
        "placetype": [
          "aat:300008347"
        ],
        "name:en": "Nagla Bhagtan",
        "id": 7560614
      }
    },
    {
      "geometry": {
        "type": "Point",
        "coordinates": [
          79.45737,
          27.217815
        ]
      },
      "type": "Feature",
      "properties": {
        "hierarchy": [
          "tgn:7560615",
          "tgn:1000004",
          "tgn:7000198",
          "tgn:7016722",
          "tgn:7029392"
        ],
        "placetype": [
          "aat:300008347"
        ],
        "name:en": "Nagla Gansahāi",
        "id": 7560615
      }
    },
    {
      "geometry": {
        "type": "Point",
        "coordinates": [
          79.465935,
          27.220356
        ]
      },
      "type": "Feature",
      "properties": {
        "hierarchy": [
          "tgn:7560616",
          "tgn:1000004",
          "tgn:7000198",
          "tgn:7016722",
          "tgn:7029392"
        ],
        "placetype": [
          "aat:300008347"
        ],
        "name:en": "Nagaria",
        "id": 7560616
      }
    },
    {
      "geometry": {
        "type": "Point",
        "coordinates": [
          79.48191,
          27.216385
        ]
      },
      "type": "Feature",
      "properties": {
        "hierarchy": [
          "tgn:7560617",
          "tgn:1000004",
          "tgn:7000198",
          "tgn:7016722",
          "tgn:7029392"
        ],
        "placetype": [
          "aat:300387042"
        ],
        "name:en": "Kumhauli Ghāt",
        "id": 7560617
      }
    },
    {
      "geometry": {
        "type": "Point",
        "coordinates": [
          79.476479,
          27.223202
        ]
      },
      "type": "Feature",
      "properties": {
        "hierarchy": [
          "tgn:7560618",
          "tgn:1000004",
          "tgn:7000198",
          "tgn:7016722",
          "tgn:7029392"
        ],
        "placetype": [
          "aat:300008347"
        ],
        "name:en": "Abhaipur",
        "id": 7560618
      }
    },
    {
      "geometry": {
        "type": "Point",
        "coordinates": [
          79.491013,
          27.221223
        ]
      },
      "type": "Feature",
      "properties": {
        "hierarchy": [
          "tgn:7560619",
          "tgn:1000004",
          "tgn:7000198",
          "tgn:7016722",
          "tgn:7029392"
        ],
        "placetype": [
          "aat:300008347"
        ],
        "name:en": "Nagla Jasu",
        "id": 7560619
      }
    }
  ]
}
