{
  "type": "FeatureCollection",
  "features": [
    {
      "geometry": {
        "type": "Point",
        "coordinates": [
          76.86701,
          30.068942
        ]
      },
      "type": "Feature",
      "properties": {
        "hierarchy": [
          "tgn:7583170",
          "tgn:1000004",
          "tgn:1001871",
          "tgn:7000198",
          "tgn:7029392"
        ],
        "placetype": [
          "aat:300008347"
        ],
        "name:en": "Chanārthal",
        "id": 7583170
      }
    },
    {
      "geometry": {
        "type": "Point",
        "coordinates": [
          76.955284,
          30.061892
        ]
      },
      "type": "Feature",
      "properties": {
        "hierarchy": [
          "tgn:7583171",
          "tgn:1000004",
          "tgn:1001871",
          "tgn:7000198",
          "tgn:7029392"
        ],
        "placetype": [
          "aat:300008347"
        ],
        "name:en": "Bhagwānpur",
        "id": 7583171
      }
    },
    {
      "geometry": {
        "type": "Point",
        "coordinates": [
          76.964576,
          30.062799
        ]
      },
      "type": "Feature",
      "properties": {
        "hierarchy": [
          "tgn:7583172",
          "tgn:1000004",
          "tgn:1001871",
          "tgn:7000198",
          "tgn:7029392"
        ],
        "placetype": [
          "aat:300008347"
        ],
        "name:en": "Binat",
        "id": 7583172
      }
    },
    {
      "geometry": {
        "type": "Point",
        "coordinates": [
          76.99665,
          30.055972
        ]
      },
      "type": "Feature",
      "properties": {
        "hierarchy": [
          "tgn:7583173",
          "tgn:1000004",
          "tgn:1001871",
          "tgn:7000198",
          "tgn:7029392"
        ],
        "placetype": [
          "aat:300008347"
        ],
        "name:en": "Gohan",
        "id": 7583173
      }
    },
    {
      "geometry": {
        "type": "Point",
        "coordinates": [
          76.936182,
          30.071038
        ]
      },
      "type": "Feature",
      "properties": {
        "hierarchy": [
          "tgn:7583174",
          "tgn:1000004",
          "tgn:1001871",
          "tgn:7000198",
          "tgn:7029392"
        ],
        "placetype": [
          "aat:300008347"
        ],
        "name:en": "Rāmnagar",
        "id": 7583174
      }
    },
    {
      "geometry": {
        "type": "Point",
        "coordinates": [
          76.928654,
          30.06979
        ]
      },
      "type": "Feature",
      "properties": {
        "hierarchy": [
          "tgn:7583175",
          "tgn:1000004",
          "tgn:1001871",
          "tgn:7000198",
          "tgn:7029392"
        ],
        "placetype": [
          "aat:300008347"
        ],
        "name:en": "Kalāl Mājra",
        "id": 7583175
      }
    },
    {
      "geometry": {
        "type": "Point",
        "coordinates": [
          76.920589,
          30.07475
        ]
      },
      "type": "Feature",
      "properties": {
        "hierarchy": [
          "tgn:7583176",
          "tgn:1000004",
          "tgn:1001871",
          "tgn:7000198",
          "tgn:7029392"
        ],
        "placetype": [
          "aat:300008347"
        ],
        "name:en": "Jāl Kheri",
        "id": 7583176
      }
    },
    {
      "geometry": {
        "type": "Point",
        "coordinates": [
          76.901103,
          30.079186
        ]
      },
      "type": "Feature",
      "properties": {
        "hierarchy": [
          "tgn:7583177",
          "tgn:1000004",
          "tgn:1001871",
          "tgn:7000198",
          "tgn:7029392"
        ],
        "placetype": [
          "aat:300387086"
        ],
        "name:en": "Lenda Jhīl",
        "id": 7583177
      }
    },
    {
      "geometry": {
        "type": "Point",
        "coordinates": [
          76.884332,
          30.001927
        ]
      },
      "type": "Feature",
      "properties": {
        "hierarchy": [
          "tgn:7583178",
          "tgn:1000004",
          "tgn:1001871",
          "tgn:7000198",
          "tgn:7029392"
        ],
        "placetype": [
          "aat:300008347"
        ],
        "name:en": "Sāonla",
        "id": 7583178
      }
    },
    {
      "geometry": {
        "type": "Point",
        "coordinates": [
          76.842216,
          30.081452
        ]
      },
      "type": "Feature",
      "properties": {
        "hierarchy": [
          "tgn:7583179",
          "tgn:1000004",
          "tgn:1001871",
          "tgn:7000198",
          "tgn:7029392"
        ],
        "placetype": [
          "aat:300008347"
        ],
        "name:en": "Atwān",
        "id": 7583179
      }
    }
  ]
}
