{
  "type": "FeatureCollection",
  "features": [
    {
      "geometry": {
        "type": "Point",
        "coordinates": [
          75.840776,
          34.429779
        ]
      },
      "type": "Feature",
      "properties": {
        "hierarchy": [
          "tgn:7578561",
          "tgn:1000004",
          "tgn:7000198",
          "tgn:7000799",
          "tgn:7029392"
        ],
        "placetype": [
          "aat:300008347"
        ],
        "name:en": "Tungus",
        "id": 7578561
      }
    },
    {
      "geometry": {
        "type": "Point",
        "coordinates": [
          76.084005,
          32.677771
        ]
      },
      "type": "Feature",
      "properties": {
        "hierarchy": [
          "tgn:7578562",
          "tgn:1000004",
          "tgn:7000198",
          "tgn:1001996",
          "tgn:7029392"
        ],
        "placetype": [
          "aat:300008347"
        ],
        "name:en": "Tungūna",
        "id": 7578562
      }
    },
    {
      "geometry": {
        "type": "Point",
        "coordinates": [
          84.225954,
          26.724888
        ]
      },
      "type": "Feature",
      "properties": {
        "hierarchy": [
          "tgn:7578563",
          "tgn:1000004",
          "tgn:7000198",
          "tgn:7016722",
          "tgn:7029392"
        ],
        "placetype": [
          "aat:300007783"
        ],
        "name:en": "Tamkuhi Road",
        "id": 7578563
      }
    },
    {
      "geometry": {
        "type": "Point",
        "coordinates": [
          82.836532,
          23.626969
        ]
      },
      "type": "Feature",
      "properties": {
        "hierarchy": [
          "tgn:7578565",
          "tgn:1000004",
          "tgn:7031781",
          "tgn:7000198",
          "tgn:7029392"
        ],
        "placetype": [
          "aat:300008347"
        ],
        "name:en": "Tamki",
        "id": 7578565
      }
    },
    {
      "geometry": {
        "type": "Point",
        "coordinates": [
          95.006385,
          26.382256
        ]
      },
      "type": "Feature",
      "properties": {
        "hierarchy": [
          "tgn:7578566",
          "tgn:1000004",
          "tgn:7000198",
          "tgn:1001905",
          "tgn:7029392"
        ],
        "placetype": [
          "aat:300008347"
        ],
        "name:en": "Tamkhung",
        "id": 7578566
      }
    },
    {
      "geometry": {
        "type": "Point",
        "coordinates": [
          94.571213,
          28.907737
        ]
      },
      "type": "Feature",
      "properties": {
        "hierarchy": [
          "tgn:7578568",
          "tgn:7001819",
          "tgn:1000004",
          "tgn:7000198",
          "tgn:7029392"
        ],
        "placetype": [
          "aat:300008347"
        ],
        "name:en": "Tamid Arung",
        "id": 7578568
      }
    },
    {
      "geometry": {
        "type": "Point",
        "coordinates": [
          78.66943,
          22.342904
        ]
      },
      "type": "Feature",
      "properties": {
        "hierarchy": [
          "tgn:7578569",
          "tgn:1000004",
          "tgn:7000198",
          "tgn:1001894",
          "tgn:7029392"
        ],
        "placetype": [
          "aat:300008347"
        ],
        "name:en": "Tāmia",
        "id": 7578569
      }
    }
  ]
}
