{
  "type": "FeatureCollection",
  "features": [
    {
      "geometry": {
        "type": "Point",
        "coordinates": [
          120.439444,
          22.843056
        ]
      },
      "type": "Feature",
      "properties": {
        "hierarchy": [
          "tgn:7503560",
          "tgn:7001004",
          "tgn:1000004",
          "tgn:1000141",
          "tgn:7029392"
        ],
        "placetype": [
          "aat:300008347"
        ],
        "id": 7503560,
        "name:xx": "Kunshan"
      }
    },
    {
      "geometry": {
        "type": "Point",
        "coordinates": [
          120.445,
          22.824167
        ]
      },
      "type": "Feature",
      "properties": {
        "hierarchy": [
          "tgn:7503561",
          "tgn:7001004",
          "tgn:1000004",
          "tgn:1000141",
          "tgn:7029392"
        ],
        "placetype": [
          "aat:300008347"
        ],
        "id": 7503561,
        "name:xx": "Wangdiding"
      }
    },
    {
      "geometry": {
        "type": "Point",
        "coordinates": [
          120.473889,
          22.850833
        ]
      },
      "type": "Feature",
      "properties": {
        "hierarchy": [
          "tgn:7503562",
          "tgn:7001004",
          "tgn:1000004",
          "tgn:1000141",
          "tgn:7029392"
        ],
        "placetype": [
          "aat:300387033"
        ],
        "id": 7503562,
        "name:xx": "Banpou"
      }
    },
    {
      "geometry": {
        "type": "Point",
        "coordinates": [
          120.483333,
          22.863056
        ]
      },
      "type": "Feature",
      "properties": {
        "hierarchy": [
          "tgn:7503563",
          "tgn:7001004",
          "tgn:1000004",
          "tgn:1000141",
          "tgn:7029392"
        ],
        "placetype": [
          "aat:300008347"
        ],
        "id": 7503563,
        "name:xx": "Shibafen"
      }
    },
    {
      "geometry": {
        "type": "Point",
        "coordinates": [
          120.445278,
          22.750556
        ]
      },
      "type": "Feature",
      "properties": {
        "hierarchy": [
          "tgn:7503564",
          "tgn:1000004",
          "tgn:7492971",
          "tgn:1000141",
          "tgn:7029392"
        ],
        "placetype": [
          "aat:300008347"
        ],
        "id": 7503564,
        "name:xx": "Foguangshan"
      }
    },
    {
      "geometry": {
        "type": "Point",
        "coordinates": [
          120.470278,
          22.819444
        ]
      },
      "type": "Feature",
      "properties": {
        "hierarchy": [
          "tgn:7503565",
          "tgn:1000004",
          "tgn:7492971",
          "tgn:1000141",
          "tgn:7029392"
        ],
        "placetype": [
          "aat:300008347"
        ],
        "id": 7503565,
        "name:xx": "Buwei"
      }
    },
    {
      "geometry": {
        "type": "Point",
        "coordinates": [
          120.463611,
          22.833056
        ]
      },
      "type": "Feature",
      "properties": {
        "hierarchy": [
          "tgn:7503567",
          "tgn:7001004",
          "tgn:1000004",
          "tgn:1000141",
          "tgn:7029392"
        ],
        "placetype": [
          "aat:300007595"
        ],
        "id": 7503567,
        "name:xx": "Sanlong Si"
      }
    },
    {
      "geometry": {
        "type": "Point",
        "coordinates": [
          120.4825,
          22.879722
        ]
      },
      "type": "Feature",
      "properties": {
        "hierarchy": [
          "tgn:7503568",
          "tgn:7001004",
          "tgn:1000004",
          "tgn:1000141",
          "tgn:7029392"
        ],
        "placetype": [
          "aat:300006676"
        ],
        "id": 7503568,
        "name:xx": "Qishan Yiyuan"
      }
    },
    {
      "geometry": {
        "type": "Point",
        "coordinates": [
          120.489444,
          22.881944
        ]
      },
      "type": "Feature",
      "properties": {
        "hierarchy": [
          "tgn:7503569",
          "tgn:7001004",
          "tgn:1000004",
          "tgn:1000141",
          "tgn:7029392"
        ],
        "placetype": [
          "aat:300007836"
        ],
        "id": 7503569,
        "name:xx": "Qiwei Qiao"
      }
    }
  ]
}
