{
  "type": "FeatureCollection",
  "features": [
    {
      "geometry": {
        "type": "Point",
        "coordinates": [
          79.230374,
          24.553547
        ]
      },
      "type": "Feature",
      "properties": {
        "hierarchy": [
          "tgn:7566340",
          "tgn:1000004",
          "tgn:7000198",
          "tgn:1001894",
          "tgn:7029392"
        ],
        "placetype": [
          "aat:300167671"
        ],
        "name:en": "Pathariya",
        "id": 7566340
      }
    },
    {
      "geometry": {
        "type": "Point",
        "coordinates": [
          79.248904,
          24.56297
        ]
      },
      "type": "Feature",
      "properties": {
        "hierarchy": [
          "tgn:7566341",
          "tgn:1000004",
          "tgn:7000198",
          "tgn:1001894",
          "tgn:7029392"
        ],
        "placetype": [
          "aat:300008347"
        ],
        "name:en": "Pipra Kalān",
        "id": 7566341
      }
    },
    {
      "geometry": {
        "type": "Point",
        "coordinates": [
          79.240567,
          24.560515
        ]
      },
      "type": "Feature",
      "properties": {
        "hierarchy": [
          "tgn:7566342",
          "tgn:1000004",
          "tgn:7000198",
          "tgn:1001894",
          "tgn:7029392"
        ],
        "placetype": [
          "aat:300008347"
        ],
        "name:en": "Dharampura",
        "id": 7566342
      }
    },
    {
      "geometry": {
        "type": "Point",
        "coordinates": [
          79.215397,
          24.560051
        ]
      },
      "type": "Feature",
      "properties": {
        "hierarchy": [
          "tgn:7566343",
          "tgn:1000004",
          "tgn:7000198",
          "tgn:1001894",
          "tgn:7029392"
        ],
        "placetype": [
          "aat:300008347"
        ],
        "name:en": "Lidhora",
        "id": 7566343
      }
    },
    {
      "geometry": {
        "type": "Point",
        "coordinates": [
          79.193967,
          24.561674
        ]
      },
      "type": "Feature",
      "properties": {
        "hierarchy": [
          "tgn:7566344",
          "tgn:1000004",
          "tgn:7000198",
          "tgn:1001894",
          "tgn:7029392"
        ],
        "placetype": [
          "aat:300008347"
        ],
        "name:en": "Phutwāri",
        "id": 7566344
      }
    },
    {
      "geometry": {
        "type": "Point",
        "coordinates": [
          79.17613,
          24.564493
        ]
      },
      "type": "Feature",
      "properties": {
        "hierarchy": [
          "tgn:7566345",
          "tgn:1000004",
          "tgn:7000198",
          "tgn:1001894",
          "tgn:7029392"
        ],
        "placetype": [
          "aat:300008680"
        ],
        "name:en": "Siddha Sāgar",
        "id": 7566345
      }
    },
    {
      "geometry": {
        "type": "Point",
        "coordinates": [
          79.146084,
          24.560905
        ]
      },
      "type": "Feature",
      "properties": {
        "hierarchy": [
          "tgn:7566346",
          "tgn:1000004",
          "tgn:7000198",
          "tgn:1001894",
          "tgn:7029392"
        ],
        "placetype": [
          "aat:300008347"
        ],
        "name:en": "Bandelankhera",
        "id": 7566346
      }
    },
    {
      "geometry": {
        "type": "Point",
        "coordinates": [
          79.101914,
          24.560608
        ]
      },
      "type": "Feature",
      "properties": {
        "hierarchy": [
          "tgn:7566347",
          "tgn:1000004",
          "tgn:7000198",
          "tgn:1001894",
          "tgn:7029392"
        ],
        "placetype": [
          "aat:300008347"
        ],
        "name:en": "Chaukhariyākhera",
        "id": 7566347
      }
    },
    {
      "geometry": {
        "type": "Point",
        "coordinates": [
          79.071143,
          24.559217
        ]
      },
      "type": "Feature",
      "properties": {
        "hierarchy": [
          "tgn:7566348",
          "tgn:1000004",
          "tgn:7000198",
          "tgn:1001894",
          "tgn:7029392"
        ],
        "placetype": [
          "aat:300008347"
        ],
        "name:en": "Barera",
        "id": 7566348
      }
    },
    {
      "geometry": {
        "type": "Point",
        "coordinates": [
          79.048852,
          24.559601
        ]
      },
      "type": "Feature",
      "properties": {
        "hierarchy": [
          "tgn:7566349",
          "tgn:1000004",
          "tgn:7000198",
          "tgn:1001894",
          "tgn:7029392"
        ],
        "placetype": [
          "aat:300008347"
        ],
        "name:en": "Nakaryākhera",
        "id": 7566349
      }
    }
  ]
}
