{
  "type": "FeatureCollection",
  "features": [
    {
      "geometry": {
        "type": "Point",
        "coordinates": [
          75.368806,
          28.16517
        ]
      },
      "type": "Feature",
      "properties": {
        "hierarchy": [
          "tgn:7584450",
          "tgn:1000004",
          "tgn:7000198",
          "tgn:7016788",
          "tgn:7029392"
        ],
        "placetype": [
          "aat:300008347"
        ],
        "name:en": "Bhūrāsar ka Bās",
        "id": 7584450
      }
    },
    {
      "geometry": {
        "type": "Point",
        "coordinates": [
          75.36846,
          28.185058
        ]
      },
      "type": "Feature",
      "properties": {
        "hierarchy": [
          "tgn:7584451",
          "tgn:1000004",
          "tgn:7000198",
          "tgn:7016788",
          "tgn:7029392"
        ],
        "placetype": [
          "aat:300008347"
        ],
        "name:en": "Bhairji ki Dhāni",
        "id": 7584451
      }
    },
    {
      "geometry": {
        "type": "Point",
        "coordinates": [
          75.355498,
          28.194427
        ]
      },
      "type": "Feature",
      "properties": {
        "hierarchy": [
          "tgn:7584452",
          "tgn:1000004",
          "tgn:7000198",
          "tgn:7016788",
          "tgn:7029392"
        ],
        "placetype": [
          "aat:300008347"
        ],
        "name:en": "Kāleran ka Bās",
        "id": 7584452
      }
    },
    {
      "geometry": {
        "type": "Point",
        "coordinates": [
          75.335461,
          28.187025
        ]
      },
      "type": "Feature",
      "properties": {
        "hierarchy": [
          "tgn:7584453",
          "tgn:1000004",
          "tgn:7000198",
          "tgn:7016788",
          "tgn:7029392"
        ],
        "placetype": [
          "aat:300008347"
        ],
        "name:en": "Kharkhari",
        "id": 7584453
      }
    },
    {
      "geometry": {
        "type": "Point",
        "coordinates": [
          75.312889,
          28.188712
        ]
      },
      "type": "Feature",
      "properties": {
        "hierarchy": [
          "tgn:7584454",
          "tgn:1000004",
          "tgn:7000198",
          "tgn:7016788",
          "tgn:7029392"
        ],
        "placetype": [
          "aat:300008347"
        ],
        "name:en": "Chāranwāsi",
        "id": 7584454
      }
    },
    {
      "geometry": {
        "type": "Point",
        "coordinates": [
          75.312797,
          28.194907
        ]
      },
      "type": "Feature",
      "properties": {
        "hierarchy": [
          "tgn:7584455",
          "tgn:1000004",
          "tgn:7000198",
          "tgn:7016788",
          "tgn:7029392"
        ],
        "placetype": [
          "aat:300008347"
        ],
        "name:en": "Hansāsari",
        "id": 7584455
      }
    },
    {
      "geometry": {
        "type": "Point",
        "coordinates": [
          75.288331,
          28.188022
        ]
      },
      "type": "Feature",
      "properties": {
        "hierarchy": [
          "tgn:7584456",
          "tgn:1000004",
          "tgn:7000198",
          "tgn:7016788",
          "tgn:7029392"
        ],
        "placetype": [
          "aat:300008688"
        ],
        "name:en": "Harjāna Johra",
        "id": 7584456
      }
    },
    {
      "geometry": {
        "type": "Point",
        "coordinates": [
          75.255587,
          28.193301
        ]
      },
      "type": "Feature",
      "properties": {
        "hierarchy": [
          "tgn:7584457",
          "tgn:1000004",
          "tgn:7000198",
          "tgn:7016788",
          "tgn:7029392"
        ],
        "placetype": [
          "aat:300008688"
        ],
        "name:en": "Durgāna Johra",
        "id": 7584457
      }
    },
    {
      "geometry": {
        "type": "Point",
        "coordinates": [
          75.275413,
          28.189547
        ]
      },
      "type": "Feature",
      "properties": {
        "hierarchy": [
          "tgn:7584458",
          "tgn:1000004",
          "tgn:7000198",
          "tgn:7016788",
          "tgn:7029392"
        ],
        "placetype": [
          "aat:300008688"
        ],
        "name:en": "Rāmdāsīa Johra",
        "id": 7584458
      }
    },
    {
      "geometry": {
        "type": "Point",
        "coordinates": [
          75.279681,
          28.199975
        ]
      },
      "type": "Feature",
      "properties": {
        "hierarchy": [
          "tgn:7584459",
          "tgn:1000004",
          "tgn:7000198",
          "tgn:7016788",
          "tgn:7029392"
        ],
        "placetype": [
          "aat:300008688"
        ],
        "name:en": "Gurāna Johra",
        "id": 7584459
      }
    }
  ]
}
