{
  "type": "FeatureCollection",
  "features": [
    {
      "geometry": {
        "type": "Point",
        "coordinates": [
          32.840317,
          30.873755
        ]
      },
      "type": "Feature",
      "properties": {
        "hierarchy": [
          "tgn:7538800",
          "tgn:7001242",
          "tgn:7016833",
          "tgn:7001335",
          "tgn:7029392"
        ],
        "placetype": [
          "aat:300006207"
        ],
        "id": 7538800,
        "name:xx": "Bi'r al Maqburah"
      }
    },
    {
      "geometry": {
        "type": "Point",
        "coordinates": [
          33.699323,
          27.755872
        ]
      },
      "type": "Feature",
      "properties": {
        "hierarchy": [
          "tgn:7538801",
          "tgn:7001242",
          "tgn:7001311",
          "tgn:7016833",
          "tgn:7029392"
        ],
        "placetype": [
          "aat:300008808"
        ],
        "name:en": "Muqawwarāt, Sha'ab",
        "id": 7538801
      }
    },
    {
      "geometry": {
        "type": "Point",
        "coordinates": [
          31.303262,
          30.021699
        ]
      },
      "type": "Feature",
      "properties": {
        "hierarchy": [
          "tgn:7538802",
          "tgn:7001242",
          "tgn:7016833",
          "tgn:1001091",
          "tgn:7029392"
        ],
        "placetype": [
          "aat:300008777"
        ],
        "id": 7538802,
        "name:xx": "Muqaţţam, Jabal al"
      }
    },
    {
      "geometry": {
        "type": "Point",
        "coordinates": [
          33.422916,
          28.861542
        ]
      },
      "type": "Feature",
      "properties": {
        "hierarchy": [
          "tgn:7538803",
          "tgn:7001242",
          "tgn:7016833",
          "tgn:7001336",
          "tgn:7029392"
        ],
        "placetype": [
          "aat:300379998"
        ],
        "id": 7538803,
        "name:xx": "Mukattab, Wādī"
      }
    },
    {
      "geometry": {
        "type": "Point",
        "coordinates": [
          33.418221,
          28.816558
        ]
      },
      "type": "Feature",
      "properties": {
        "hierarchy": [
          "tgn:7538804",
          "tgn:7001242",
          "tgn:7016833",
          "tgn:7001336",
          "tgn:7029392"
        ],
        "placetype": [
          "aat:300008795"
        ],
        "id": 7538804,
        "name:xx": "Mukattab, Jabal"
      }
    },
    {
      "geometry": {
        "type": "Point",
        "coordinates": [
          31.794145,
          30.807768
        ]
      },
      "type": "Feature",
      "properties": {
        "hierarchy": [
          "tgn:7538805",
          "tgn:7001242",
          "tgn:7016833",
          "tgn:1001113",
          "tgn:7029392"
        ],
        "placetype": [
          "aat:300008347"
        ],
        "name:en": "Minshā't al Qāḑī",
        "id": 7538805
      }
    },
    {
      "geometry": {
        "type": "Point",
        "coordinates": [
          30.116667,
          31.033333
        ]
      },
      "type": "Feature",
      "properties": {
        "hierarchy": [
          "tgn:7538806",
          "tgn:7001242",
          "tgn:1001075",
          "tgn:7016833",
          "tgn:7029392"
        ],
        "placetype": [
          "aat:300008347"
        ],
        "name:en": "Manshīyat al Hilbāwī",
        "id": 7538806
      }
    },
    {
      "geometry": {
        "type": "Point",
        "coordinates": [
          30.460546,
          31.008394
        ]
      },
      "type": "Feature",
      "properties": {
        "hierarchy": [
          "tgn:7538807",
          "tgn:7001242",
          "tgn:1001075",
          "tgn:7016833",
          "tgn:7029392"
        ],
        "placetype": [
          "aat:300008347"
        ],
        "name:en": "Manshīyat al Ḩabashī",
        "id": 7538807
      }
    },
    {
      "geometry": {
        "type": "Point",
        "coordinates": [
          30.816667,
          29.283333
        ]
      },
      "type": "Feature",
      "properties": {
        "hierarchy": [
          "tgn:7538808",
          "tgn:7001242",
          "tgn:7001105",
          "tgn:7016833",
          "tgn:7029392"
        ],
        "placetype": [
          "aat:300008347"
        ],
        "name:en": "Manshīyat al Barmakī",
        "id": 7538808
      }
    },
    {
      "geometry": {
        "type": "Point",
        "coordinates": [
          31.302276,
          30.083845
        ]
      },
      "type": "Feature",
      "properties": {
        "hierarchy": [
          "tgn:7538809",
          "tgn:7001242",
          "tgn:7016833",
          "tgn:1001091",
          "tgn:7029392"
        ],
        "placetype": [
          "aat:300000745"
        ],
        "id": 7538809,
        "name:xx": "Manshīyat al Bakrī"
      }
    }
  ]
}
