{
  "type": "FeatureCollection",
  "features": [
    {
      "geometry": {
        "type": "Point",
        "coordinates": [
          79.000028,
          26.815882
        ]
      },
      "type": "Feature",
      "properties": {
        "hierarchy": [
          "tgn:7560340",
          "tgn:1000004",
          "tgn:7000198",
          "tgn:7016722",
          "tgn:7029392"
        ],
        "placetype": [
          "aat:300008347"
        ],
        "name:en": "Harsauli",
        "id": 7560340
      }
    },
    {
      "geometry": {
        "type": "Point",
        "coordinates": [
          79.005521,
          26.815616
        ]
      },
      "type": "Feature",
      "properties": {
        "hierarchy": [
          "tgn:7560341",
          "tgn:1000004",
          "tgn:7000198",
          "tgn:7016722",
          "tgn:7029392"
        ],
        "placetype": [
          "aat:300008347"
        ],
        "name:en": "Kunaira",
        "id": 7560341
      }
    },
    {
      "geometry": {
        "type": "Point",
        "coordinates": [
          79.026414,
          26.818095
        ]
      },
      "type": "Feature",
      "properties": {
        "hierarchy": [
          "tgn:7560342",
          "tgn:1000004",
          "tgn:7000198",
          "tgn:7016722",
          "tgn:7029392"
        ],
        "placetype": [
          "aat:300008347"
        ],
        "name:en": "Lokāsai",
        "id": 7560342
      }
    },
    {
      "geometry": {
        "type": "Point",
        "coordinates": [
          79.023094,
          26.826817
        ]
      },
      "type": "Feature",
      "properties": {
        "hierarchy": [
          "tgn:7560343",
          "tgn:1000004",
          "tgn:7000198",
          "tgn:7016722",
          "tgn:7029392"
        ],
        "placetype": [
          "aat:300008347"
        ],
        "name:en": "Pitāmbarpur",
        "id": 7560343
      }
    },
    {
      "geometry": {
        "type": "Point",
        "coordinates": [
          79.010566,
          26.828363
        ]
      },
      "type": "Feature",
      "properties": {
        "hierarchy": [
          "tgn:7560344",
          "tgn:1000004",
          "tgn:7000198",
          "tgn:7016722",
          "tgn:7029392"
        ],
        "placetype": [
          "aat:300008347"
        ],
        "name:en": "Pātājhari",
        "id": 7560344
      }
    },
    {
      "geometry": {
        "type": "Point",
        "coordinates": [
          78.998316,
          26.831621
        ]
      },
      "type": "Feature",
      "properties": {
        "hierarchy": [
          "tgn:7560345",
          "tgn:1000004",
          "tgn:7000198",
          "tgn:7016722",
          "tgn:7029392"
        ],
        "placetype": [
          "aat:300008347"
        ],
        "name:en": "Naglakhera",
        "id": 7560345
      }
    },
    {
      "geometry": {
        "type": "Point",
        "coordinates": [
          79.361386,
          27.216183
        ]
      },
      "type": "Feature",
      "properties": {
        "hierarchy": [
          "tgn:7560346",
          "tgn:1000004",
          "tgn:7000198",
          "tgn:7016722",
          "tgn:7029392"
        ],
        "placetype": [
          "aat:300008347"
        ],
        "name:en": "Rāmnagaria",
        "id": 7560346
      }
    },
    {
      "geometry": {
        "type": "Point",
        "coordinates": [
          79.348953,
          27.22067
        ]
      },
      "type": "Feature",
      "properties": {
        "hierarchy": [
          "tgn:7560347",
          "tgn:1000004",
          "tgn:7000198",
          "tgn:7016722",
          "tgn:7029392"
        ],
        "placetype": [
          "aat:300008347"
        ],
        "name:en": "Gajiānpur",
        "id": 7560347
      }
    },
    {
      "geometry": {
        "type": "Point",
        "coordinates": [
          79.341092,
          27.225421
        ]
      },
      "type": "Feature",
      "properties": {
        "hierarchy": [
          "tgn:7560348",
          "tgn:1000004",
          "tgn:7000198",
          "tgn:7016722",
          "tgn:7029392"
        ],
        "placetype": [
          "aat:300008347"
        ],
        "name:en": "Nagla Sami",
        "id": 7560348
      }
    },
    {
      "geometry": {
        "type": "Point",
        "coordinates": [
          79.35163,
          27.234391
        ]
      },
      "type": "Feature",
      "properties": {
        "hierarchy": [
          "tgn:7560349",
          "tgn:1000004",
          "tgn:7000198",
          "tgn:7016722",
          "tgn:7029392"
        ],
        "placetype": [
          "aat:300008347"
        ],
        "name:en": "Santokhpur",
        "id": 7560349
      }
    }
  ]
}
