{
  "type": "FeatureCollection",
  "features": [
    {
      "geometry": {
        "type": "Point",
        "coordinates": [
          74.354537,
          21.974477
        ]
      },
      "type": "Feature",
      "properties": {
        "hierarchy": [
          "tgn:7556250",
          "tgn:1000004",
          "tgn:7000198",
          "tgn:1001894",
          "tgn:7029392"
        ],
        "placetype": [
          "aat:300008347"
        ],
        "name:en": "Sādri",
        "id": 7556250
      }
    },
    {
      "geometry": {
        "type": "Point",
        "coordinates": [
          72.729016,
          23.344209
        ]
      },
      "type": "Feature",
      "properties": {
        "hierarchy": [
          "tgn:7556252",
          "tgn:1000004",
          "tgn:1001869",
          "tgn:7000198",
          "tgn:7029392"
        ],
        "placetype": [
          "aat:300008347"
        ],
        "name:en": "Sādra",
        "id": 7556252
      }
    },
    {
      "geometry": {
        "type": "Point",
        "coordinates": [
          73.26835,
          28.617234
        ]
      },
      "type": "Feature",
      "properties": {
        "hierarchy": [
          "tgn:7556253",
          "tgn:1000004",
          "tgn:7000198",
          "tgn:7016788",
          "tgn:7029392"
        ],
        "placetype": [
          "aat:300008347"
        ],
        "name:en": "Sadolai",
        "id": 7556253
      }
    },
    {
      "geometry": {
        "type": "Point",
        "coordinates": [
          84.913288,
          25.562663
        ]
      },
      "type": "Feature",
      "properties": {
        "hierarchy": [
          "tgn:7556255",
          "tgn:1000004",
          "tgn:1001842",
          "tgn:7000198",
          "tgn:7029392"
        ],
        "placetype": [
          "aat:300008347"
        ],
        "name:en": "Sādisopur",
        "id": 7556255
      }
    },
    {
      "geometry": {
        "type": "Point",
        "coordinates": [
          74.579512,
          30.712232
        ]
      },
      "type": "Feature",
      "properties": {
        "hierarchy": [
          "tgn:7556256",
          "tgn:1000004",
          "tgn:7000198",
          "tgn:7016883",
          "tgn:7029392"
        ],
        "placetype": [
          "aat:300008347"
        ],
        "name:en": "Sādiq",
        "id": 7556256
      }
    },
    {
      "geometry": {
        "type": "Point",
        "coordinates": [
          83.933333,
          20.316667
        ]
      },
      "type": "Feature",
      "properties": {
        "hierarchy": [
          "tgn:7556257",
          "tgn:1000004",
          "tgn:7000198",
          "tgn:7016694",
          "tgn:7029392"
        ],
        "placetype": [
          "aat:300008347"
        ],
        "name:en": "Sādingia",
        "id": 7556257
      }
    },
    {
      "geometry": {
        "type": "Point",
        "coordinates": [
          73.901552,
          29.967231
        ]
      },
      "type": "Feature",
      "properties": {
        "hierarchy": [
          "tgn:7556258",
          "tgn:1000004",
          "tgn:7000198",
          "tgn:7016883",
          "tgn:7029392"
        ],
        "placetype": [
          "aat:300008347"
        ],
        "name:en": "Sādhuwāla",
        "id": 7556258
      }
    },
    {
      "geometry": {
        "type": "Point",
        "coordinates": [
          72.016667,
          25.483333
        ]
      },
      "type": "Feature",
      "properties": {
        "hierarchy": [
          "tgn:7556259",
          "tgn:1000004",
          "tgn:7000198",
          "tgn:7016788",
          "tgn:7029392"
        ],
        "placetype": [
          "aat:300008347"
        ],
        "name:en": "Sādhu ki Dhāni",
        "id": 7556259
      }
    }
  ]
}
