{
  "type": "FeatureCollection",
  "features": [
    {
      "geometry": {
        "type": "Point",
        "coordinates": [
          74.9875,
          32.775
        ]
      },
      "type": "Feature",
      "properties": {
        "hierarchy": [
          "tgn:7589480",
          "tgn:1000004",
          "tgn:7000198",
          "tgn:7000799",
          "tgn:7029392"
        ],
        "placetype": [
          "aat:300387033"
        ],
        "name:en": "Maura Chāmba",
        "id": 7589480
      }
    },
    {
      "geometry": {
        "type": "Point",
        "coordinates": [
          74.972222,
          32.779167
        ]
      },
      "type": "Feature",
      "properties": {
        "hierarchy": [
          "tgn:7589481",
          "tgn:1000004",
          "tgn:7000198",
          "tgn:7000799",
          "tgn:7029392"
        ],
        "placetype": [
          "aat:300008699"
        ],
        "name:en": "Largan Khad",
        "id": 7589481
      }
    },
    {
      "geometry": {
        "type": "Point",
        "coordinates": [
          74.975553,
          32.77346
        ]
      },
      "type": "Feature",
      "properties": {
        "hierarchy": [
          "tgn:7589482",
          "tgn:1000004",
          "tgn:7000198",
          "tgn:7000799",
          "tgn:7029392"
        ],
        "placetype": [
          "aat:300008347"
        ],
        "name:en": "Panghāl",
        "id": 7589482
      }
    },
    {
      "geometry": {
        "type": "Point",
        "coordinates": [
          74.952702,
          32.759932
        ]
      },
      "type": "Feature",
      "properties": {
        "hierarchy": [
          "tgn:7589483",
          "tgn:1000004",
          "tgn:7000198",
          "tgn:7000799",
          "tgn:7029392"
        ],
        "placetype": [
          "aat:300008347"
        ],
        "name:en": "Khaira Khūi",
        "id": 7589483
      }
    },
    {
      "geometry": {
        "type": "Point",
        "coordinates": [
          74.952323,
          32.770372
        ]
      },
      "type": "Feature",
      "properties": {
        "hierarchy": [
          "tgn:7589484",
          "tgn:1000004",
          "tgn:7000198",
          "tgn:7000799",
          "tgn:7029392"
        ],
        "placetype": [
          "aat:300008347"
        ],
        "name:en": "Parkālta",
        "id": 7589484
      }
    },
    {
      "geometry": {
        "type": "Point",
        "coordinates": [
          74.945471,
          32.764074
        ]
      },
      "type": "Feature",
      "properties": {
        "hierarchy": [
          "tgn:7589485",
          "tgn:1000004",
          "tgn:7000198",
          "tgn:7000799",
          "tgn:7029392"
        ],
        "placetype": [
          "aat:300008347"
        ],
        "name:en": "Chak Largān",
        "id": 7589485
      }
    },
    {
      "geometry": {
        "type": "Point",
        "coordinates": [
          74.942002,
          32.75768
        ]
      },
      "type": "Feature",
      "properties": {
        "hierarchy": [
          "tgn:7589486",
          "tgn:1000004",
          "tgn:7000198",
          "tgn:7000799",
          "tgn:7029392"
        ],
        "placetype": [
          "aat:300008347"
        ],
        "name:en": "Bajālta",
        "id": 7589486
      }
    },
    {
      "geometry": {
        "type": "Point",
        "coordinates": [
          74.929167,
          32.755556
        ]
      },
      "type": "Feature",
      "properties": {
        "hierarchy": [
          "tgn:7589487",
          "tgn:1000004",
          "tgn:7000198",
          "tgn:7000799",
          "tgn:7029392"
        ],
        "placetype": [
          "aat:300008863"
        ],
        "name:en": "Siddra Forest",
        "id": 7589487
      }
    },
    {
      "geometry": {
        "type": "Point",
        "coordinates": [
          74.926389,
          32.772222
        ]
      },
      "type": "Feature",
      "properties": {
        "hierarchy": [
          "tgn:7589488",
          "tgn:1000004",
          "tgn:7000198",
          "tgn:7000799",
          "tgn:7029392"
        ],
        "placetype": [
          "aat:300266554",
          "aat:300008699"
        ],
        "name:en": "Bāīnwāli Khad",
        "id": 7589488
      }
    },
    {
      "geometry": {
        "type": "Point",
        "coordinates": [
          74.938521,
          32.772685
        ]
      },
      "type": "Feature",
      "properties": {
        "hierarchy": [
          "tgn:7589489",
          "tgn:1000004",
          "tgn:7000198",
          "tgn:7000799",
          "tgn:7029392"
        ],
        "placetype": [
          "aat:300008347"
        ],
        "name:en": "Bāīn",
        "id": 7589489
      }
    }
  ]
}
