{
  "type": "FeatureCollection",
  "features": [
    {
      "geometry": {
        "type": "Point",
        "coordinates": [
          120.9266,
          24.1499
        ]
      },
      "type": "Feature",
      "properties": {
        "hierarchy": [
          "tgn:7474041",
          "tgn:1000004",
          "tgn:7001009",
          "tgn:1000141",
          "tgn:7029392"
        ],
        "placetype": [
          "aat:300008798"
        ],
        "id": 7474041,
        "name:xx": "Cilang Shan"
      }
    },
    {
      "geometry": {
        "type": "Point",
        "coordinates": [
          120.25,
          22.75
        ]
      },
      "type": "Feature",
      "properties": {
        "hierarchy": [
          "tgn:7474042",
          "tgn:7001004",
          "tgn:1000004",
          "tgn:1000141",
          "tgn:7029392"
        ],
        "placetype": [
          "aat:300387173"
        ],
        "id": 7474042,
        "name:xx": "Ziguan Xiang"
      }
    },
    {
      "geometry": {
        "type": "Point",
        "coordinates": [
          120.266111,
          22.761111
        ]
      },
      "type": "Feature",
      "properties": {
        "hierarchy": [
          "tgn:7474043",
          "tgn:7001004",
          "tgn:1000004",
          "tgn:1000141",
          "tgn:7029392"
        ],
        "placetype": [
          "aat:300008347"
        ],
        "id": 7474043,
        "name:xx": "Ziguan"
      }
    },
    {
      "geometry": {
        "type": "Point",
        "coordinates": [
          121.6195,
          24.9673
        ]
      },
      "type": "Feature",
      "properties": {
        "hierarchy": [
          "tgn:7474044",
          "tgn:1000004",
          "tgn:1000454",
          "tgn:1000141",
          "tgn:7029392"
        ],
        "placetype": [
          "aat:300008795"
        ],
        "id": 7474044,
        "name:xx": "Shijian Shan"
      }
    },
    {
      "geometry": {
        "type": "Point",
        "coordinates": [
          121.271944,
          24.388889
        ]
      },
      "type": "Feature",
      "properties": {
        "hierarchy": [
          "tgn:7474045",
          "tgn:1000004",
          "tgn:7001009",
          "tgn:1000141",
          "tgn:7029392"
        ],
        "placetype": [
          "aat:300008798"
        ],
        "id": 7474045,
        "name:xx": "Mingjian Shan"
      }
    },
    {
      "geometry": {
        "type": "Point",
        "coordinates": [
          121.233333,
          24.416667
        ]
      },
      "type": "Feature",
      "properties": {
        "hierarchy": [
          "tgn:7474046",
          "tgn:7487020",
          "tgn:1000004",
          "tgn:1000141",
          "tgn:7029392"
        ],
        "placetype": [
          "aat:300008795"
        ],
        "id": 7474046,
        "name:xx": "Cigaobei Shan"
      }
    },
    {
      "geometry": {
        "type": "Point",
        "coordinates": [
          121.537611,
          24.422659
        ]
      },
      "type": "Feature",
      "properties": {
        "hierarchy": [
          "tgn:7474047",
          "tgn:1000004",
          "tgn:7489179",
          "tgn:1000141",
          "tgn:7029392"
        ],
        "placetype": [
          "aat:300008699"
        ],
        "id": 7474047,
        "name:xx": "Cikaogan Xi"
      }
    },
    {
      "geometry": {
        "type": "Point",
        "coordinates": [
          121.483333,
          25.083333
        ]
      },
      "type": "Feature",
      "properties": {
        "hierarchy": [
          "tgn:7474049",
          "tgn:1000004",
          "tgn:1000454",
          "tgn:1000141",
          "tgn:7029392"
        ],
        "placetype": [
          "aat:300008347"
        ],
        "id": 7474049,
        "name:xx": "Cihua"
      }
    }
  ]
}
