{
  "type": "FeatureCollection",
  "features": [
    {
      "geometry": {
        "type": "Point",
        "coordinates": [
          34.267152,
          30.671823
        ]
      },
      "type": "Feature",
      "properties": {
        "hierarchy": [
          "tgn:7539170",
          "tgn:7001242",
          "tgn:7016833",
          "tgn:7001335",
          "tgn:7029392"
        ],
        "placetype": [
          "aat:300008795"
        ],
        "id": 7539170,
        "name:xx": "Mushrāq, Jabal al"
      }
    },
    {
      "geometry": {
        "type": "Point",
        "coordinates": [
          33.423611,
          29.065833
        ]
      },
      "type": "Feature",
      "properties": {
        "hierarchy": [
          "tgn:7539171",
          "tgn:7001242",
          "tgn:7016833",
          "tgn:7001336",
          "tgn:7029392"
        ],
        "placetype": [
          "aat:300379998"
        ],
        "name:en": "Musheish, Wâdi el-",
        "id": 7539171
      }
    },
    {
      "geometry": {
        "type": "Point",
        "coordinates": [
          31.118021,
          30.42867
        ]
      },
      "type": "Feature",
      "properties": {
        "hierarchy": [
          "tgn:7539172",
          "tgn:7001242",
          "tgn:7016833",
          "tgn:1001087",
          "tgn:7029392"
        ],
        "placetype": [
          "aat:300008347"
        ],
        "id": 7539172,
        "name:xx": "Mushayrif"
      }
    },
    {
      "geometry": {
        "type": "Point",
        "coordinates": [
          32.516667,
          25.616667
        ]
      },
      "type": "Feature",
      "properties": {
        "hierarchy": [
          "tgn:7539173",
          "tgn:7001242",
          "tgn:7016833",
          "tgn:7000123",
          "tgn:7029392"
        ],
        "placetype": [
          "aat:300343519"
        ],
        "name:en": "Mushaymish, Ḩawḑ",
        "id": 7539173
      }
    },
    {
      "geometry": {
        "type": "Point",
        "coordinates": [
          31.833333,
          30.116667
        ]
      },
      "type": "Feature",
      "properties": {
        "hierarchy": [
          "tgn:7539174",
          "tgn:7001242",
          "tgn:7016833",
          "tgn:1001091",
          "tgn:7029392"
        ],
        "placetype": [
          "aat:300379998"
        ],
        "name:en": "Mushāsh al Fūl",
        "id": 7539174
      }
    },
    {
      "geometry": {
        "type": "Point",
        "coordinates": [
          32.075298,
          30.189358
        ]
      },
      "type": "Feature",
      "properties": {
        "hierarchy": [
          "tgn:7539175",
          "tgn:7001242",
          "tgn:7016833",
          "tgn:1001110",
          "tgn:7029392"
        ],
        "placetype": [
          "aat:300008777"
        ],
        "id": 7539175,
        "name:xx": "Mushāsh al 'Awāsij, Jabal"
      }
    },
    {
      "geometry": {
        "type": "Point",
        "coordinates": [
          34.693446,
          29.656154
        ]
      },
      "type": "Feature",
      "properties": {
        "hierarchy": [
          "tgn:7539176",
          "tgn:7001242",
          "tgn:7016833",
          "tgn:7001336",
          "tgn:7029392"
        ],
        "placetype": [
          "aat:300379998"
        ],
        "name:en": "Mushāsh, Wādī al",
        "id": 7539176
      }
    },
    {
      "geometry": {
        "type": "Point",
        "coordinates": [
          33.142108,
          25.835764
        ]
      },
      "type": "Feature",
      "properties": {
        "hierarchy": [
          "tgn:7539177",
          "tgn:7001242",
          "tgn:7001311",
          "tgn:7016833",
          "tgn:7029392"
        ],
        "placetype": [
          "aat:300379998"
        ],
        "name:en": "Mushāsh, Wādī al",
        "id": 7539177
      }
    },
    {
      "geometry": {
        "type": "Point",
        "coordinates": [
          32.966667,
          24.966667
        ]
      },
      "type": "Feature",
      "properties": {
        "hierarchy": [
          "tgn:7539178",
          "tgn:7001242",
          "tgn:7016833",
          "tgn:7000122",
          "tgn:7029392"
        ],
        "placetype": [
          "aat:300008777"
        ],
        "name:en": "Mushāsh, Kawlat al",
        "id": 7539178
      }
    }
  ]
}
