{
  "type": "FeatureCollection",
  "features": [
    {
      "geometry": {
        "type": "Point",
        "coordinates": [
          120.692501,
          23.254968
        ]
      },
      "type": "Feature",
      "properties": {
        "hierarchy": [
          "tgn:7494340",
          "tgn:7001004",
          "tgn:1000004",
          "tgn:1000141",
          "tgn:7029392"
        ],
        "placetype": [
          "aat:300008347"
        ],
        "id": 7494340,
        "name:xx": "Labiling"
      }
    },
    {
      "geometry": {
        "type": "Point",
        "coordinates": [
          120.541583,
          23.418148
        ]
      },
      "type": "Feature",
      "properties": {
        "hierarchy": [
          "tgn:7494341",
          "tgn:7468018",
          "tgn:1000004",
          "tgn:1000141",
          "tgn:7029392"
        ],
        "placetype": [
          "aat:300008347"
        ],
        "id": 7494341,
        "name:xx": "Wacuo"
      }
    },
    {
      "geometry": {
        "type": "Point",
        "coordinates": [
          120.540316,
          23.427098
        ]
      },
      "type": "Feature",
      "properties": {
        "hierarchy": [
          "tgn:7494342",
          "tgn:7468018",
          "tgn:1000004",
          "tgn:1000141",
          "tgn:7029392"
        ],
        "placetype": [
          "aat:300008347"
        ],
        "id": 7494342,
        "name:xx": "Banshanzi"
      }
    },
    {
      "geometry": {
        "type": "Point",
        "coordinates": [
          120.528298,
          23.42206
        ]
      },
      "type": "Feature",
      "properties": {
        "hierarchy": [
          "tgn:7494343",
          "tgn:7468018",
          "tgn:1000004",
          "tgn:1000141",
          "tgn:7029392"
        ],
        "placetype": [
          "aat:300008347"
        ],
        "id": 7494343,
        "name:xx": "Zhongjiaozi"
      }
    },
    {
      "geometry": {
        "type": "Point",
        "coordinates": [
          120.533847,
          23.434584
        ]
      },
      "type": "Feature",
      "properties": {
        "hierarchy": [
          "tgn:7494344",
          "tgn:7468018",
          "tgn:1000004",
          "tgn:1000141",
          "tgn:7029392"
        ],
        "placetype": [
          "aat:300008347"
        ],
        "id": 7494344,
        "name:xx": "Qitou"
      }
    },
    {
      "geometry": {
        "type": "Point",
        "coordinates": [
          120.529047,
          23.43344
        ]
      },
      "type": "Feature",
      "properties": {
        "hierarchy": [
          "tgn:7494345",
          "tgn:7468018",
          "tgn:1000004",
          "tgn:1000141",
          "tgn:7029392"
        ],
        "placetype": [
          "aat:300008347"
        ],
        "id": 7494345,
        "name:xx": "Dacheng"
      }
    },
    {
      "geometry": {
        "type": "Point",
        "coordinates": [
          120.511338,
          23.435617
        ]
      },
      "type": "Feature",
      "properties": {
        "hierarchy": [
          "tgn:7494346",
          "tgn:7468018",
          "tgn:1000004",
          "tgn:1000141",
          "tgn:7029392"
        ],
        "placetype": [
          "aat:300008347"
        ],
        "id": 7494346,
        "name:xx": "Xiqianzi"
      }
    },
    {
      "geometry": {
        "type": "Point",
        "coordinates": [
          120.554843,
          23.446682
        ]
      },
      "type": "Feature",
      "properties": {
        "hierarchy": [
          "tgn:7494347",
          "tgn:7468018",
          "tgn:1000004",
          "tgn:1000141",
          "tgn:7029392"
        ],
        "placetype": [
          "aat:300008347"
        ],
        "id": 7494347,
        "name:xx": "Guokengzi"
      }
    },
    {
      "geometry": {
        "type": "Point",
        "coordinates": [
          120.543901,
          23.44347
        ]
      },
      "type": "Feature",
      "properties": {
        "hierarchy": [
          "tgn:7494348",
          "tgn:7468018",
          "tgn:1000004",
          "tgn:1000141",
          "tgn:7029392"
        ],
        "placetype": [
          "aat:300008347"
        ],
        "id": 7494348,
        "name:xx": "Yangzilin"
      }
    },
    {
      "geometry": {
        "type": "Point",
        "coordinates": [
          120.554584,
          23.440016
        ]
      },
      "type": "Feature",
      "properties": {
        "hierarchy": [
          "tgn:7494349",
          "tgn:7468018",
          "tgn:1000004",
          "tgn:1000141",
          "tgn:7029392"
        ],
        "placetype": [
          "aat:300008347"
        ],
        "id": 7494349,
        "name:xx": "Dingzhaizi"
      }
    }
  ]
}
