{
  "type": "FeatureCollection",
  "features": [
    {
      "geometry": {
        "type": "Point",
        "coordinates": [
          5.633333,
          53.283333
        ]
      },
      "type": "Feature",
      "properties": {
        "hierarchy": [
          "tgn:7268900",
          "tgn:7003616",
          "tgn:1000003",
          "tgn:7016845",
          "tgn:7029392"
        ],
        "placetype": [
          "aat:300006163"
        ],
        "name:nl": "Oud Bildt, Polder op het",
        "id": 7268900
      }
    },
    {
      "geometry": {
        "type": "Point",
        "coordinates": [
          6.583333,
          52.516667
        ]
      },
      "type": "Feature",
      "properties": {
        "hierarchy": [
          "tgn:7268901",
          "tgn:1000003",
          "tgn:7003626",
          "tgn:7016845",
          "tgn:7029392"
        ],
        "placetype": [
          "aat:300008347"
        ],
        "name:nl": "Oud-Bergentheim",
        "id": 7268901
      }
    },
    {
      "geometry": {
        "type": "Point",
        "coordinates": [
          3.95,
          51.233333
        ]
      },
      "type": "Feature",
      "properties": {
        "hierarchy": [
          "tgn:7268902",
          "tgn:1000003",
          "tgn:7003635",
          "tgn:7016845",
          "tgn:7029392"
        ],
        "placetype": [
          "aat:300006163"
        ],
        "name:nl": "Oud-beoosten-Blij-bezuidenpolder",
        "id": 7268902
      }
    },
    {
      "geometry": {
        "type": "Point",
        "coordinates": [
          4.333333,
          51.816667
        ]
      },
      "type": "Feature",
      "properties": {
        "hierarchy": [
          "tgn:7268903",
          "tgn:1000003",
          "tgn:7003632",
          "tgn:7016845",
          "tgn:7029392"
        ],
        "placetype": [
          "aat:300387055"
        ],
        "name:nl": "Oud-Beijerlandsche Kreek",
        "id": 7268903
      }
    },
    {
      "geometry": {
        "type": "Point",
        "coordinates": [
          6.05,
          53.066667
        ]
      },
      "type": "Feature",
      "properties": {
        "hierarchy": [
          "tgn:7268906",
          "tgn:7003616",
          "tgn:1000003",
          "tgn:7016845",
          "tgn:7029392"
        ],
        "placetype": [
          "aat:300006163"
        ],
        "name:nl": "Oud Beets, Polder",
        "id": 7268906
      }
    },
    {
      "geometry": {
        "type": "Point",
        "coordinates": [
          6.366667,
          52.616667
        ]
      },
      "type": "Feature",
      "properties": {
        "hierarchy": [
          "tgn:7268908",
          "tgn:1000003",
          "tgn:7003626",
          "tgn:7016845",
          "tgn:7029392"
        ],
        "placetype": [
          "aat:300008347"
        ],
        "name:nl": "Oud-Avereest",
        "id": 7268908
      }
    }
  ]
}
