{
  "type": "FeatureCollection",
  "features": [
    {
      "geometry": {
        "type": "Point",
        "coordinates": [
          120.133911,
          23.268429
        ]
      },
      "type": "Feature",
      "properties": {
        "hierarchy": [
          "tgn:7480650",
          "tgn:1000004",
          "tgn:7490934",
          "tgn:1000141",
          "tgn:7029392"
        ],
        "placetype": [
          "aat:300266755"
        ],
        "id": 7480650,
        "name:xx": "Beimen Xiang Diyi Gongmu"
      }
    },
    {
      "geometry": {
        "type": "Point",
        "coordinates": [
          120.223317,
          23.272849
        ]
      },
      "type": "Feature",
      "properties": {
        "hierarchy": [
          "tgn:7480651",
          "tgn:1000004",
          "tgn:7490934",
          "tgn:1000141",
          "tgn:7029392"
        ],
        "placetype": [
          "aat:300000206"
        ],
        "id": 7480651,
        "name:xx": "Huisheng Xumuchang"
      }
    },
    {
      "geometry": {
        "type": "Point",
        "coordinates": [
          120.124942,
          23.276925
        ]
      },
      "type": "Feature",
      "properties": {
        "hierarchy": [
          "tgn:7480652",
          "tgn:1000004",
          "tgn:7490934",
          "tgn:1000141",
          "tgn:7029392"
        ],
        "placetype": [
          "aat:300386871"
        ],
        "id": 7480652,
        "name:xx": "Beimen Yanchang"
      }
    },
    {
      "geometry": {
        "type": "Point",
        "coordinates": [
          120.137464,
          23.292037
        ]
      },
      "type": "Feature",
      "properties": {
        "hierarchy": [
          "tgn:7480653",
          "tgn:1000004",
          "tgn:7490934",
          "tgn:1000141",
          "tgn:7029392"
        ],
        "placetype": [
          "aat:300386871"
        ],
        "id": 7480653,
        "name:xx": "Wangyegang Yanqu"
      }
    },
    {
      "geometry": {
        "type": "Point",
        "coordinates": [
          120.1295,
          23.3611
        ]
      },
      "type": "Feature",
      "properties": {
        "hierarchy": [
          "tgn:7480654",
          "tgn:7468018",
          "tgn:1000004",
          "tgn:1000141",
          "tgn:7029392"
        ],
        "placetype": [
          "aat:300386885"
        ],
        "id": 7480654,
        "name:xx": "Fu Zhou"
      }
    },
    {
      "geometry": {
        "type": "Point",
        "coordinates": [
          120.191507,
          23.372389
        ]
      },
      "type": "Feature",
      "properties": {
        "hierarchy": [
          "tgn:7480655",
          "tgn:7468018",
          "tgn:1000004",
          "tgn:1000141",
          "tgn:7029392"
        ],
        "placetype": [
          "aat:300004792"
        ],
        "id": 7480655,
        "name:xx": "Daliao Biandiansuo"
      }
    },
    {
      "geometry": {
        "type": "Point",
        "coordinates": [
          120.221408,
          23.35995
        ]
      },
      "type": "Feature",
      "properties": {
        "hierarchy": [
          "tgn:7480656",
          "tgn:7468018",
          "tgn:1000004",
          "tgn:1000141",
          "tgn:7029392"
        ],
        "placetype": [
          "aat:300387302"
        ],
        "id": 7480656,
        "name:xx": "Yizhu Nongcun Gongyequ"
      }
    },
    {
      "geometry": {
        "type": "Point",
        "coordinates": [
          120.243232,
          23.36421
        ]
      },
      "type": "Feature",
      "properties": {
        "hierarchy": [
          "tgn:7480657",
          "tgn:7468018",
          "tgn:1000004",
          "tgn:1000141",
          "tgn:7029392"
        ],
        "placetype": [
          "aat:300000206"
        ],
        "id": 7480657,
        "name:xx": "Taitang Nanjing Tangchang Nongchang"
      }
    },
    {
      "geometry": {
        "type": "Point",
        "coordinates": [
          120.2474,
          23.3669
        ]
      },
      "type": "Feature",
      "properties": {
        "hierarchy": [
          "tgn:7480658",
          "tgn:7468018",
          "tgn:1000004",
          "tgn:1000141",
          "tgn:7029392"
        ],
        "placetype": [
          "aat:300000206"
        ],
        "id": 7480658,
        "name:xx": "Taitang Nanjing Tangchang Xuzhichang"
      }
    },
    {
      "geometry": {
        "type": "Point",
        "coordinates": [
          120.251939,
          23.376436
        ]
      },
      "type": "Feature",
      "properties": {
        "hierarchy": [
          "tgn:7480659",
          "tgn:7468018",
          "tgn:1000004",
          "tgn:1000141",
          "tgn:7029392"
        ],
        "placetype": [
          "aat:300000206"
        ],
        "id": 7480659,
        "name:xx": "Donghouliao Nongchang"
      }
    }
  ]
}
