{
  "type": "FeatureCollection",
  "features": [
    {
      "geometry": {
        "type": "Point",
        "coordinates": [
          120.473889,
          22.764444
        ]
      },
      "type": "Feature",
      "properties": {
        "hierarchy": [
          "tgn:7502050",
          "tgn:1000004",
          "tgn:7492971",
          "tgn:1000141",
          "tgn:7029392"
        ],
        "placetype": [
          "aat:300387033"
        ],
        "id": 7502050,
        "name:xx": "Sankuaicuo"
      }
    },
    {
      "geometry": {
        "type": "Point",
        "coordinates": [
          120.498889,
          22.808056
        ]
      },
      "type": "Feature",
      "properties": {
        "hierarchy": [
          "tgn:7502051",
          "tgn:1000004",
          "tgn:7492971",
          "tgn:1000141",
          "tgn:7029392"
        ],
        "placetype": [
          "aat:300007836"
        ],
        "id": 7502051,
        "name:xx": "Zhonghe Qiao"
      }
    },
    {
      "geometry": {
        "type": "Point",
        "coordinates": [
          120.405278,
          22.815833
        ]
      },
      "type": "Feature",
      "properties": {
        "hierarchy": [
          "tgn:7502052",
          "tgn:7001004",
          "tgn:1000004",
          "tgn:1000141",
          "tgn:7029392"
        ],
        "placetype": [
          "aat:300007836"
        ],
        "id": 7502052,
        "name:xx": "Qixing Qiao"
      }
    },
    {
      "geometry": {
        "type": "Point",
        "coordinates": [
          120.366111,
          22.794722
        ]
      },
      "type": "Feature",
      "properties": {
        "hierarchy": [
          "tgn:7502053",
          "tgn:7001004",
          "tgn:1000004",
          "tgn:1000141",
          "tgn:7029392"
        ],
        "placetype": [
          "aat:300006495"
        ],
        "id": 7502053,
        "name:xx": "Yanchao Guoxiao"
      }
    },
    {
      "geometry": {
        "type": "Point",
        "coordinates": [
          120.341944,
          22.793056
        ]
      },
      "type": "Feature",
      "properties": {
        "hierarchy": [
          "tgn:7502054",
          "tgn:7001004",
          "tgn:1000004",
          "tgn:1000141",
          "tgn:7029392"
        ],
        "placetype": [
          "aat:300266755"
        ],
        "id": 7502054,
        "name:xx": "Dijiu Gongmu"
      }
    },
    {
      "geometry": {
        "type": "Point",
        "coordinates": [
          120.313889,
          22.789722
        ]
      },
      "type": "Feature",
      "properties": {
        "hierarchy": [
          "tgn:7502055",
          "tgn:7001004",
          "tgn:1000004",
          "tgn:1000141",
          "tgn:7029392"
        ],
        "placetype": [
          "aat:300007836"
        ],
        "id": 7502055,
        "name:xx": "Guanyin Qiao"
      }
    },
    {
      "geometry": {
        "type": "Point",
        "coordinates": [
          120.341667,
          22.787222
        ]
      },
      "type": "Feature",
      "properties": {
        "hierarchy": [
          "tgn:7502056",
          "tgn:7001004",
          "tgn:1000004",
          "tgn:1000141",
          "tgn:7029392"
        ],
        "placetype": [
          "aat:300007836"
        ],
        "id": 7502056,
        "name:xx": "Zhongzheng Qiao"
      }
    },
    {
      "geometry": {
        "type": "Point",
        "coordinates": [
          120.290278,
          22.805833
        ]
      },
      "type": "Feature",
      "properties": {
        "hierarchy": [
          "tgn:7502057",
          "tgn:7001004",
          "tgn:1000004",
          "tgn:1000141",
          "tgn:7029392"
        ],
        "placetype": [
          "aat:300007836"
        ],
        "id": 7502057,
        "name:xx": "Chunyu Qiao"
      }
    },
    {
      "geometry": {
        "type": "Point",
        "coordinates": [
          120.297222,
          22.785278
        ]
      },
      "type": "Feature",
      "properties": {
        "hierarchy": [
          "tgn:7502058",
          "tgn:7001004",
          "tgn:1000004",
          "tgn:1000141",
          "tgn:7029392"
        ],
        "placetype": [
          "aat:300007836"
        ],
        "id": 7502058,
        "name:xx": "Agongdian Qiao"
      }
    },
    {
      "geometry": {
        "type": "Point",
        "coordinates": [
          120.805496,
          24.149297
        ]
      },
      "type": "Feature",
      "properties": {
        "hierarchy": [
          "tgn:7502059",
          "tgn:1000004",
          "tgn:7001009",
          "tgn:1000141",
          "tgn:7029392"
        ],
        "placetype": [
          "aat:300008347"
        ],
        "id": 7502059,
        "name:xx": "Tianliaozi"
      }
    }
  ]
}
