{
  "type": "FeatureCollection",
  "features": [
    {
      "geometry": {
        "type": "Point",
        "coordinates": [
          31.252632,
          30.048719
        ]
      },
      "type": "Feature",
      "properties": {
        "hierarchy": [
          "tgn:7532630",
          "tgn:7001242",
          "tgn:7016833",
          "tgn:1001091",
          "tgn:7029392"
        ],
        "placetype": [
          "aat:300007836"
        ],
        "id": 7532630,
        "name:xx": "Kūbrī al Azhar"
      }
    },
    {
      "geometry": {
        "type": "Point",
        "coordinates": [
          31.253776,
          30.049846
        ]
      },
      "type": "Feature",
      "properties": {
        "hierarchy": [
          "tgn:7532631",
          "tgn:7001242",
          "tgn:7016833",
          "tgn:1001091",
          "tgn:7029392"
        ],
        "placetype": [
          "aat:300007544"
        ],
        "id": 7532631,
        "name:xx": "Masjid ash Shādhalīyah"
      }
    },
    {
      "geometry": {
        "type": "Point",
        "coordinates": [
          31.257202,
          30.052852
        ]
      },
      "type": "Feature",
      "properties": {
        "hierarchy": [
          "tgn:7532632",
          "tgn:7001242",
          "tgn:7016833",
          "tgn:1001091",
          "tgn:7029392"
        ],
        "placetype": [
          "aat:300007544"
        ],
        "id": 7532632,
        "name:xx": "Masjid ash Sha'rānī"
      }
    },
    {
      "geometry": {
        "type": "Point",
        "coordinates": [
          31.240824,
          30.038965
        ]
      },
      "type": "Feature",
      "properties": {
        "hierarchy": [
          "tgn:7532633",
          "tgn:7001242",
          "tgn:7016833",
          "tgn:1001091",
          "tgn:7029392"
        ],
        "placetype": [
          "aat:300386970"
        ],
        "id": 7532633,
        "name:xx": "Mişr, Bank"
      }
    },
    {
      "geometry": {
        "type": "Point",
        "coordinates": [
          31.243327,
          30.037877
        ]
      },
      "type": "Feature",
      "properties": {
        "hierarchy": [
          "tgn:7532634",
          "tgn:7001242",
          "tgn:7016833",
          "tgn:1001091",
          "tgn:7029392"
        ],
        "placetype": [
          "aat:300006676"
        ],
        "id": 7532634,
        "name:xx": "Mustashfá 'Amr Ḩusayn"
      }
    },
    {
      "geometry": {
        "type": "Point",
        "coordinates": [
          31.248286,
          30.039381
        ]
      },
      "type": "Feature",
      "properties": {
        "hierarchy": [
          "tgn:7532635",
          "tgn:7001242",
          "tgn:7016833",
          "tgn:1001091",
          "tgn:7029392"
        ],
        "placetype": [
          "aat:300006676"
        ],
        "id": 7532635,
        "name:xx": "Mustashfá al Jumhūrīyah"
      }
    },
    {
      "geometry": {
        "type": "Point",
        "coordinates": [
          31.248961,
          30.037269
        ]
      },
      "type": "Feature",
      "properties": {
        "hierarchy": [
          "tgn:7532636",
          "tgn:7001242",
          "tgn:7016833",
          "tgn:1001091",
          "tgn:7029392"
        ],
        "placetype": [
          "aat:300000745"
        ],
        "id": 7532636,
        "name:xx": "Birkat al Fīl"
      }
    },
    {
      "geometry": {
        "type": "Point",
        "coordinates": [
          31.254335,
          30.034916
        ]
      },
      "type": "Feature",
      "properties": {
        "hierarchy": [
          "tgn:7532637",
          "tgn:7001242",
          "tgn:7016833",
          "tgn:1001091",
          "tgn:7029392"
        ],
        "placetype": [
          "aat:300007544"
        ],
        "id": 7532637,
        "name:xx": "Masjid al Amīr al Maz̧z̧"
      }
    },
    {
      "geometry": {
        "type": "Point",
        "coordinates": [
          31.257448,
          30.037138
        ]
      },
      "type": "Feature",
      "properties": {
        "hierarchy": [
          "tgn:7532638",
          "tgn:7001242",
          "tgn:7016833",
          "tgn:1001091",
          "tgn:7029392"
        ],
        "placetype": [
          "aat:300007544"
        ],
        "id": 7532638,
        "name:xx": "Masjid ash Shaykh 'Abd ar Raḩman"
      }
    },
    {
      "geometry": {
        "type": "Point",
        "coordinates": [
          31.252364,
          30.037199
        ]
      },
      "type": "Feature",
      "properties": {
        "hierarchy": [
          "tgn:7532639",
          "tgn:7001242",
          "tgn:7016833",
          "tgn:1001091",
          "tgn:7029392"
        ],
        "placetype": [
          "aat:300007544"
        ],
        "id": 7532639,
        "name:xx": "Qism ad Darb al Aḩmar"
      }
    }
  ]
}
