{
  "type": "FeatureCollection",
  "features": [
    {
      "geometry": {
        "type": "Point",
        "coordinates": [
          77.013611,
          31.163889
        ]
      },
      "type": "Feature",
      "properties": {
        "hierarchy": [
          "tgn:7568560",
          "tgn:1000004",
          "tgn:7000198",
          "tgn:1001996",
          "tgn:7029392"
        ],
        "placetype": [
          "aat:300008347"
        ],
        "name:en": "Paliāniyān",
        "id": 7568560
      }
    },
    {
      "geometry": {
        "type": "Point",
        "coordinates": [
          77.021667,
          31.164722
        ]
      },
      "type": "Feature",
      "properties": {
        "hierarchy": [
          "tgn:7568561",
          "tgn:1000004",
          "tgn:7000198",
          "tgn:1001996",
          "tgn:7029392"
        ],
        "placetype": [
          "aat:300008347"
        ],
        "name:en": "Galog",
        "id": 7568561
      }
    },
    {
      "geometry": {
        "type": "Point",
        "coordinates": [
          77.034042,
          31.163524
        ]
      },
      "type": "Feature",
      "properties": {
        "hierarchy": [
          "tgn:7568562",
          "tgn:1000004",
          "tgn:7000198",
          "tgn:1001996",
          "tgn:7029392"
        ],
        "placetype": [
          "aat:300008347"
        ],
        "name:en": "Pangloh",
        "id": 7568562
      }
    },
    {
      "geometry": {
        "type": "Point",
        "coordinates": [
          77.043056,
          31.166111
        ]
      },
      "type": "Feature",
      "properties": {
        "hierarchy": [
          "tgn:7568563",
          "tgn:1000004",
          "tgn:7000198",
          "tgn:1001996",
          "tgn:7029392"
        ],
        "placetype": [
          "aat:300008863"
        ],
        "name:en": "Lahog Ki Dhār Protected Forest",
        "id": 7568563
      }
    },
    {
      "geometry": {
        "type": "Point",
        "coordinates": [
          77.015278,
          31.165556
        ]
      },
      "type": "Feature",
      "properties": {
        "hierarchy": [
          "tgn:7568564",
          "tgn:1000004",
          "tgn:7000198",
          "tgn:1001996",
          "tgn:7029392"
        ],
        "placetype": [
          "aat:300008863"
        ],
        "name:en": "Shil Paliāniyān Protected Forest",
        "id": 7568564
      }
    },
    {
      "geometry": {
        "type": "Point",
        "coordinates": [
          77.121389,
          31.1675
        ]
      },
      "type": "Feature",
      "properties": {
        "hierarchy": [
          "tgn:7568565",
          "tgn:1000004",
          "tgn:7000198",
          "tgn:1001996",
          "tgn:7029392"
        ],
        "placetype": [
          "aat:300008863"
        ],
        "name:en": "Bhaili Protected Forest",
        "id": 7568565
      }
    },
    {
      "geometry": {
        "type": "Point",
        "coordinates": [
          77.068706,
          31.130132
        ]
      },
      "type": "Feature",
      "properties": {
        "hierarchy": [
          "tgn:7568566",
          "tgn:1000004",
          "tgn:7000198",
          "tgn:1001996",
          "tgn:7029392"
        ],
        "placetype": [
          "aat:300008347"
        ],
        "name:en": "Tikri",
        "id": 7568566
      }
    },
    {
      "geometry": {
        "type": "Point",
        "coordinates": [
          77.089958,
          31.204111
        ]
      },
      "type": "Feature",
      "properties": {
        "hierarchy": [
          "tgn:7568567",
          "tgn:1000004",
          "tgn:7000198",
          "tgn:1001996",
          "tgn:7029392"
        ],
        "placetype": [
          "aat:300266554",
          "aat:300008699"
        ],
        "name:en": "Barika Khad",
        "id": 7568567
      }
    },
    {
      "geometry": {
        "type": "Point",
        "coordinates": [
          77.094444,
          31.168889
        ]
      },
      "type": "Feature",
      "properties": {
        "hierarchy": [
          "tgn:7568568",
          "tgn:1000004",
          "tgn:7000198",
          "tgn:1001996",
          "tgn:7029392"
        ],
        "placetype": [
          "aat:300008347"
        ],
        "name:en": "Gnewag",
        "id": 7568568
      }
    },
    {
      "geometry": {
        "type": "Point",
        "coordinates": [
          77.09,
          31.1675
        ]
      },
      "type": "Feature",
      "properties": {
        "hierarchy": [
          "tgn:7568569",
          "tgn:1000004",
          "tgn:7000198",
          "tgn:1001996",
          "tgn:7029392"
        ],
        "placetype": [
          "aat:300008863"
        ],
        "name:en": "Gnewag Protected Forest",
        "id": 7568569
      }
    }
  ]
}
