{
  "type": "FeatureCollection",
  "features": [
    {
      "geometry": {
        "type": "Point",
        "coordinates": [
          -98.9625,
          21.052778
        ]
      },
      "type": "Feature",
      "properties": {
        "hierarchy": [
          "tgn:7412530",
          "tgn:7005587",
          "tgn:1000001",
          "tgn:7005560",
          "tgn:7029392"
        ],
        "placetype": [
          "aat:300008347"
        ],
        "id": 7412530,
        "name:es": "La Caña"
      }
    },
    {
      "geometry": {
        "type": "Point",
        "coordinates": [
          -98.95,
          21.047222
        ]
      },
      "type": "Feature",
      "properties": {
        "hierarchy": [
          "tgn:7412531",
          "tgn:7005587",
          "tgn:1000001",
          "tgn:7005560",
          "tgn:7029392"
        ],
        "placetype": [
          "aat:300008347"
        ],
        "id": 7412531,
        "name:es": "El Naranjal"
      }
    },
    {
      "geometry": {
        "type": "Point",
        "coordinates": [
          -98.95,
          21.025
        ]
      },
      "type": "Feature",
      "properties": {
        "hierarchy": [
          "tgn:7412532",
          "tgn:7005587",
          "tgn:1000001",
          "tgn:7005560",
          "tgn:7029392"
        ],
        "placetype": [
          "aat:300008347"
        ],
        "id": 7412532,
        "name:es": "Chotipa"
      }
    },
    {
      "geometry": {
        "type": "Point",
        "coordinates": [
          -98.951389,
          21.009722
        ]
      },
      "type": "Feature",
      "properties": {
        "hierarchy": [
          "tgn:7412533",
          "tgn:7005587",
          "tgn:1000001",
          "tgn:7005560",
          "tgn:7029392"
        ],
        "placetype": [
          "aat:300008347"
        ],
        "id": 7412533,
        "name:es": "La Ventana"
      }
    },
    {
      "geometry": {
        "type": "Point",
        "coordinates": [
          -98.980556,
          21.001389
        ]
      },
      "type": "Feature",
      "properties": {
        "hierarchy": [
          "tgn:7412534",
          "tgn:7005587",
          "tgn:1000001",
          "tgn:7005560",
          "tgn:7029392"
        ],
        "placetype": [
          "aat:300008347"
        ],
        "id": 7412534,
        "name:es": "El Capulín"
      }
    },
    {
      "geometry": {
        "type": "Point",
        "coordinates": [
          -98.993056,
          21.045833
        ]
      },
      "type": "Feature",
      "properties": {
        "hierarchy": [
          "tgn:7412535",
          "tgn:7005587",
          "tgn:1000001",
          "tgn:7005560",
          "tgn:7029392"
        ],
        "placetype": [
          "aat:300008347"
        ],
        "id": 7412535,
        "name:es": "Los Barbechos"
      }
    },
    {
      "geometry": {
        "type": "Point",
        "coordinates": [
          -98.993056,
          21.068056
        ]
      },
      "type": "Feature",
      "properties": {
        "hierarchy": [
          "tgn:7412536",
          "tgn:7005587",
          "tgn:1000001",
          "tgn:7005560",
          "tgn:7029392"
        ],
        "placetype": [
          "aat:300008347"
        ],
        "id": 7412536,
        "name:es": "El Coyol"
      }
    },
    {
      "geometry": {
        "type": "Point",
        "coordinates": [
          -98.95,
          21.116667
        ]
      },
      "type": "Feature",
      "properties": {
        "hierarchy": [
          "tgn:7412537",
          "tgn:7005587",
          "tgn:1000001",
          "tgn:7005560",
          "tgn:7029392"
        ],
        "placetype": [
          "aat:300008347"
        ],
        "id": 7412537,
        "name:es": "Iglesia Vieja"
      }
    },
    {
      "geometry": {
        "type": "Point",
        "coordinates": [
          -98.95,
          21.152778
        ]
      },
      "type": "Feature",
      "properties": {
        "hierarchy": [
          "tgn:7412539",
          "tgn:7005587",
          "tgn:1000001",
          "tgn:7005560",
          "tgn:7029392"
        ],
        "placetype": [
          "aat:300008347"
        ],
        "id": 7412539,
        "name:es": "Puerto Obscuro"
      }
    }
  ]
}
