{
  "type": "FeatureCollection",
  "features": [
    {
      "geometry": {
        "type": "Point",
        "coordinates": [
          79.054132,
          26.993581
        ]
      },
      "type": "Feature",
      "properties": {
        "hierarchy": [
          "tgn:7559700",
          "tgn:1000004",
          "tgn:7000198",
          "tgn:7016722",
          "tgn:7029392"
        ],
        "placetype": [
          "aat:300008347"
        ],
        "name:en": "Nagla Dhansingh",
        "id": 7559700
      }
    },
    {
      "geometry": {
        "type": "Point",
        "coordinates": [
          79.048017,
          26.992726
        ]
      },
      "type": "Feature",
      "properties": {
        "hierarchy": [
          "tgn:7559701",
          "tgn:1000004",
          "tgn:7000198",
          "tgn:7016722",
          "tgn:7029392"
        ],
        "placetype": [
          "aat:300008347"
        ],
        "name:en": "Nagla Bīre",
        "id": 7559701
      }
    },
    {
      "geometry": {
        "type": "Point",
        "coordinates": [
          79.043378,
          26.990977
        ]
      },
      "type": "Feature",
      "properties": {
        "hierarchy": [
          "tgn:7559702",
          "tgn:1000004",
          "tgn:7000198",
          "tgn:7016722",
          "tgn:7029392"
        ],
        "placetype": [
          "aat:300008347"
        ],
        "name:en": "Bhadāti",
        "id": 7559702
      }
    },
    {
      "geometry": {
        "type": "Point",
        "coordinates": [
          79.030409,
          26.992158
        ]
      },
      "type": "Feature",
      "properties": {
        "hierarchy": [
          "tgn:7559703",
          "tgn:1000004",
          "tgn:7000198",
          "tgn:7016722",
          "tgn:7029392"
        ],
        "placetype": [
          "aat:300008347"
        ],
        "name:en": "Parara",
        "id": 7559703
      }
    },
    {
      "geometry": {
        "type": "Point",
        "coordinates": [
          79.020809,
          26.989707
        ]
      },
      "type": "Feature",
      "properties": {
        "hierarchy": [
          "tgn:7559704",
          "tgn:1000004",
          "tgn:7000198",
          "tgn:7016722",
          "tgn:7029392"
        ],
        "placetype": [
          "aat:300008347"
        ],
        "name:en": "Chhapaila",
        "id": 7559704
      }
    },
    {
      "geometry": {
        "type": "Point",
        "coordinates": [
          79.013798,
          26.989143
        ]
      },
      "type": "Feature",
      "properties": {
        "hierarchy": [
          "tgn:7559705",
          "tgn:1000004",
          "tgn:7000198",
          "tgn:7016722",
          "tgn:7029392"
        ],
        "placetype": [
          "aat:300008347"
        ],
        "name:en": "Khushālpur",
        "id": 7559705
      }
    },
    {
      "geometry": {
        "type": "Point",
        "coordinates": [
          79.6663,
          27.7495
        ]
      },
      "type": "Feature",
      "properties": {
        "hierarchy": [
          "tgn:7559706",
          "tgn:1000004",
          "tgn:7000198",
          "tgn:7016722",
          "tgn:7029392"
        ],
        "placetype": [
          "aat:300008347"
        ],
        "name:en": "Mālhūpur",
        "id": 7559706
      }
    },
    {
      "geometry": {
        "type": "Point",
        "coordinates": [
          79.662885,
          27.744502
        ]
      },
      "type": "Feature",
      "properties": {
        "hierarchy": [
          "tgn:7559707",
          "tgn:1000004",
          "tgn:7000198",
          "tgn:7016722",
          "tgn:7029392"
        ],
        "placetype": [
          "aat:300008347"
        ],
        "name:en": "Baghāpur",
        "id": 7559707
      }
    },
    {
      "geometry": {
        "type": "Point",
        "coordinates": [
          79.64897,
          27.739582
        ]
      },
      "type": "Feature",
      "properties": {
        "hierarchy": [
          "tgn:7559708",
          "tgn:1000004",
          "tgn:7000198",
          "tgn:7016722",
          "tgn:7029392"
        ],
        "placetype": [
          "aat:300008347"
        ],
        "name:en": "Sarāi Sādhu",
        "id": 7559708
      }
    },
    {
      "geometry": {
        "type": "Point",
        "coordinates": [
          79.639124,
          27.724252
        ]
      },
      "type": "Feature",
      "properties": {
        "hierarchy": [
          "tgn:7559709",
          "tgn:1000004",
          "tgn:7000198",
          "tgn:7016722",
          "tgn:7029392"
        ],
        "placetype": [
          "aat:300008347"
        ],
        "name:en": "Sultānpur",
        "id": 7559709
      }
    }
  ]
}
