{
  "type": "FeatureCollection",
  "features": [
    {
      "geometry": {
        "type": "Point",
        "coordinates": [
          75.620774,
          26.898415
        ]
      },
      "type": "Feature",
      "properties": {
        "hierarchy": [
          "tgn:7560090",
          "tgn:1000004",
          "tgn:7000198",
          "tgn:7016788",
          "tgn:7029392"
        ],
        "placetype": [
          "aat:300008347"
        ],
        "name:en": "Mundiya",
        "id": 7560090
      }
    },
    {
      "geometry": {
        "type": "Point",
        "coordinates": [
          75.6325,
          26.899
        ]
      },
      "type": "Feature",
      "properties": {
        "hierarchy": [
          "tgn:7560091",
          "tgn:1000004",
          "tgn:7000198",
          "tgn:7016788",
          "tgn:7029392"
        ],
        "placetype": [
          "aat:300008347"
        ],
        "name:en": "Nīmera",
        "id": 7560091
      }
    },
    {
      "geometry": {
        "type": "Point",
        "coordinates": [
          75.643714,
          26.887658
        ]
      },
      "type": "Feature",
      "properties": {
        "hierarchy": [
          "tgn:7560092",
          "tgn:1000004",
          "tgn:7000198",
          "tgn:7016788",
          "tgn:7029392"
        ],
        "placetype": [
          "aat:300008347"
        ],
        "name:en": "Nādawāli Dhāni",
        "id": 7560092
      }
    },
    {
      "geometry": {
        "type": "Point",
        "coordinates": [
          75.652152,
          26.883282
        ]
      },
      "type": "Feature",
      "properties": {
        "hierarchy": [
          "tgn:7560093",
          "tgn:1000004",
          "tgn:7000198",
          "tgn:7016788",
          "tgn:7029392"
        ],
        "placetype": [
          "aat:300008347"
        ],
        "name:en": "Jaichandpura",
        "id": 7560093
      }
    },
    {
      "geometry": {
        "type": "Point",
        "coordinates": [
          75.65631,
          26.887183
        ]
      },
      "type": "Feature",
      "properties": {
        "hierarchy": [
          "tgn:7560094",
          "tgn:1000004",
          "tgn:7000198",
          "tgn:7016788",
          "tgn:7029392"
        ],
        "placetype": [
          "aat:300008347"
        ],
        "name:en": "Mahārājpura",
        "id": 7560094
      }
    },
    {
      "geometry": {
        "type": "Point",
        "coordinates": [
          75.664284,
          26.899469
        ]
      },
      "type": "Feature",
      "properties": {
        "hierarchy": [
          "tgn:7560095",
          "tgn:1000004",
          "tgn:7000198",
          "tgn:7016788",
          "tgn:7029392"
        ],
        "placetype": [
          "aat:300008347"
        ],
        "name:en": "Buthāriya",
        "id": 7560095
      }
    },
    {
      "geometry": {
        "type": "Point",
        "coordinates": [
          75.667774,
          26.891208
        ]
      },
      "type": "Feature",
      "properties": {
        "hierarchy": [
          "tgn:7560096",
          "tgn:1000004",
          "tgn:7000198",
          "tgn:7016788",
          "tgn:7029392"
        ],
        "placetype": [
          "aat:300008347"
        ],
        "name:en": "Srīrāmpura",
        "id": 7560096
      }
    },
    {
      "geometry": {
        "type": "Point",
        "coordinates": [
          75.677942,
          26.893685
        ]
      },
      "type": "Feature",
      "properties": {
        "hierarchy": [
          "tgn:7560097",
          "tgn:1000004",
          "tgn:7000198",
          "tgn:7016788",
          "tgn:7029392"
        ],
        "placetype": [
          "aat:300008347"
        ],
        "name:en": "Pando ki Dhāni",
        "id": 7560097
      }
    },
    {
      "geometry": {
        "type": "Point",
        "coordinates": [
          75.682431,
          26.894897
        ]
      },
      "type": "Feature",
      "properties": {
        "hierarchy": [
          "tgn:7560098",
          "tgn:1000004",
          "tgn:7000198",
          "tgn:7016788",
          "tgn:7029392"
        ],
        "placetype": [
          "aat:300008347"
        ],
        "name:en": "Nādi ki Dhāni",
        "id": 7560098
      }
    },
    {
      "geometry": {
        "type": "Point",
        "coordinates": [
          75.677899,
          26.889128
        ]
      },
      "type": "Feature",
      "properties": {
        "hierarchy": [
          "tgn:7560099",
          "tgn:1000004",
          "tgn:7000198",
          "tgn:7016788",
          "tgn:7029392"
        ],
        "placetype": [
          "aat:300008347"
        ],
        "name:en": "Jamādār ki Dhāni",
        "id": 7560099
      }
    }
  ]
}
