{
  "type": "FeatureCollection",
  "features": [
    {
      "geometry": {
        "type": "Point",
        "coordinates": [
          74.800461,
          34.204648
        ]
      },
      "type": "Feature",
      "properties": {
        "hierarchy": [
          "tgn:7586850",
          "tgn:1000004",
          "tgn:7000198",
          "tgn:7000799",
          "tgn:7029392"
        ],
        "placetype": [
          "aat:300008347"
        ],
        "name:en": "Darind",
        "id": 7586850
      }
    },
    {
      "geometry": {
        "type": "Point",
        "coordinates": [
          74.806431,
          34.20622
        ]
      },
      "type": "Feature",
      "properties": {
        "hierarchy": [
          "tgn:7586851",
          "tgn:1000004",
          "tgn:7000198",
          "tgn:7000799",
          "tgn:7029392"
        ],
        "placetype": [
          "aat:300008347"
        ],
        "name:en": "Rangyil",
        "id": 7586851
      }
    },
    {
      "geometry": {
        "type": "Point",
        "coordinates": [
          74.811111,
          34.198611
        ]
      },
      "type": "Feature",
      "properties": {
        "hierarchy": [
          "tgn:7586852",
          "tgn:1000004",
          "tgn:7000198",
          "tgn:7000799",
          "tgn:7029392"
        ],
        "placetype": [
          "aat:300008347"
        ],
        "name:en": "Gartabal",
        "id": 7586852
      }
    },
    {
      "geometry": {
        "type": "Point",
        "coordinates": [
          74.815805,
          34.198842
        ]
      },
      "type": "Feature",
      "properties": {
        "hierarchy": [
          "tgn:7586853",
          "tgn:1000004",
          "tgn:7000198",
          "tgn:7000799",
          "tgn:7029392"
        ],
        "placetype": [
          "aat:300008347"
        ],
        "name:en": "Khalamul",
        "id": 7586853
      }
    },
    {
      "geometry": {
        "type": "Point",
        "coordinates": [
          74.820833,
          34.208333
        ]
      },
      "type": "Feature",
      "properties": {
        "hierarchy": [
          "tgn:7586854",
          "tgn:1000004",
          "tgn:7000198",
          "tgn:7000799",
          "tgn:7029392"
        ],
        "placetype": [
          "aat:300008347"
        ],
        "name:en": "Takia Khalamul",
        "id": 7586854
      }
    },
    {
      "geometry": {
        "type": "Point",
        "coordinates": [
          74.827908,
          34.22286
        ]
      },
      "type": "Feature",
      "properties": {
        "hierarchy": [
          "tgn:7586855",
          "tgn:1000004",
          "tgn:7000198",
          "tgn:7000799",
          "tgn:7029392"
        ],
        "placetype": [
          "aat:300008347"
        ],
        "name:en": "B훮ba Darya D카n",
        "id": 7586855
      }
    },
    {
      "geometry": {
        "type": "Point",
        "coordinates": [
          74.793592,
          34.229266
        ]
      },
      "type": "Feature",
      "properties": {
        "hierarchy": [
          "tgn:7586856",
          "tgn:1000004",
          "tgn:7000198",
          "tgn:7000799",
          "tgn:7029392"
        ],
        "placetype": [
          "aat:300008347"
        ],
        "name:en": "Dedmarib훮gh",
        "id": 7586856
      }
    },
    {
      "geometry": {
        "type": "Point",
        "coordinates": [
          74.780556,
          34.229167
        ]
      },
      "type": "Feature",
      "properties": {
        "hierarchy": [
          "tgn:7586857",
          "tgn:1000004",
          "tgn:7000198",
          "tgn:7000799",
          "tgn:7029392"
        ],
        "placetype": [
          "aat:300008347"
        ],
        "name:en": "Dhobipur",
        "id": 7586857
      }
    },
    {
      "geometry": {
        "type": "Point",
        "coordinates": [
          74.7875,
          34.231944
        ]
      },
      "type": "Feature",
      "properties": {
        "hierarchy": [
          "tgn:7586858",
          "tgn:1000004",
          "tgn:7000198",
          "tgn:7000799",
          "tgn:7029392"
        ],
        "placetype": [
          "aat:300008347"
        ],
        "name:en": "Sh훮hpur",
        "id": 7586858
      }
    },
    {
      "geometry": {
        "type": "Point",
        "coordinates": [
          74.791238,
          34.235251
        ]
      },
      "type": "Feature",
      "properties": {
        "hierarchy": [
          "tgn:7586859",
          "tgn:1000004",
          "tgn:7000198",
          "tgn:7000799",
          "tgn:7029392"
        ],
        "placetype": [
          "aat:300008347"
        ],
        "name:en": "Badarkund",
        "id": 7586859
      }
    }
  ]
}
