{
  "type": "FeatureCollection",
  "features": [
    {
      "geometry": {
        "type": "Point",
        "coordinates": [
          121.33207,
          25.103468
        ]
      },
      "type": "Feature",
      "properties": {
        "hierarchy": [
          "tgn:7480190",
          "tgn:1000004",
          "tgn:1000454",
          "tgn:1000141",
          "tgn:7029392"
        ],
        "placetype": [
          "aat:300008347"
        ],
        "id": 7480190,
        "name:xx": "Liudianqi"
      }
    },
    {
      "geometry": {
        "type": "Point",
        "coordinates": [
          121.329744,
          25.107413
        ]
      },
      "type": "Feature",
      "properties": {
        "hierarchy": [
          "tgn:7480191",
          "tgn:1000004",
          "tgn:1000454",
          "tgn:1000141",
          "tgn:7029392"
        ],
        "placetype": [
          "aat:300008777"
        ],
        "id": 7480191,
        "name:xx": "Liudian Shan"
      }
    },
    {
      "geometry": {
        "type": "Point",
        "coordinates": [
          121.311519,
          25.070995
        ]
      },
      "type": "Feature",
      "properties": {
        "hierarchy": [
          "tgn:7480192",
          "tgn:1000004",
          "tgn:7001013",
          "tgn:1000141",
          "tgn:7029392"
        ],
        "placetype": [
          "aat:300008777"
        ],
        "id": 7480192,
        "name:xx": "Tudigongkeng Shan"
      }
    },
    {
      "geometry": {
        "type": "Point",
        "coordinates": [
          121.255123,
          25.10295
        ]
      },
      "type": "Feature",
      "properties": {
        "hierarchy": [
          "tgn:7480194",
          "tgn:1000004",
          "tgn:7001013",
          "tgn:1000141",
          "tgn:7029392"
        ],
        "placetype": [
          "aat:300008699"
        ],
        "id": 7480194,
        "name:xx": "Haihu Xi"
      }
    },
    {
      "geometry": {
        "type": "Point",
        "coordinates": [
          121.373987,
          25.088899
        ]
      },
      "type": "Feature",
      "properties": {
        "hierarchy": [
          "tgn:7480195",
          "tgn:1000004",
          "tgn:1000454",
          "tgn:1000141",
          "tgn:7029392"
        ],
        "placetype": [
          "aat:300008347"
        ],
        "id": 7480195,
        "name:xx": "Tudigonglun"
      }
    },
    {
      "geometry": {
        "type": "Point",
        "coordinates": [
          121.469871,
          25.094204
        ]
      },
      "type": "Feature",
      "properties": {
        "hierarchy": [
          "tgn:7480196",
          "tgn:1000004",
          "tgn:1000454",
          "tgn:1000141",
          "tgn:7029392"
        ],
        "placetype": [
          "aat:300008347"
        ],
        "id": 7480196,
        "name:xx": "Heshanggang"
      }
    },
    {
      "geometry": {
        "type": "Point",
        "coordinates": [
          121.388028,
          25.078636
        ]
      },
      "type": "Feature",
      "properties": {
        "hierarchy": [
          "tgn:7480197",
          "tgn:1000004",
          "tgn:1000454",
          "tgn:1000141",
          "tgn:7029392"
        ],
        "placetype": [
          "aat:300008347"
        ],
        "id": 7480197,
        "name:xx": "Sankuaicuo"
      }
    },
    {
      "geometry": {
        "type": "Point",
        "coordinates": [
          121.452146,
          25.127036
        ]
      },
      "type": "Feature",
      "properties": {
        "hierarchy": [
          "tgn:7480198",
          "tgn:1000004",
          "tgn:1000959",
          "tgn:1000141",
          "tgn:7029392"
        ],
        "placetype": [
          "aat:300007836"
        ],
        "id": 7480198,
        "name:xx": "Mengjia Qiao"
      }
    },
    {
      "geometry": {
        "type": "Point",
        "coordinates": [
          121.460025,
          25.137935
        ]
      },
      "type": "Feature",
      "properties": {
        "hierarchy": [
          "tgn:7480199",
          "tgn:1000004",
          "tgn:1000959",
          "tgn:1000141",
          "tgn:7029392"
        ],
        "placetype": [
          "aat:300007836"
        ],
        "id": 7480199,
        "name:xx": "Zhuwei Qiao"
      }
    }
  ]
}
