{
  "type": "FeatureCollection",
  "features": [
    {
      "geometry": {
        "type": "Point",
        "coordinates": [
          79.363207,
          27.004338
        ]
      },
      "type": "Feature",
      "properties": {
        "hierarchy": [
          "tgn:7562520",
          "tgn:1000004",
          "tgn:7000198",
          "tgn:7016722",
          "tgn:7029392"
        ],
        "placetype": [
          "aat:300008347"
        ],
        "name:en": "Kaliānpur",
        "id": 7562520
      }
    },
    {
      "geometry": {
        "type": "Point",
        "coordinates": [
          79.350472,
          27.0168
        ]
      },
      "type": "Feature",
      "properties": {
        "hierarchy": [
          "tgn:7562521",
          "tgn:1000004",
          "tgn:7000198",
          "tgn:7016722",
          "tgn:7029392"
        ],
        "placetype": [
          "aat:300008347"
        ],
        "name:en": "Marnāmau",
        "id": 7562521
      }
    },
    {
      "geometry": {
        "type": "Point",
        "coordinates": [
          79.003946,
          26.27759
        ]
      },
      "type": "Feature",
      "properties": {
        "hierarchy": [
          "tgn:7562522",
          "tgn:1000004",
          "tgn:7000198",
          "tgn:1001894",
          "tgn:7029392"
        ],
        "placetype": [
          "aat:300008347"
        ],
        "name:en": "Lain ka Pura",
        "id": 7562522
      }
    },
    {
      "geometry": {
        "type": "Point",
        "coordinates": [
          79.027629,
          26.276853
        ]
      },
      "type": "Feature",
      "properties": {
        "hierarchy": [
          "tgn:7562523",
          "tgn:1000004",
          "tgn:7000198",
          "tgn:1001894",
          "tgn:7029392"
        ],
        "placetype": [
          "aat:300008347"
        ],
        "name:en": "Lidhaura",
        "id": 7562523
      }
    },
    {
      "geometry": {
        "type": "Point",
        "coordinates": [
          79.028442,
          26.283996
        ]
      },
      "type": "Feature",
      "properties": {
        "hierarchy": [
          "tgn:7562524",
          "tgn:1000004",
          "tgn:7000198",
          "tgn:1001894",
          "tgn:7029392"
        ],
        "placetype": [
          "aat:300008347"
        ],
        "name:en": "Jetpura",
        "id": 7562524
      }
    },
    {
      "geometry": {
        "type": "Point",
        "coordinates": [
          79.04329,
          26.25759
        ]
      },
      "type": "Feature",
      "properties": {
        "hierarchy": [
          "tgn:7562525",
          "tgn:1000004",
          "tgn:7000198",
          "tgn:1001894",
          "tgn:7029392"
        ],
        "placetype": [
          "aat:300008347"
        ],
        "name:en": "Antian ka Pura",
        "id": 7562525
      }
    },
    {
      "geometry": {
        "type": "Point",
        "coordinates": [
          79.072627,
          26.270334
        ]
      },
      "type": "Feature",
      "properties": {
        "hierarchy": [
          "tgn:7562526",
          "tgn:1000004",
          "tgn:7000198",
          "tgn:7016722",
          "tgn:7029392"
        ],
        "placetype": [
          "aat:300008865"
        ],
        "name:en": "Karmara Reserved Forest",
        "id": 7562526
      }
    },
    {
      "geometry": {
        "type": "Point",
        "coordinates": [
          79.082052,
          26.271867
        ]
      },
      "type": "Feature",
      "properties": {
        "hierarchy": [
          "tgn:7562527",
          "tgn:1000004",
          "tgn:7000198",
          "tgn:1001894",
          "tgn:7029392"
        ],
        "placetype": [
          "aat:300008347"
        ],
        "name:en": "Karmara",
        "id": 7562527
      }
    },
    {
      "geometry": {
        "type": "Point",
        "coordinates": [
          79.083144,
          26.270748
        ]
      },
      "type": "Feature",
      "properties": {
        "hierarchy": [
          "tgn:7562528",
          "tgn:1000004",
          "tgn:7000198",
          "tgn:7016722",
          "tgn:7029392"
        ],
        "placetype": [
          "aat:300008699"
        ],
        "name:en": "Narel Nāla",
        "id": 7562528
      }
    },
    {
      "geometry": {
        "type": "Point",
        "coordinates": [
          79.088716,
          26.288338
        ]
      },
      "type": "Feature",
      "properties": {
        "hierarchy": [
          "tgn:7562529",
          "tgn:1000004",
          "tgn:7000198",
          "tgn:1001894",
          "tgn:7029392"
        ],
        "placetype": [
          "aat:300008347"
        ],
        "name:en": "Ahroli",
        "id": 7562529
      }
    }
  ]
}
