{
  "type": "FeatureCollection",
  "features": [
    {
      "geometry": {
        "type": "Point",
        "coordinates": [
          121.808056,
          24.788333
        ]
      },
      "type": "Feature",
      "properties": {
        "hierarchy": [
          "tgn:7483640",
          "tgn:1000004",
          "tgn:7489179",
          "tgn:1000141",
          "tgn:7029392"
        ],
        "placetype": [
          "aat:300008347"
        ],
        "id": 7483640,
        "name:xx": "Xinfa"
      }
    },
    {
      "geometry": {
        "type": "Point",
        "coordinates": [
          121.8275,
          24.841111
        ]
      },
      "type": "Feature",
      "properties": {
        "hierarchy": [
          "tgn:7483641",
          "tgn:1000004",
          "tgn:7489179",
          "tgn:1000141",
          "tgn:7029392"
        ],
        "placetype": [
          "aat:300387057"
        ],
        "id": 7483641,
        "name:xx": "Zhu'an Xikou"
      }
    },
    {
      "geometry": {
        "type": "Point",
        "coordinates": [
          121.780556,
          24.833889
        ]
      },
      "type": "Feature",
      "properties": {
        "hierarchy": [
          "tgn:7483642",
          "tgn:1000004",
          "tgn:7489179",
          "tgn:1000141",
          "tgn:7029392"
        ],
        "placetype": [
          "aat:300008347"
        ],
        "id": 7483642,
        "name:xx": "Yushi"
      }
    },
    {
      "geometry": {
        "type": "Point",
        "coordinates": [
          121.806667,
          24.851111
        ]
      },
      "type": "Feature",
      "properties": {
        "hierarchy": [
          "tgn:7483643",
          "tgn:1000004",
          "tgn:7489179",
          "tgn:1000141",
          "tgn:7029392"
        ],
        "placetype": [
          "aat:300008347"
        ],
        "id": 7483643,
        "name:xx": "Shangjinmian"
      }
    },
    {
      "geometry": {
        "type": "Point",
        "coordinates": [
          121.815278,
          24.853611
        ]
      },
      "type": "Feature",
      "properties": {
        "hierarchy": [
          "tgn:7483644",
          "tgn:1000004",
          "tgn:7489179",
          "tgn:1000141",
          "tgn:7029392"
        ],
        "placetype": [
          "aat:300008347"
        ],
        "id": 7483644,
        "name:xx": "Shangxinxing"
      }
    },
    {
      "geometry": {
        "type": "Point",
        "coordinates": [
          121.815278,
          24.851667
        ]
      },
      "type": "Feature",
      "properties": {
        "hierarchy": [
          "tgn:7483645",
          "tgn:1000004",
          "tgn:7489179",
          "tgn:1000141",
          "tgn:7029392"
        ],
        "placetype": [
          "aat:300006495"
        ],
        "id": 7483645,
        "name:xx": "Toucheng Jiashang"
      }
    },
    {
      "geometry": {
        "type": "Point",
        "coordinates": [
          121.8425,
          24.876389
        ]
      },
      "type": "Feature",
      "properties": {
        "hierarchy": [
          "tgn:7483646",
          "tgn:1000004",
          "tgn:7489179",
          "tgn:1000141",
          "tgn:7029392"
        ],
        "placetype": [
          "aat:300387057"
        ],
        "id": 7483646,
        "name:xx": "Gang'ao Xikou"
      }
    },
    {
      "geometry": {
        "type": "Point",
        "coordinates": [
          121.8725,
          24.910278
        ]
      },
      "type": "Feature",
      "properties": {
        "hierarchy": [
          "tgn:7483647",
          "tgn:1000004",
          "tgn:7489179",
          "tgn:1000141",
          "tgn:7029392"
        ],
        "placetype": [
          "aat:300008777"
        ],
        "id": 7483647,
        "name:xx": "Gengfang Shan"
      }
    },
    {
      "geometry": {
        "type": "Point",
        "coordinates": [
          121.958333,
          24.846111
        ]
      },
      "type": "Feature",
      "properties": {
        "hierarchy": [
          "tgn:7483648",
          "tgn:1000004",
          "tgn:7489179",
          "tgn:1000141",
          "tgn:7029392"
        ],
        "placetype": [
          "aat:300008688"
        ],
        "id": 7483648,
        "name:xx": "Gui Tan"
      }
    }
  ]
}
