{
  "type": "FeatureCollection",
  "features": [
    {
      "geometry": {
        "type": "Point",
        "coordinates": [
          119.508333,
          23.269722
        ]
      },
      "type": "Feature",
      "properties": {
        "hierarchy": [
          "tgn:7469350",
          "tgn:1000004",
          "tgn:7004300",
          "tgn:1000141",
          "tgn:7029392"
        ],
        "placetype": [
          "aat:300008347"
        ],
        "id": 7469350,
        "name:xx": "Xiping"
      }
    },
    {
      "geometry": {
        "type": "Point",
        "coordinates": [
          120.233056,
          23.209722
        ]
      },
      "type": "Feature",
      "properties": {
        "hierarchy": [
          "tgn:7469351",
          "tgn:1000004",
          "tgn:7490934",
          "tgn:1000141",
          "tgn:7029392"
        ],
        "placetype": [
          "aat:300008347"
        ],
        "id": 7469351,
        "name:xx": "Xipingliao"
      }
    },
    {
      "geometry": {
        "type": "Point",
        "coordinates": [
          120.1909,
          23.4525
        ]
      },
      "type": "Feature",
      "properties": {
        "hierarchy": [
          "tgn:7469352",
          "tgn:7468018",
          "tgn:1000004",
          "tgn:1000141",
          "tgn:7029392"
        ],
        "placetype": [
          "aat:300008347"
        ],
        "id": 7469352,
        "name:xx": "Xipinggangzi"
      }
    },
    {
      "geometry": {
        "type": "Point",
        "coordinates": [
          120.651111,
          24.4475
        ]
      },
      "type": "Feature",
      "properties": {
        "hierarchy": [
          "tgn:7469353",
          "tgn:7487020",
          "tgn:1000004",
          "tgn:1000141",
          "tgn:7029392"
        ],
        "placetype": [
          "aat:300008347"
        ],
        "id": 7469353,
        "name:xx": "Xiping"
      }
    },
    {
      "geometry": {
        "type": "Point",
        "coordinates": [
          120.820356,
          24.334407
        ]
      },
      "type": "Feature",
      "properties": {
        "hierarchy": [
          "tgn:7469354",
          "tgn:7487020",
          "tgn:1000004",
          "tgn:1000141",
          "tgn:7029392"
        ],
        "placetype": [
          "aat:300008347"
        ],
        "id": 7469354,
        "name:xx": "Xiping"
      }
    },
    {
      "geometry": {
        "type": "Point",
        "coordinates": [
          120.848086,
          24.246614
        ]
      },
      "type": "Feature",
      "properties": {
        "hierarchy": [
          "tgn:7469355",
          "tgn:1000004",
          "tgn:7001009",
          "tgn:1000141",
          "tgn:7029392"
        ],
        "placetype": [
          "aat:300387173"
        ],
        "id": 7469355,
        "name:xx": "Fulong Li"
      }
    },
    {
      "geometry": {
        "type": "Point",
        "coordinates": [
          121.252222,
          23.177222
        ]
      },
      "type": "Feature",
      "properties": {
        "hierarchy": [
          "tgn:7469356",
          "tgn:7001010",
          "tgn:1000004",
          "tgn:1000141",
          "tgn:7029392"
        ],
        "placetype": [
          "aat:300008795"
        ],
        "id": 7469356,
        "name:xx": "Gongbu Shan"
      }
    },
    {
      "geometry": {
        "type": "Point",
        "coordinates": [
          121.128301,
          25.03913
        ]
      },
      "type": "Feature",
      "properties": {
        "hierarchy": [
          "tgn:7469357",
          "tgn:1000004",
          "tgn:7001013",
          "tgn:1000141",
          "tgn:7029392"
        ],
        "placetype": [
          "aat:300008347"
        ],
        "id": 7469357,
        "name:xx": "Guoxizi"
      }
    },
    {
      "geometry": {
        "type": "Point",
        "coordinates": [
          121.094722,
          23.938056
        ]
      },
      "type": "Feature",
      "properties": {
        "hierarchy": [
          "tgn:7469358",
          "tgn:7488858",
          "tgn:1000004",
          "tgn:1000141",
          "tgn:7029392"
        ],
        "placetype": [
          "aat:300008798"
        ],
        "id": 7469358,
        "name:xx": "Fu Ling"
      }
    },
    {
      "geometry": {
        "type": "Point",
        "coordinates": [
          120.740977,
          23.759837
        ]
      },
      "type": "Feature",
      "properties": {
        "hierarchy": [
          "tgn:7469359",
          "tgn:7488858",
          "tgn:1000004",
          "tgn:1000141",
          "tgn:7029392"
        ],
        "placetype": [
          "aat:300008347"
        ],
        "id": 7469359,
        "name:xx": "Fulin"
      }
    }
  ]
}
