{
  "type": "FeatureCollection",
  "features": [
    {
      "geometry": {
        "type": "Point",
        "coordinates": [
          -73.100833,
          -42.2975
        ]
      },
      "type": "Feature",
      "properties": {
        "hierarchy": [
          "tgn:7277690",
          "tgn:1001699",
          "tgn:1000049",
          "tgn:1000002",
          "tgn:7029392"
        ],
        "placetype": [
          "aat:300008791"
        ],
        "id": 7277690,
        "name:xx": "Isla Butachauques"
      }
    },
    {
      "geometry": {
        "type": "Point",
        "coordinates": [
          -73.099444,
          -42.287222
        ]
      },
      "type": "Feature",
      "properties": {
        "hierarchy": [
          "tgn:7277691",
          "tgn:1001699",
          "tgn:1000049",
          "tgn:1000002",
          "tgn:7029392"
        ],
        "placetype": [
          "aat:300008347"
        ],
        "id": 7277691,
        "name:xx": "Metahue"
      }
    },
    {
      "geometry": {
        "type": "Point",
        "coordinates": [
          -73.103889,
          -42.51
        ]
      },
      "type": "Feature",
      "properties": {
        "hierarchy": [
          "tgn:7277692",
          "tgn:1001699",
          "tgn:1000049",
          "tgn:1000002",
          "tgn:7029392"
        ],
        "placetype": [
          "aat:300387026"
        ],
        "id": 7277692,
        "name:xx": "Paso Imeley"
      }
    },
    {
      "geometry": {
        "type": "Point",
        "coordinates": [
          -73.085278,
          -43.4175
        ]
      },
      "type": "Feature",
      "properties": {
        "hierarchy": [
          "tgn:7277693",
          "tgn:1001699",
          "tgn:1000049",
          "tgn:1000002",
          "tgn:7029392"
        ],
        "placetype": [
          "aat:300386846"
        ],
        "id": 7277693,
        "name:xx": "Punta Canay"
      }
    },
    {
      "geometry": {
        "type": "Point",
        "coordinates": [
          -73.030278,
          -43.510833
        ]
      },
      "type": "Feature",
      "properties": {
        "hierarchy": [
          "tgn:7277694",
          "tgn:1001699",
          "tgn:1000049",
          "tgn:1000002",
          "tgn:7029392"
        ],
        "placetype": [
          "aat:300008795"
        ],
        "id": 7277694,
        "name:xx": "Morro Yalí"
      }
    },
    {
      "geometry": {
        "type": "Point",
        "coordinates": [
          -73.05,
          -43.517778
        ]
      },
      "type": "Feature",
      "properties": {
        "hierarchy": [
          "tgn:7277695",
          "tgn:1001699",
          "tgn:1000049",
          "tgn:1000002",
          "tgn:7029392"
        ],
        "placetype": [
          "aat:300386846"
        ],
        "id": 7277695,
        "name:xx": "Punta Yalí"
      }
    },
    {
      "geometry": {
        "type": "Point",
        "coordinates": [
          -73.009167,
          -43.608333
        ]
      },
      "type": "Feature",
      "properties": {
        "hierarchy": [
          "tgn:7277696",
          "tgn:1001699",
          "tgn:1000049",
          "tgn:1000002",
          "tgn:7029392"
        ],
        "placetype": [
          "aat:300008791"
        ],
        "id": 7277696,
        "name:xx": "Islas Tictoc"
      }
    },
    {
      "geometry": {
        "type": "Point",
        "coordinates": [
          -73.048056,
          -43.818611
        ]
      },
      "type": "Feature",
      "properties": {
        "hierarchy": [
          "tgn:7277697",
          "tgn:1001623",
          "tgn:1000049",
          "tgn:1000002",
          "tgn:7029392"
        ],
        "placetype": [
          "aat:300132316"
        ],
        "id": 7277697,
        "name:xx": "Bahía Añihué"
      }
    },
    {
      "geometry": {
        "type": "Point",
        "coordinates": [
          -73.044722,
          -43.915278
        ]
      },
      "type": "Feature",
      "properties": {
        "hierarchy": [
          "tgn:7277699",
          "tgn:1001623",
          "tgn:1000049",
          "tgn:1000002",
          "tgn:7029392"
        ],
        "placetype": [
          "aat:300008699"
        ],
        "id": 7277699,
        "name:xx": "Río Bahía Mala"
      }
    }
  ]
}
