{
  "type": "FeatureCollection",
  "features": [
    {
      "geometry": {
        "type": "Point",
        "coordinates": [
          75.848565,
          30.742036
        ]
      },
      "type": "Feature",
      "properties": {
        "hierarchy": [
          "tgn:7551802",
          "tgn:1000004",
          "tgn:7000198",
          "tgn:7016883",
          "tgn:7029392"
        ],
        "placetype": [
          "aat:300008347"
        ],
        "name:en": "Dehlon",
        "id": 7551802
      }
    },
    {
      "geometry": {
        "type": "Point",
        "coordinates": [
          76.332896,
          31.425004
        ]
      },
      "type": "Feature",
      "properties": {
        "hierarchy": [
          "tgn:7551803",
          "tgn:1000004",
          "tgn:7000198",
          "tgn:1001996",
          "tgn:7029392"
        ],
        "placetype": [
          "aat:300008347"
        ],
        "name:en": "Dehl훮n",
        "id": 7551803
      }
    },
    {
      "geometry": {
        "type": "Point",
        "coordinates": [
          75.201869,
          18.961024
        ]
      },
      "type": "Feature",
      "properties": {
        "hierarchy": [
          "tgn:7551804",
          "tgn:1000004",
          "tgn:7000198",
          "tgn:1001895",
          "tgn:7029392"
        ],
        "placetype": [
          "aat:300008347"
        ],
        "name:en": "Dehithan",
        "id": 7551804
      }
    },
    {
      "geometry": {
        "type": "Point",
        "coordinates": [
          74.58706,
          22.112205
        ]
      },
      "type": "Feature",
      "properties": {
        "hierarchy": [
          "tgn:7551805",
          "tgn:1000004",
          "tgn:7000198",
          "tgn:1001894",
          "tgn:7029392"
        ],
        "placetype": [
          "aat:300008347"
        ],
        "name:en": "Dehi",
        "id": 7551805
      }
    },
    {
      "geometry": {
        "type": "Point",
        "coordinates": [
          78.089736,
          23.318805
        ]
      },
      "type": "Feature",
      "properties": {
        "hierarchy": [
          "tgn:7551806",
          "tgn:1000004",
          "tgn:7000198",
          "tgn:1001894",
          "tgn:7029392"
        ],
        "placetype": [
          "aat:300008347"
        ],
        "name:en": "Dehgaon",
        "id": 7551806
      }
    },
    {
      "geometry": {
        "type": "Point",
        "coordinates": [
          73.216667,
          23.15
        ]
      },
      "type": "Feature",
      "properties": {
        "hierarchy": [
          "tgn:7551807",
          "tgn:1000004",
          "tgn:1001869",
          "tgn:7000198",
          "tgn:7029392"
        ],
        "placetype": [
          "aat:300008347"
        ],
        "name:en": "Dehem훮i",
        "id": 7551807
      }
    },
    {
      "geometry": {
        "type": "Point",
        "coordinates": [
          73.216667,
          21.566667
        ]
      },
      "type": "Feature",
      "properties": {
        "hierarchy": [
          "tgn:7551808",
          "tgn:1000004",
          "tgn:1001869",
          "tgn:7000198",
          "tgn:7029392"
        ],
        "placetype": [
          "aat:300008347"
        ],
        "name:en": "Deheli",
        "id": 7551808
      }
    },
    {
      "geometry": {
        "type": "Point",
        "coordinates": [
          79.021229,
          23.610564
        ]
      },
      "type": "Feature",
      "properties": {
        "hierarchy": [
          "tgn:7551809",
          "tgn:1000004",
          "tgn:7000198",
          "tgn:1001894",
          "tgn:7029392"
        ],
        "placetype": [
          "aat:300008699"
        ],
        "name:en": "Deh훮r Nad카",
        "id": 7551809
      }
    }
  ]
}
