{
  "type": "FeatureCollection",
  "features": [
    {
      "geometry": {
        "type": "Point",
        "coordinates": [
          -98.363889,
          20.125
        ]
      },
      "type": "Feature",
      "properties": {
        "hierarchy": [
          "tgn:7412000",
          "tgn:7005587",
          "tgn:1000001",
          "tgn:7005560",
          "tgn:7029392"
        ],
        "placetype": [
          "aat:300008347"
        ],
        "id": 7412000,
        "name:es": "Huapalcalco"
      }
    },
    {
      "geometry": {
        "type": "Point",
        "coordinates": [
          -98.266667,
          20.163889
        ]
      },
      "type": "Feature",
      "properties": {
        "hierarchy": [
          "tgn:7412001",
          "tgn:7005587",
          "tgn:1000001",
          "tgn:7005560",
          "tgn:7029392"
        ],
        "placetype": [
          "aat:300008347"
        ],
        "id": 7412001,
        "name:es": "Santa María Asunción"
      }
    },
    {
      "geometry": {
        "type": "Point",
        "coordinates": [
          -98.269444,
          20.206944
        ]
      },
      "type": "Feature",
      "properties": {
        "hierarchy": [
          "tgn:7412002",
          "tgn:7005587",
          "tgn:1000001",
          "tgn:7005560",
          "tgn:7029392"
        ],
        "placetype": [
          "aat:300008347"
        ],
        "id": 7412002,
        "name:es": "Canales"
      }
    },
    {
      "geometry": {
        "type": "Point",
        "coordinates": [
          -98.291667,
          20.2125
        ]
      },
      "type": "Feature",
      "properties": {
        "hierarchy": [
          "tgn:7412003",
          "tgn:7005587",
          "tgn:1000001",
          "tgn:7005560",
          "tgn:7029392"
        ],
        "placetype": [
          "aat:300008347"
        ],
        "id": 7412003,
        "name:es": "Atlixtaca"
      }
    },
    {
      "geometry": {
        "type": "Point",
        "coordinates": [
          -98.311111,
          20.233333
        ]
      },
      "type": "Feature",
      "properties": {
        "hierarchy": [
          "tgn:7412004",
          "tgn:7005587",
          "tgn:1000001",
          "tgn:7005560",
          "tgn:7029392"
        ],
        "placetype": [
          "aat:300006191"
        ],
        "id": 7412004,
        "name:es": "Presa Metepec"
      }
    },
    {
      "geometry": {
        "type": "Point",
        "coordinates": [
          -98.35,
          20.241667
        ]
      },
      "type": "Feature",
      "properties": {
        "hierarchy": [
          "tgn:7412005",
          "tgn:7005587",
          "tgn:1000001",
          "tgn:7005560",
          "tgn:7029392"
        ],
        "placetype": [
          "aat:300008347"
        ],
        "id": 7412005,
        "name:es": "Tortugas"
      }
    },
    {
      "geometry": {
        "type": "Point",
        "coordinates": [
          -98.388889,
          20.222222
        ]
      },
      "type": "Feature",
      "properties": {
        "hierarchy": [
          "tgn:7412006",
          "tgn:7005587",
          "tgn:1000001",
          "tgn:7005560",
          "tgn:7029392"
        ],
        "placetype": [
          "aat:300008347"
        ],
        "id": 7412006,
        "name:es": "El Acocul"
      }
    },
    {
      "geometry": {
        "type": "Point",
        "coordinates": [
          -98.361111,
          20.241667
        ]
      },
      "type": "Feature",
      "properties": {
        "hierarchy": [
          "tgn:7412007",
          "tgn:7005587",
          "tgn:1000001",
          "tgn:7005560",
          "tgn:7029392"
        ],
        "placetype": [
          "aat:300008699"
        ],
        "id": 7412007,
        "name:es": "Tulancingo, Río"
      }
    },
    {
      "geometry": {
        "type": "Point",
        "coordinates": [
          -98.402778,
          20.165278
        ]
      },
      "type": "Feature",
      "properties": {
        "hierarchy": [
          "tgn:7412008",
          "tgn:7005587",
          "tgn:1000001",
          "tgn:7005560",
          "tgn:7029392"
        ],
        "placetype": [
          "aat:300008347"
        ],
        "id": 7412008,
        "name:es": "Los Migueles"
      }
    },
    {
      "geometry": {
        "type": "Point",
        "coordinates": [
          -98.391667,
          20.158333
        ]
      },
      "type": "Feature",
      "properties": {
        "hierarchy": [
          "tgn:7412009",
          "tgn:7005587",
          "tgn:1000001",
          "tgn:7005560",
          "tgn:7029392"
        ],
        "placetype": [
          "aat:300008680"
        ],
        "id": 7412009,
        "name:es": "Suplitán, Laguna"
      }
    }
  ]
}
