{
  "type": "FeatureCollection",
  "features": [
    {
      "geometry": {
        "type": "Point",
        "coordinates": [
          79.361573,
          25.488827
        ]
      },
      "type": "Feature",
      "properties": {
        "hierarchy": [
          "tgn:7566640",
          "tgn:1000004",
          "tgn:7000198",
          "tgn:7016722",
          "tgn:7029392"
        ],
        "placetype": [
          "aat:300008699"
        ],
        "name:en": "Sukhnai Nadi",
        "id": 7566640
      }
    },
    {
      "geometry": {
        "type": "Point",
        "coordinates": [
          79.342283,
          25.495493
        ]
      },
      "type": "Feature",
      "properties": {
        "hierarchy": [
          "tgn:7566641",
          "tgn:1000004",
          "tgn:7000198",
          "tgn:7016722",
          "tgn:7029392"
        ],
        "placetype": [
          "aat:300008347"
        ],
        "name:en": "Pura",
        "id": 7566641
      }
    },
    {
      "geometry": {
        "type": "Point",
        "coordinates": [
          79.303325,
          25.497808
        ]
      },
      "type": "Feature",
      "properties": {
        "hierarchy": [
          "tgn:7566642",
          "tgn:1000004",
          "tgn:7000198",
          "tgn:7016722",
          "tgn:7029392"
        ],
        "placetype": [
          "aat:300008347"
        ],
        "name:en": "Simardha",
        "id": 7566642
      }
    },
    {
      "geometry": {
        "type": "Point",
        "coordinates": [
          79.185971,
          25.499253
        ]
      },
      "type": "Feature",
      "properties": {
        "hierarchy": [
          "tgn:7566643",
          "tgn:1000004",
          "tgn:7000198",
          "tgn:7016722",
          "tgn:7029392"
        ],
        "placetype": [
          "aat:300008347"
        ],
        "name:en": "Garha",
        "id": 7566643
      }
    },
    {
      "geometry": {
        "type": "Point",
        "coordinates": [
          79.167978,
          25.500575
        ]
      },
      "type": "Feature",
      "properties": {
        "hierarchy": [
          "tgn:7566644",
          "tgn:1000004",
          "tgn:7000198",
          "tgn:7016722",
          "tgn:7029392"
        ],
        "placetype": [
          "aat:300008347"
        ],
        "name:en": "B카rsinghpura",
        "id": 7566644
      }
    },
    {
      "geometry": {
        "type": "Point",
        "coordinates": [
          79.138252,
          25.505809
        ]
      },
      "type": "Feature",
      "properties": {
        "hierarchy": [
          "tgn:7566645",
          "tgn:1000004",
          "tgn:7000198",
          "tgn:7016722",
          "tgn:7029392"
        ],
        "placetype": [
          "aat:300008347"
        ],
        "name:en": "Barw훮r",
        "id": 7566645
      }
    },
    {
      "geometry": {
        "type": "Point",
        "coordinates": [
          79.106515,
          25.499218
        ]
      },
      "type": "Feature",
      "properties": {
        "hierarchy": [
          "tgn:7566646",
          "tgn:1000004",
          "tgn:7000198",
          "tgn:7016722",
          "tgn:7029392"
        ],
        "placetype": [
          "aat:300008347"
        ],
        "name:en": "Bela",
        "id": 7566646
      }
    },
    {
      "geometry": {
        "type": "Point",
        "coordinates": [
          79.026251,
          25.50141
        ]
      },
      "type": "Feature",
      "properties": {
        "hierarchy": [
          "tgn:7566647",
          "tgn:1000004",
          "tgn:7000198",
          "tgn:7016722",
          "tgn:7029392"
        ],
        "placetype": [
          "aat:300008347"
        ],
        "name:en": "Pasr훮i",
        "id": 7566647
      }
    },
    {
      "geometry": {
        "type": "Point",
        "coordinates": [
          79.032311,
          25.511567
        ]
      },
      "type": "Feature",
      "properties": {
        "hierarchy": [
          "tgn:7566648",
          "tgn:1000004",
          "tgn:7000198",
          "tgn:7016722",
          "tgn:7029392"
        ],
        "placetype": [
          "aat:300008347"
        ],
        "name:en": "G훮ta",
        "id": 7566648
      }
    },
    {
      "geometry": {
        "type": "Point",
        "coordinates": [
          79.011319,
          25.508568
        ]
      },
      "type": "Feature",
      "properties": {
        "hierarchy": [
          "tgn:7566649",
          "tgn:1000004",
          "tgn:7000198",
          "tgn:7016722",
          "tgn:7029392"
        ],
        "placetype": [
          "aat:300008347"
        ],
        "name:en": "Tendwa",
        "id": 7566649
      }
    }
  ]
}
