{
  "type": "FeatureCollection",
  "features": [
    {
      "geometry": {
        "type": "Point",
        "coordinates": [
          121.065556,
          24.830278
        ]
      },
      "type": "Feature",
      "properties": {
        "hierarchy": [
          "tgn:7481050",
          "tgn:1000004",
          "tgn:7471332",
          "tgn:1000141",
          "tgn:7029392"
        ],
        "placetype": [
          "aat:300007836"
        ],
        "id": 7481050,
        "name:xx": "Hankeng Qiao"
      }
    },
    {
      "geometry": {
        "type": "Point",
        "coordinates": [
          121.070556,
          24.828611
        ]
      },
      "type": "Feature",
      "properties": {
        "hierarchy": [
          "tgn:7481051",
          "tgn:1000004",
          "tgn:7471332",
          "tgn:1000141",
          "tgn:7029392"
        ],
        "placetype": [
          "aat:300006495"
        ],
        "id": 7481051,
        "name:xx": "Xinbu Guozhong"
      }
    },
    {
      "geometry": {
        "type": "Point",
        "coordinates": [
          121.073889,
          24.829722
        ]
      },
      "type": "Feature",
      "properties": {
        "hierarchy": [
          "tgn:7481052",
          "tgn:1000004",
          "tgn:7471332",
          "tgn:1000141",
          "tgn:7029392"
        ],
        "placetype": [
          "aat:300006495"
        ],
        "id": 7481052,
        "name:xx": "Xinxing Guoxiao"
      }
    },
    {
      "geometry": {
        "type": "Point",
        "coordinates": [
          121.078889,
          24.828889
        ]
      },
      "type": "Feature",
      "properties": {
        "hierarchy": [
          "tgn:7481053",
          "tgn:1000004",
          "tgn:7471332",
          "tgn:1000141",
          "tgn:7029392"
        ],
        "placetype": [
          "aat:300007595"
        ],
        "id": 7481053,
        "name:xx": "Yiyong Miao"
      }
    },
    {
      "geometry": {
        "type": "Point",
        "coordinates": [
          120.253889,
          22.643611
        ]
      },
      "type": "Feature",
      "properties": {
        "hierarchy": [
          "tgn:7481054",
          "tgn:7001004",
          "tgn:1000004",
          "tgn:1000141",
          "tgn:7029392"
        ],
        "placetype": [
          "aat:300008347"
        ],
        "id": 7481054,
        "name:xx": "Chaishan"
      }
    },
    {
      "geometry": {
        "type": "Point",
        "coordinates": [
          120.213056,
          23.773056
        ]
      },
      "type": "Feature",
      "properties": {
        "hierarchy": [
          "tgn:7481055",
          "tgn:1000004",
          "tgn:7001014",
          "tgn:1000141",
          "tgn:7029392"
        ],
        "placetype": [
          "aat:300007836"
        ],
        "id": 7481055,
        "name:xx": "Fengzhen Qiao"
      }
    },
    {
      "geometry": {
        "type": "Point",
        "coordinates": [
          120.218333,
          23.771667
        ]
      },
      "type": "Feature",
      "properties": {
        "hierarchy": [
          "tgn:7481056",
          "tgn:1000004",
          "tgn:7001014",
          "tgn:1000141",
          "tgn:7029392"
        ],
        "placetype": [
          "aat:300007836"
        ],
        "id": 7481056,
        "name:xx": "Shibadong Qiao"
      }
    },
    {
      "geometry": {
        "type": "Point",
        "coordinates": [
          120.236944,
          23.791389
        ]
      },
      "type": "Feature",
      "properties": {
        "hierarchy": [
          "tgn:7481057",
          "tgn:1000004",
          "tgn:7001014",
          "tgn:1000141",
          "tgn:7029392"
        ],
        "placetype": [
          "aat:300007836"
        ],
        "id": 7481057,
        "name:xx": "Hou'an Daqiao"
      }
    },
    {
      "geometry": {
        "type": "Point",
        "coordinates": [
          120.246389,
          23.787222
        ]
      },
      "type": "Feature",
      "properties": {
        "hierarchy": [
          "tgn:7481058",
          "tgn:1000004",
          "tgn:7001014",
          "tgn:1000141",
          "tgn:7029392"
        ],
        "placetype": [
          "aat:300007836"
        ],
        "id": 7481058,
        "name:xx": "Andong Qiao"
      }
    },
    {
      "geometry": {
        "type": "Point",
        "coordinates": [
          120.256111,
          23.785278
        ]
      },
      "type": "Feature",
      "properties": {
        "hierarchy": [
          "tgn:7481059",
          "tgn:1000004",
          "tgn:7001014",
          "tgn:1000141",
          "tgn:7029392"
        ],
        "placetype": [
          "aat:300007836"
        ],
        "id": 7481059,
        "name:xx": "Guoshui Qiao"
      }
    }
  ]
}
