{
  "type": "FeatureCollection",
  "features": [
    {
      "geometry": {
        "type": "Point",
        "coordinates": [
          -99.812222,
          26.914444
        ]
      },
      "type": "Feature",
      "properties": {
        "hierarchy": [
          "tgn:7419580",
          "tgn:1000001",
          "tgn:7005589",
          "tgn:7005560",
          "tgn:7029392"
        ],
        "placetype": [
          "aat:300008347"
        ],
        "id": 7419580,
        "name:es": "La Gloria"
      }
    },
    {
      "geometry": {
        "type": "Point",
        "coordinates": [
          -99.718611,
          26.900833
        ]
      },
      "type": "Feature",
      "properties": {
        "hierarchy": [
          "tgn:7419581",
          "tgn:1000001",
          "tgn:7005589",
          "tgn:7005560",
          "tgn:7029392"
        ],
        "placetype": [
          "aat:300008347"
        ],
        "id": 7419581,
        "name:es": "Aquiles Serdán"
      }
    },
    {
      "geometry": {
        "type": "Point",
        "coordinates": [
          -99.616944,
          26.876389
        ]
      },
      "type": "Feature",
      "properties": {
        "hierarchy": [
          "tgn:7419583",
          "tgn:1000001",
          "tgn:7005589",
          "tgn:7005560",
          "tgn:7029392"
        ],
        "placetype": [
          "aat:300008347"
        ],
        "id": 7419583,
        "name:es": "Santa Solía"
      }
    },
    {
      "geometry": {
        "type": "Point",
        "coordinates": [
          -99.656111,
          26.8125
        ]
      },
      "type": "Feature",
      "properties": {
        "hierarchy": [
          "tgn:7419584",
          "tgn:1000001",
          "tgn:7005589",
          "tgn:7005560",
          "tgn:7029392"
        ],
        "placetype": [
          "aat:300008699"
        ],
        "id": 7419584,
        "name:es": "El Coyote, Río"
      }
    },
    {
      "geometry": {
        "type": "Point",
        "coordinates": [
          -99.756944,
          26.805556
        ]
      },
      "type": "Feature",
      "properties": {
        "hierarchy": [
          "tgn:7419585",
          "tgn:1000001",
          "tgn:7005589",
          "tgn:7005560",
          "tgn:7029392"
        ],
        "placetype": [
          "aat:300006191"
        ],
        "id": 7419585,
        "name:es": "Bordo Santa Rosa"
      }
    },
    {
      "geometry": {
        "type": "Point",
        "coordinates": [
          -99.890278,
          26.781111
        ]
      },
      "type": "Feature",
      "properties": {
        "hierarchy": [
          "tgn:7419586",
          "tgn:1000001",
          "tgn:7005589",
          "tgn:7005560",
          "tgn:7029392"
        ],
        "placetype": [
          "aat:300008347"
        ],
        "id": 7419586,
        "name:es": "San Marcos"
      }
    },
    {
      "geometry": {
        "type": "Point",
        "coordinates": [
          -99.998611,
          26.827778
        ]
      },
      "type": "Feature",
      "properties": {
        "hierarchy": [
          "tgn:7419589",
          "tgn:1000001",
          "tgn:7005589",
          "tgn:7005560",
          "tgn:7029392"
        ],
        "placetype": [
          "aat:300008347"
        ],
        "id": 7419589,
        "name:es": "La Minita"
      }
    }
  ]
}
