{
  "type": "FeatureCollection",
  "features": [
    {
      "geometry": {
        "type": "Point",
        "coordinates": [
          120.505178,
          22.485142
        ]
      },
      "type": "Feature",
      "properties": {
        "hierarchy": [
          "tgn:7478310",
          "tgn:1000004",
          "tgn:7492971",
          "tgn:1000141",
          "tgn:7029392"
        ],
        "placetype": [
          "aat:300266755"
        ],
        "id": 7478310,
        "name:xx": "Diyi Gongmu"
      }
    },
    {
      "geometry": {
        "type": "Point",
        "coordinates": [
          120.501907,
          22.481813
        ]
      },
      "type": "Feature",
      "properties": {
        "hierarchy": [
          "tgn:7478311",
          "tgn:1000004",
          "tgn:7492971",
          "tgn:1000141",
          "tgn:7029392"
        ],
        "placetype": [
          "aat:300007595"
        ],
        "id": 7478311,
        "name:xx": "Nan'an Gong"
      }
    },
    {
      "geometry": {
        "type": "Point",
        "coordinates": [
          120.466526,
          22.477075
        ]
      },
      "type": "Feature",
      "properties": {
        "hierarchy": [
          "tgn:7478312",
          "tgn:1000004",
          "tgn:7492971",
          "tgn:1000141",
          "tgn:7029392"
        ],
        "placetype": [
          "aat:300007595"
        ],
        "id": 7478312,
        "name:xx": "Zhaoyang Gong"
      }
    },
    {
      "geometry": {
        "type": "Point",
        "coordinates": [
          120.460041,
          22.476034
        ]
      },
      "type": "Feature",
      "properties": {
        "hierarchy": [
          "tgn:7478313",
          "tgn:1000004",
          "tgn:7492971",
          "tgn:1000141",
          "tgn:7029392"
        ],
        "placetype": [
          "aat:300007595"
        ],
        "id": 7478313,
        "name:xx": "Xinlong Gong"
      }
    },
    {
      "geometry": {
        "type": "Point",
        "coordinates": [
          120.458289,
          22.473009
        ]
      },
      "type": "Feature",
      "properties": {
        "hierarchy": [
          "tgn:7478314",
          "tgn:1000004",
          "tgn:7492971",
          "tgn:1000141",
          "tgn:7029392"
        ],
        "placetype": [
          "aat:300006676"
        ],
        "id": 7478314,
        "name:xx": "Antai Yiyuan"
      }
    },
    {
      "geometry": {
        "type": "Point",
        "coordinates": [
          120.768984,
          24.616628
        ]
      },
      "type": "Feature",
      "properties": {
        "hierarchy": [
          "tgn:7478315",
          "tgn:7487020",
          "tgn:1000004",
          "tgn:1000141",
          "tgn:7029392"
        ],
        "placetype": [
          "aat:300007595"
        ],
        "id": 7478315,
        "name:xx": "Dazhongye Miao"
      }
    },
    {
      "geometry": {
        "type": "Point",
        "coordinates": [
          120.99089,
          24.664522
        ]
      },
      "type": "Feature",
      "properties": {
        "hierarchy": [
          "tgn:7478316",
          "tgn:7487020",
          "tgn:1000004",
          "tgn:1000141",
          "tgn:7029392"
        ],
        "placetype": [
          "aat:300007836"
        ],
        "id": 7478316,
        "name:xx": "Dakeng Qiao"
      }
    },
    {
      "geometry": {
        "type": "Point",
        "coordinates": [
          120.990771,
          24.626797
        ]
      },
      "type": "Feature",
      "properties": {
        "hierarchy": [
          "tgn:7478317",
          "tgn:7487020",
          "tgn:1000004",
          "tgn:1000141",
          "tgn:7029392"
        ],
        "placetype": [
          "aat:300007595"
        ],
        "id": 7478317,
        "name:xx": "Baiyun Si"
      }
    },
    {
      "geometry": {
        "type": "Point",
        "coordinates": [
          120.990164,
          24.642434
        ]
      },
      "type": "Feature",
      "properties": {
        "hierarchy": [
          "tgn:7478318",
          "tgn:7487020",
          "tgn:1000004",
          "tgn:1000141",
          "tgn:7029392"
        ],
        "placetype": [
          "aat:300008777"
        ],
        "id": 7478318,
        "name:xx": "Qiedongfu Shan"
      }
    },
    {
      "geometry": {
        "type": "Point",
        "coordinates": [
          121.044444,
          24.713889
        ]
      },
      "type": "Feature",
      "properties": {
        "hierarchy": [
          "tgn:7478319",
          "tgn:1000004",
          "tgn:7471332",
          "tgn:1000141",
          "tgn:7029392"
        ],
        "placetype": [
          "aat:300008777"
        ],
        "id": 7478319,
        "name:xx": "Shi'erliao Shan"
      }
    }
  ]
}
