{
  "type": "FeatureCollection",
  "features": [
    {
      "geometry": {
        "type": "Point",
        "coordinates": [
          74.316667,
          33.925
        ]
      },
      "type": "Feature",
      "properties": {
        "hierarchy": [
          "tgn:7590170",
          "tgn:1000004",
          "tgn:7000198",
          "tgn:7000799",
          "tgn:7029392"
        ],
        "placetype": [
          "aat:300008863"
        ],
        "name:en": "Makhi훮ri Forest",
        "id": 7590170
      }
    },
    {
      "geometry": {
        "type": "Point",
        "coordinates": [
          73.911626,
          34.042411
        ]
      },
      "type": "Feature",
      "properties": {
        "hierarchy": [
          "tgn:7590171",
          "tgn:1000004",
          "tgn:7000198",
          "tgn:7000799",
          "tgn:7029392"
        ],
        "placetype": [
          "aat:300008347"
        ],
        "name:en": "Mohri훮n",
        "id": 7590171
      }
    },
    {
      "geometry": {
        "type": "Point",
        "coordinates": [
          73.933029,
          34.028804
        ]
      },
      "type": "Feature",
      "properties": {
        "hierarchy": [
          "tgn:7590172",
          "tgn:1000004",
          "tgn:7000198",
          "tgn:7000799",
          "tgn:7029392"
        ],
        "placetype": [
          "aat:300008347"
        ],
        "name:en": "Ki훮ri Nakka",
        "id": 7590172
      }
    },
    {
      "geometry": {
        "type": "Point",
        "coordinates": [
          73.960257,
          34.034006
        ]
      },
      "type": "Feature",
      "properties": {
        "hierarchy": [
          "tgn:7590173",
          "tgn:1000004",
          "tgn:7000198",
          "tgn:7000799",
          "tgn:7029392"
        ],
        "placetype": [
          "aat:300008347"
        ],
        "name:en": "Khilla",
        "id": 7590173
      }
    },
    {
      "geometry": {
        "type": "Point",
        "coordinates": [
          73.916667,
          34.080556
        ]
      },
      "type": "Feature",
      "properties": {
        "hierarchy": [
          "tgn:7590174",
          "tgn:1000004",
          "tgn:7000198",
          "tgn:7000799",
          "tgn:7029392"
        ],
        "placetype": [
          "aat:300008347"
        ],
        "name:en": "Khetar Danna",
        "id": 7590174
      }
    },
    {
      "geometry": {
        "type": "Point",
        "coordinates": [
          73.927081,
          34.091362
        ]
      },
      "type": "Feature",
      "properties": {
        "hierarchy": [
          "tgn:7590175",
          "tgn:1000004",
          "tgn:7000198",
          "tgn:7000799",
          "tgn:7029392"
        ],
        "placetype": [
          "aat:300008347"
        ],
        "name:en": "Kh훮lsa",
        "id": 7590175
      }
    },
    {
      "geometry": {
        "type": "Point",
        "coordinates": [
          73.944741,
          34.107403
        ]
      },
      "type": "Feature",
      "properties": {
        "hierarchy": [
          "tgn:7590176",
          "tgn:1000004",
          "tgn:7000198",
          "tgn:7000799",
          "tgn:7029392"
        ],
        "placetype": [
          "aat:300008347"
        ],
        "name:en": "Khalabat",
        "id": 7590176
      }
    },
    {
      "geometry": {
        "type": "Point",
        "coordinates": [
          73.963232,
          34.131018
        ]
      },
      "type": "Feature",
      "properties": {
        "hierarchy": [
          "tgn:7590177",
          "tgn:1000004",
          "tgn:7000198",
          "tgn:7000799",
          "tgn:7029392"
        ],
        "placetype": [
          "aat:300008347"
        ],
        "name:en": "Kamalkot",
        "id": 7590177
      }
    },
    {
      "geometry": {
        "type": "Point",
        "coordinates": [
          73.997222,
          34.055556
        ]
      },
      "type": "Feature",
      "properties": {
        "hierarchy": [
          "tgn:7590178",
          "tgn:1000004",
          "tgn:7000198",
          "tgn:7000799",
          "tgn:7029392"
        ],
        "placetype": [
          "aat:300008347"
        ],
        "name:en": "Kachar",
        "id": 7590178
      }
    },
    {
      "geometry": {
        "type": "Point",
        "coordinates": [
          73.97184,
          34.042363
        ]
      },
      "type": "Feature",
      "properties": {
        "hierarchy": [
          "tgn:7590179",
          "tgn:1000004",
          "tgn:7000198",
          "tgn:7000799",
          "tgn:7029392"
        ],
        "placetype": [
          "aat:300008347"
        ],
        "name:en": "Isa Baihk",
        "id": 7590179
      }
    }
  ]
}
