{
  "type": "FeatureCollection",
  "features": [
    {
      "geometry": {
        "type": "Point",
        "coordinates": [
          120.739871,
          23.967682
        ]
      },
      "type": "Feature",
      "properties": {
        "hierarchy": [
          "tgn:7495040",
          "tgn:7488858",
          "tgn:1000004",
          "tgn:1000141",
          "tgn:7029392"
        ],
        "placetype": [
          "aat:300006495"
        ],
        "id": 7495040,
        "name:xx": "Pingding Guoxiao"
      }
    },
    {
      "geometry": {
        "type": "Point",
        "coordinates": [
          120.6747,
          23.9599
        ]
      },
      "type": "Feature",
      "properties": {
        "hierarchy": [
          "tgn:7495041",
          "tgn:7488858",
          "tgn:1000004",
          "tgn:1000141",
          "tgn:7029392"
        ],
        "placetype": [
          "aat:300008347"
        ],
        "id": 7495041,
        "name:xx": "Zhongzhuang"
      }
    },
    {
      "geometry": {
        "type": "Point",
        "coordinates": [
          120.6914,
          23.9675
        ]
      },
      "type": "Feature",
      "properties": {
        "hierarchy": [
          "tgn:7495042",
          "tgn:7488858",
          "tgn:1000004",
          "tgn:1000141",
          "tgn:7029392"
        ],
        "placetype": [
          "aat:300266755"
        ],
        "id": 7495042,
        "name:xx": "Caotun Diyi Gongmu"
      }
    },
    {
      "geometry": {
        "type": "Point",
        "coordinates": [
          120.683067,
          23.969467
        ]
      },
      "type": "Feature",
      "properties": {
        "hierarchy": [
          "tgn:7495043",
          "tgn:7488858",
          "tgn:1000004",
          "tgn:1000141",
          "tgn:7029392"
        ],
        "placetype": [
          "aat:300007836"
        ],
        "id": 7495043,
        "name:xx": "Diyi Taiping Qiao"
      }
    },
    {
      "geometry": {
        "type": "Point",
        "coordinates": [
          120.6778,
          23.9686
        ]
      },
      "type": "Feature",
      "properties": {
        "hierarchy": [
          "tgn:7495044",
          "tgn:7488858",
          "tgn:1000004",
          "tgn:1000141",
          "tgn:7029392"
        ],
        "placetype": [
          "aat:300007836"
        ],
        "id": 7495044,
        "name:xx": "Linzitou Qiao"
      }
    },
    {
      "geometry": {
        "type": "Point",
        "coordinates": [
          120.663981,
          23.975319
        ]
      },
      "type": "Feature",
      "properties": {
        "hierarchy": [
          "tgn:7495045",
          "tgn:7488858",
          "tgn:1000004",
          "tgn:1000141",
          "tgn:7029392"
        ],
        "placetype": [
          "aat:300008347"
        ],
        "id": 7495045,
        "name:xx": "Beitoubu"
      }
    },
    {
      "geometry": {
        "type": "Point",
        "coordinates": [
          120.6655,
          23.9696
        ]
      },
      "type": "Feature",
      "properties": {
        "hierarchy": [
          "tgn:7495046",
          "tgn:7488858",
          "tgn:1000004",
          "tgn:1000141",
          "tgn:7029392"
        ],
        "placetype": [
          "aat:300006495"
        ],
        "id": 7495046,
        "name:xx": "Bifeng Guoxiao"
      }
    },
    {
      "geometry": {
        "type": "Point",
        "coordinates": [
          120.657488,
          23.973699
        ]
      },
      "type": "Feature",
      "properties": {
        "hierarchy": [
          "tgn:7495047",
          "tgn:7488858",
          "tgn:1000004",
          "tgn:1000141",
          "tgn:7029392"
        ],
        "placetype": [
          "aat:300008347"
        ],
        "id": 7495047,
        "name:xx": "Nanbeitoubu"
      }
    },
    {
      "geometry": {
        "type": "Point",
        "coordinates": [
          120.6549,
          23.9726
        ]
      },
      "type": "Feature",
      "properties": {
        "hierarchy": [
          "tgn:7495048",
          "tgn:7488858",
          "tgn:1000004",
          "tgn:1000141",
          "tgn:7029392"
        ],
        "placetype": [
          "aat:300007836"
        ],
        "id": 7495048,
        "name:xx": "Yicheng Qiao"
      }
    },
    {
      "geometry": {
        "type": "Point",
        "coordinates": [
          120.6466,
          23.9701
        ]
      },
      "type": "Feature",
      "properties": {
        "hierarchy": [
          "tgn:7495049",
          "tgn:7488858",
          "tgn:1000004",
          "tgn:1000141",
          "tgn:7029392"
        ],
        "placetype": [
          "aat:300007836"
        ],
        "id": 7495049,
        "name:xx": "Xitou Qiao"
      }
    }
  ]
}
