{
  "type": "FeatureCollection",
  "features": [
    {
      "geometry": {
        "type": "Point",
        "coordinates": [
          6.133333,
          50.55
        ]
      },
      "type": "Feature",
      "properties": {
        "hierarchy": [
          "tgn:7245770",
          "tgn:7003460",
          "tgn:1000003",
          "tgn:1000063",
          "tgn:4012014",
          "tgn:7029392"
        ],
        "placetype": [
          "aat:300008347"
        ],
        "id": 7245770,
        "name:xx": "Bongard"
      }
    },
    {
      "geometry": {
        "type": "Point",
        "coordinates": [
          4.25,
          50.75
        ]
      },
      "type": "Feature",
      "properties": {
        "hierarchy": [
          "tgn:7245771",
          "tgn:7018239",
          "tgn:1000003",
          "tgn:1000063",
          "tgn:7018236",
          "tgn:7029392"
        ],
        "placetype": [
          "aat:300008699"
        ],
        "id": 7245771,
        "name:xx": "Bonenbeek"
      }
    },
    {
      "geometry": {
        "type": "Point",
        "coordinates": [
          4.25,
          51.05
        ]
      },
      "type": "Feature",
      "properties": {
        "hierarchy": [
          "tgn:7245772",
          "tgn:7003456",
          "tgn:1000003",
          "tgn:1000063",
          "tgn:7018236",
          "tgn:7029392"
        ],
        "placetype": [
          "aat:300000206"
        ],
        "id": 7245772,
        "name:xx": "Bonef Hoeve"
      }
    },
    {
      "geometry": {
        "type": "Point",
        "coordinates": [
          4.957788,
          50.624866
        ]
      },
      "type": "Feature",
      "properties": {
        "hierarchy": [
          "tgn:7245773",
          "tgn:7003466",
          "tgn:1000003",
          "tgn:1000063",
          "tgn:4012014",
          "tgn:7029392"
        ],
        "placetype": [
          "aat:300008347"
        ],
        "id": 7245773,
        "name:xx": "Boneffe"
      }
    },
    {
      "geometry": {
        "type": "Point",
        "coordinates": [
          4.283333,
          49.966667
        ]
      },
      "type": "Feature",
      "properties": {
        "hierarchy": [
          "tgn:7245775",
          "tgn:1000003",
          "tgn:1000063",
          "tgn:7029392"
        ],
        "placetype": [
          "aat:300008699"
        ],
        "id": 7245775,
        "name:xx": "Bonde"
      }
    },
    {
      "geometry": {
        "type": "Point",
        "coordinates": [
          4.283102,
          50.57166
        ]
      },
      "type": "Feature",
      "properties": {
        "hierarchy": [
          "tgn:7245776",
          "tgn:7007877",
          "tgn:1000003",
          "tgn:1000063",
          "tgn:4012014",
          "tgn:7029392"
        ],
        "placetype": [
          "aat:300008347"
        ],
        "id": 7245776,
        "name:xx": "Bon Conseil"
      }
    },
    {
      "geometry": {
        "type": "Point",
        "coordinates": [
          5.533333,
          50.583333
        ]
      },
      "type": "Feature",
      "properties": {
        "hierarchy": [
          "tgn:7245777",
          "tgn:7003460",
          "tgn:1000003",
          "tgn:1000063",
          "tgn:4012014",
          "tgn:7029392"
        ],
        "placetype": [
          "aat:300006909"
        ],
        "id": 7245777,
        "name:xx": "Fort de Boncelles"
      }
    },
    {
      "geometry": {
        "type": "Point",
        "coordinates": [
          5.533333,
          50.566667
        ]
      },
      "type": "Feature",
      "properties": {
        "hierarchy": [
          "tgn:7245778",
          "tgn:7003460",
          "tgn:1000003",
          "tgn:1000063",
          "tgn:4012014",
          "tgn:7029392"
        ],
        "placetype": [
          "aat:300008347"
        ],
        "id": 7245778,
        "name:xx": "Boncelles"
      }
    }
  ]
}
