{
  "type": "FeatureCollection",
  "features": [
    {
      "geometry": {
        "type": "Point",
        "coordinates": [
          28.195985,
          30.999691
        ]
      },
      "type": "Feature",
      "properties": {
        "hierarchy": [
          "tgn:7533390",
          "tgn:7001242",
          "tgn:7016833",
          "tgn:1001418",
          "tgn:7029392"
        ],
        "placetype": [
          "aat:300006207"
        ],
        "name:en": "Sāniyat Jabrīyah",
        "id": 7533390
      }
    },
    {
      "geometry": {
        "type": "Point",
        "coordinates": [
          33.816667,
          25.733333
        ]
      },
      "type": "Feature",
      "properties": {
        "hierarchy": [
          "tgn:7533391",
          "tgn:7001242",
          "tgn:7001311",
          "tgn:7016833",
          "tgn:7029392"
        ],
        "placetype": [
          "aat:300008795"
        ],
        "name:en": "Jabrāwīyah, Jabal al",
        "id": 7533391
      }
    },
    {
      "geometry": {
        "type": "Point",
        "coordinates": [
          31.077771,
          27.344026
        ]
      },
      "type": "Feature",
      "properties": {
        "hierarchy": [
          "tgn:7533392",
          "tgn:7001242",
          "tgn:7001311",
          "tgn:7016833",
          "tgn:7029392"
        ],
        "placetype": [
          "aat:300379998"
        ],
        "name:en": "Jabrāwī, Wādī al",
        "id": 7533392
      }
    },
    {
      "geometry": {
        "type": "Point",
        "coordinates": [
          27.59494,
          30.961782
        ]
      },
      "type": "Feature",
      "properties": {
        "hierarchy": [
          "tgn:7533393",
          "tgn:7001242",
          "tgn:7016833",
          "tgn:1001418",
          "tgn:7029392"
        ],
        "placetype": [
          "aat:300006207"
        ],
        "name:en": "Bîr Hâmil",
        "id": 7533393
      }
    },
    {
      "geometry": {
        "type": "Point",
        "coordinates": [
          27.658804,
          30.840757
        ]
      },
      "type": "Feature",
      "properties": {
        "hierarchy": [
          "tgn:7533394",
          "tgn:7001242",
          "tgn:7016833",
          "tgn:1001418",
          "tgn:7029392"
        ],
        "placetype": [
          "aat:300006207"
        ],
        "name:en": "Bîr Hâmil",
        "id": 7533394
      }
    },
    {
      "geometry": {
        "type": "Point",
        "coordinates": [
          30.385612,
          30.946715
        ]
      },
      "type": "Feature",
      "properties": {
        "hierarchy": [
          "tgn:7533395",
          "tgn:7001242",
          "tgn:1001075",
          "tgn:7016833",
          "tgn:7029392"
        ],
        "placetype": [
          "aat:300000206"
        ],
        "name:en": "'Ezbet el-Hamidiya",
        "id": 7533395
      }
    },
    {
      "geometry": {
        "type": "Point",
        "coordinates": [
          31.85,
          26.35
        ]
      },
      "type": "Feature",
      "properties": {
        "hierarchy": [
          "tgn:7533396",
          "tgn:7001242",
          "tgn:7016833",
          "tgn:7000124",
          "tgn:7029392"
        ],
        "placetype": [
          "aat:300343519"
        ],
        "name:en": "Ḩamīdī, Ḩawḑ al",
        "id": 7533396
      }
    },
    {
      "geometry": {
        "type": "Point",
        "coordinates": [
          32.733333,
          26.15
        ]
      },
      "type": "Feature",
      "properties": {
        "hierarchy": [
          "tgn:7533397",
          "tgn:7001242",
          "tgn:7016833",
          "tgn:7000123",
          "tgn:7029392"
        ],
        "placetype": [
          "aat:300343519"
        ],
        "name:en": "Ḩamīdāt, Ḩawḑ al",
        "id": 7533397
      }
    },
    {
      "geometry": {
        "type": "Point",
        "coordinates": [
          26.526006,
          29.161045
        ]
      },
      "type": "Feature",
      "properties": {
        "hierarchy": [
          "tgn:7533398",
          "tgn:7001242",
          "tgn:7016833",
          "tgn:1001418",
          "tgn:7029392"
        ],
        "placetype": [
          "aat:300379998"
        ],
        "name:en": "Ḩāmid, Wādī",
        "id": 7533398
      }
    },
    {
      "geometry": {
        "type": "Point",
        "coordinates": [
          31.861277,
          22.326087
        ]
      },
      "type": "Feature",
      "properties": {
        "hierarchy": [
          "tgn:7533399",
          "tgn:7001242",
          "tgn:7016833",
          "tgn:7000122",
          "tgn:7029392"
        ],
        "placetype": [
          "aat:300379998"
        ],
        "name:en": "Ḩamīd, Wādī",
        "id": 7533399
      }
    }
  ]
}
