{
  "type": "FeatureCollection",
  "features": [
    {
      "geometry": {
        "type": "Point",
        "coordinates": [
          31.28187,
          30.092539
        ]
      },
      "type": "Feature",
      "properties": {
        "hierarchy": [
          "tgn:7531500",
          "tgn:7001242",
          "tgn:7016833",
          "tgn:1001091",
          "tgn:7029392"
        ],
        "placetype": [
          "aat:300007544"
        ],
        "id": 7531500,
        "name:xx": "Masjid at Tawbah"
      }
    },
    {
      "geometry": {
        "type": "Point",
        "coordinates": [
          31.277997,
          30.091445
        ]
      },
      "type": "Feature",
      "properties": {
        "hierarchy": [
          "tgn:7531501",
          "tgn:7001242",
          "tgn:7016833",
          "tgn:1001091",
          "tgn:7029392"
        ],
        "placetype": [
          "aat:300007544"
        ],
        "id": 7531501,
        "name:xx": "Masjid al Ḩaramayn"
      }
    },
    {
      "geometry": {
        "type": "Point",
        "coordinates": [
          31.279747,
          30.090482
        ]
      },
      "type": "Feature",
      "properties": {
        "hierarchy": [
          "tgn:7531502",
          "tgn:7001242",
          "tgn:7016833",
          "tgn:1001091",
          "tgn:7029392"
        ],
        "placetype": [
          "aat:300004792"
        ],
        "id": 7531502,
        "name:xx": "Mişr Ḩalwān lil Ghazl wa an Nasīj"
      }
    },
    {
      "geometry": {
        "type": "Point",
        "coordinates": [
          31.281652,
          30.090254
        ]
      },
      "type": "Feature",
      "properties": {
        "hierarchy": [
          "tgn:7531503",
          "tgn:7001242",
          "tgn:7016833",
          "tgn:1001091",
          "tgn:7029392"
        ],
        "placetype": [
          "aat:300004792"
        ],
        "id": 7531503,
        "name:xx": "Nādī Shirkat Mişr lil Bitrūl"
      }
    },
    {
      "geometry": {
        "type": "Point",
        "coordinates": [
          32.463008,
          31.144145
        ]
      },
      "type": "Feature",
      "properties": {
        "hierarchy": [
          "tgn:7531504",
          "tgn:7001242",
          "tgn:7016833",
          "tgn:1001123",
          "tgn:7029392"
        ],
        "placetype": [
          "aat:300008057"
        ],
        "id": 7531504,
        "name:xx": "Qal'at Umm Mufrij"
      }
    },
    {
      "geometry": {
        "type": "Point",
        "coordinates": [
          32.26175,
          31.179303
        ]
      },
      "type": "Feature",
      "properties": {
        "hierarchy": [
          "tgn:7531505",
          "tgn:7001242",
          "tgn:7016833",
          "tgn:1001123",
          "tgn:7029392"
        ],
        "placetype": [
          "aat:300008791"
        ],
        "id": 7531505,
        "name:xx": "Dawānī 'Ashrīn, Jazā'ir"
      }
    },
    {
      "geometry": {
        "type": "Point",
        "coordinates": [
          32.213611,
          31.163611
        ]
      },
      "type": "Feature",
      "properties": {
        "hierarchy": [
          "tgn:7531506",
          "tgn:7001242",
          "tgn:7016833",
          "tgn:1001123",
          "tgn:7029392"
        ],
        "placetype": [
          "aat:300008791"
        ],
        "id": 7531506,
        "name:xx": "Sajāsīj, Jazīrāt as"
      }
    },
    {
      "geometry": {
        "type": "Point",
        "coordinates": [
          32.174954,
          31.173962
        ]
      },
      "type": "Feature",
      "properties": {
        "hierarchy": [
          "tgn:7531507",
          "tgn:7001242",
          "tgn:7016833",
          "tgn:1001123",
          "tgn:7029392"
        ],
        "placetype": [
          "aat:300185707"
        ],
        "id": 7531507,
        "name:xx": "'Ajā'ibah, Dākhlat al"
      }
    },
    {
      "geometry": {
        "type": "Point",
        "coordinates": [
          31.998889,
          31.242778
        ]
      },
      "type": "Feature",
      "properties": {
        "hierarchy": [
          "tgn:7531508",
          "tgn:7001242",
          "tgn:7016833",
          "tgn:1001123",
          "tgn:7029392"
        ],
        "placetype": [
          "aat:300006075"
        ],
        "id": 7531508,
        "name:xx": "Qanāt al Manzalah"
      }
    },
    {
      "geometry": {
        "type": "Point",
        "coordinates": [
          32.012222,
          31.150833
        ]
      },
      "type": "Feature",
      "properties": {
        "hierarchy": [
          "tgn:7531509",
          "tgn:7001242",
          "tgn:1001059",
          "tgn:7016833",
          "tgn:7029392"
        ],
        "placetype": [
          "aat:300006191"
        ],
        "name:en": "Mallâḥet el-Bilâsi",
        "id": 7531509
      }
    }
  ]
}
