{
  "type": "FeatureCollection",
  "features": [
    {
      "geometry": {
        "type": "Point",
        "coordinates": [
          74.883333,
          34.441667
        ]
      },
      "type": "Feature",
      "properties": {
        "hierarchy": [
          "tgn:7586610",
          "tgn:1000004",
          "tgn:7000198",
          "tgn:7000799",
          "tgn:7029392"
        ],
        "placetype": [
          "aat:300259572"
        ],
        "name:en": "Lolgul Gali",
        "id": 7586610
      }
    },
    {
      "geometry": {
        "type": "Point",
        "coordinates": [
          74.811111,
          34.425
        ]
      },
      "type": "Feature",
      "properties": {
        "hierarchy": [
          "tgn:7586611",
          "tgn:1000004",
          "tgn:7000198",
          "tgn:7000799",
          "tgn:7029392"
        ],
        "placetype": [
          "aat:300008699"
        ],
        "name:en": "Chhitrār Nār",
        "id": 7586611
      }
    },
    {
      "geometry": {
        "type": "Point",
        "coordinates": [
          74.854167,
          34.4375
        ]
      },
      "type": "Feature",
      "properties": {
        "hierarchy": [
          "tgn:7586612",
          "tgn:1000004",
          "tgn:7000198",
          "tgn:7000799",
          "tgn:7029392"
        ],
        "placetype": [
          "aat:300008347"
        ],
        "name:en": "Kundepāni",
        "id": 7586612
      }
    },
    {
      "geometry": {
        "type": "Point",
        "coordinates": [
          74.838889,
          34.433333
        ]
      },
      "type": "Feature",
      "properties": {
        "hierarchy": [
          "tgn:7586613",
          "tgn:1000004",
          "tgn:7000198",
          "tgn:7000799",
          "tgn:7029392"
        ],
        "placetype": [
          "aat:300008347"
        ],
        "name:en": "Dādan",
        "id": 7586613
      }
    },
    {
      "geometry": {
        "type": "Point",
        "coordinates": [
          74.841667,
          34.441667
        ]
      },
      "type": "Feature",
      "properties": {
        "hierarchy": [
          "tgn:7586614",
          "tgn:1000004",
          "tgn:7000198",
          "tgn:7000799",
          "tgn:7029392"
        ],
        "placetype": [
          "aat:300387200"
        ],
        "name:en": "Mukarpathri",
        "id": 7586614
      }
    },
    {
      "geometry": {
        "type": "Point",
        "coordinates": [
          74.845413,
          34.447644
        ]
      },
      "type": "Feature",
      "properties": {
        "hierarchy": [
          "tgn:7586615",
          "tgn:1000004",
          "tgn:7000198",
          "tgn:7000799",
          "tgn:7029392"
        ],
        "placetype": [
          "aat:300259572"
        ],
        "name:en": "Kaiyinmarg Gali",
        "id": 7586615
      }
    },
    {
      "geometry": {
        "type": "Point",
        "coordinates": [
          74.847222,
          34.458333
        ]
      },
      "type": "Feature",
      "properties": {
        "hierarchy": [
          "tgn:7586616",
          "tgn:1000004",
          "tgn:7000198",
          "tgn:7000799",
          "tgn:7029392"
        ],
        "placetype": [
          "aat:300008795"
        ],
        "name:en": "Kaiyinmarg",
        "id": 7586616
      }
    },
    {
      "geometry": {
        "type": "Point",
        "coordinates": [
          74.816667,
          34.45
        ]
      },
      "type": "Feature",
      "properties": {
        "hierarchy": [
          "tgn:7586617",
          "tgn:1000004",
          "tgn:7000198",
          "tgn:7000799",
          "tgn:7029392"
        ],
        "placetype": [
          "aat:300008688"
        ],
        "name:en": "Yamal Sar",
        "id": 7586617
      }
    },
    {
      "geometry": {
        "type": "Point",
        "coordinates": [
          74.816667,
          34.447222
        ]
      },
      "type": "Feature",
      "properties": {
        "hierarchy": [
          "tgn:7586618",
          "tgn:1000004",
          "tgn:7000198",
          "tgn:7000799",
          "tgn:7029392"
        ],
        "placetype": [
          "aat:300008795"
        ],
        "name:en": "Yamal",
        "id": 7586618
      }
    },
    {
      "geometry": {
        "type": "Point",
        "coordinates": [
          74.822222,
          34.433333
        ]
      },
      "type": "Feature",
      "properties": {
        "hierarchy": [
          "tgn:7586619",
          "tgn:1000004",
          "tgn:7000198",
          "tgn:7000799",
          "tgn:7029392"
        ],
        "placetype": [
          "aat:300008347"
        ],
        "name:en": "Chhitrār",
        "id": 7586619
      }
    }
  ]
}
