{
  "type": "FeatureCollection",
  "features": [
    {
      "geometry": {
        "type": "Point",
        "coordinates": [
          119.651583,
          23.689378
        ]
      },
      "type": "Feature",
      "properties": {
        "hierarchy": [
          "tgn:7476620",
          "tgn:1000004",
          "tgn:7004300",
          "tgn:1000141",
          "tgn:7029392"
        ],
        "placetype": [
          "aat:300008791"
        ],
        "id": 7476620,
        "name:xx": "Xiaoquzhao"
      }
    },
    {
      "geometry": {
        "type": "Point",
        "coordinates": [
          119.654922,
          23.688801
        ]
      },
      "type": "Feature",
      "properties": {
        "hierarchy": [
          "tgn:7476621",
          "tgn:1000004",
          "tgn:7004300",
          "tgn:1000141",
          "tgn:7029392"
        ],
        "placetype": [
          "aat:300008791"
        ],
        "id": 7476621,
        "name:xx": "Yinzi"
      }
    },
    {
      "geometry": {
        "type": "Point",
        "coordinates": [
          119.666028,
          23.662039
        ]
      },
      "type": "Feature",
      "properties": {
        "hierarchy": [
          "tgn:7476622",
          "tgn:1000004",
          "tgn:7004300",
          "tgn:1000141",
          "tgn:7029392"
        ],
        "placetype": [
          "aat:300387033"
        ],
        "id": 7476622,
        "name:xx": "Niaochaowo"
      }
    },
    {
      "geometry": {
        "type": "Point",
        "coordinates": [
          119.659572,
          23.660673
        ]
      },
      "type": "Feature",
      "properties": {
        "hierarchy": [
          "tgn:7476623",
          "tgn:1000004",
          "tgn:7004300",
          "tgn:1000141",
          "tgn:7029392"
        ],
        "placetype": [
          "aat:300007595"
        ],
        "id": 7476623,
        "name:xx": "Fude Gong"
      }
    },
    {
      "geometry": {
        "type": "Point",
        "coordinates": [
          119.659559,
          23.66259
        ]
      },
      "type": "Feature",
      "properties": {
        "hierarchy": [
          "tgn:7476624",
          "tgn:1000004",
          "tgn:7004300",
          "tgn:1000141",
          "tgn:7029392"
        ],
        "placetype": [
          "aat:300006495"
        ],
        "id": 7476624,
        "name:xx": "Niaoyu Guoxiao"
      }
    },
    {
      "geometry": {
        "type": "Point",
        "coordinates": [
          119.658354,
          23.660055
        ]
      },
      "type": "Feature",
      "properties": {
        "hierarchy": [
          "tgn:7476625",
          "tgn:1000004",
          "tgn:7004300",
          "tgn:1000141",
          "tgn:7029392"
        ],
        "placetype": [
          "aat:300008678"
        ],
        "id": 7476625,
        "name:xx": "Niaoyu Yugang"
      }
    },
    {
      "geometry": {
        "type": "Point",
        "coordinates": [
          119.650231,
          23.596634
        ]
      },
      "type": "Feature",
      "properties": {
        "hierarchy": [
          "tgn:7476626",
          "tgn:1000004",
          "tgn:7004300",
          "tgn:1000141",
          "tgn:7029392"
        ],
        "placetype": [
          "aat:300007595"
        ],
        "id": 7476626,
        "name:xx": "Jushan Si"
      }
    },
    {
      "geometry": {
        "type": "Point",
        "coordinates": [
          119.638863,
          23.5988
        ]
      },
      "type": "Feature",
      "properties": {
        "hierarchy": [
          "tgn:7476627",
          "tgn:1000004",
          "tgn:7004300",
          "tgn:1000141",
          "tgn:7029392"
        ],
        "placetype": [
          "aat:300008347"
        ],
        "id": 7476627,
        "name:xx": "Daohuotou"
      }
    },
    {
      "geometry": {
        "type": "Point",
        "coordinates": [
          119.640811,
          23.58462
        ]
      },
      "type": "Feature",
      "properties": {
        "hierarchy": [
          "tgn:7476629",
          "tgn:1000004",
          "tgn:7004300",
          "tgn:1000141",
          "tgn:7029392"
        ],
        "placetype": [
          "aat:300007836"
        ],
        "id": 7476629,
        "name:xx": "Hongluo Qiao"
      }
    }
  ]
}
