{
  "type": "FeatureCollection",
  "features": [
    {
      "geometry": {
        "type": "Point",
        "coordinates": [
          -108.416667,
          29.75
        ]
      },
      "type": "Feature",
      "properties": {
        "hierarchy": [
          "tgn:7382960",
          "tgn:7005581",
          "tgn:1000001",
          "tgn:7005560",
          "tgn:7029392"
        ],
        "placetype": [
          "aat:300008699"
        ],
        "id": 7382960,
        "name:xx": "Norteña, Arroyo de la"
      }
    },
    {
      "geometry": {
        "type": "Point",
        "coordinates": [
          -116.55,
          31.866667
        ]
      },
      "type": "Feature",
      "properties": {
        "hierarchy": [
          "tgn:7382961",
          "tgn:1001835",
          "tgn:1000001",
          "tgn:7005560",
          "tgn:7029392"
        ],
        "placetype": [
          "aat:300006207"
        ],
        "id": 7382961,
        "name:xx": "Norte El Aguajito"
      }
    },
    {
      "geometry": {
        "type": "Point",
        "coordinates": [
          -118.283333,
          29.183333
        ]
      },
      "type": "Feature",
      "properties": {
        "hierarchy": [
          "tgn:7382962",
          "tgn:1001835",
          "tgn:1000001",
          "tgn:7005560",
          "tgn:7029392"
        ],
        "placetype": [
          "aat:300386846"
        ],
        "id": 7382962,
        "name:xx": "Norte, Punta del"
      }
    },
    {
      "geometry": {
        "type": "Point",
        "coordinates": [
          -87.316667,
          18.75
        ]
      },
      "type": "Feature",
      "properties": {
        "hierarchy": [
          "tgn:7382963",
          "tgn:1000001",
          "tgn:1001937",
          "tgn:7005560",
          "tgn:7029392"
        ],
        "placetype": [
          "aat:300008791"
        ],
        "id": 7382963,
        "name:xx": "Norte, Cayo"
      }
    },
    {
      "geometry": {
        "type": "Point",
        "coordinates": [
          -107.536111,
          24.813611
        ]
      },
      "type": "Feature",
      "properties": {
        "hierarchy": [
          "tgn:7382964",
          "tgn:1000001",
          "tgn:7005595",
          "tgn:7005560",
          "tgn:7029392"
        ],
        "placetype": [
          "aat:300008699"
        ],
        "id": 7382964,
        "name:xx": "Norte, Canal del"
      }
    },
    {
      "geometry": {
        "type": "Point",
        "coordinates": [
          -114.733333,
          32.666667
        ]
      },
      "type": "Feature",
      "properties": {
        "hierarchy": [
          "tgn:7382965",
          "tgn:1000001",
          "tgn:1001893",
          "tgn:7005560",
          "tgn:7029392"
        ],
        "placetype": [
          "aat:300006075"
        ],
        "id": 7382965,
        "name:xx": "Canal del Norte"
      }
    },
    {
      "geometry": {
        "type": "Point",
        "coordinates": [
          -108.283333,
          30.25
        ]
      },
      "type": "Feature",
      "properties": {
        "hierarchy": [
          "tgn:7382966",
          "tgn:7005581",
          "tgn:1000001",
          "tgn:7005560",
          "tgn:7029392"
        ],
        "placetype": [
          "aat:300266554",
          "aat:300008699"
        ],
        "id": 7382966,
        "name:xx": "Norte, Arroyo del"
      }
    },
    {
      "geometry": {
        "type": "Point",
        "coordinates": [
          -108.316667,
          25.633333
        ]
      },
      "type": "Feature",
      "properties": {
        "hierarchy": [
          "tgn:7382967",
          "tgn:1000001",
          "tgn:7005595",
          "tgn:7005560",
          "tgn:7029392"
        ],
        "placetype": [
          "aat:300008347"
        ],
        "id": 7382967,
        "name:xx": "Norotillos"
      }
    },
    {
      "geometry": {
        "type": "Point",
        "coordinates": [
          -108.839444,
          26.469722
        ]
      },
      "type": "Feature",
      "properties": {
        "hierarchy": [
          "tgn:7382968",
          "tgn:1000001",
          "tgn:7005595",
          "tgn:7005560",
          "tgn:7029392"
        ],
        "placetype": [
          "aat:300000241"
        ],
        "id": 7382968,
        "name:xx": "Rancho Norotes"
      }
    },
    {
      "geometry": {
        "type": "Point",
        "coordinates": [
          -108.678611,
          26.295
        ]
      },
      "type": "Feature",
      "properties": {
        "hierarchy": [
          "tgn:7382969",
          "tgn:1000001",
          "tgn:7005595",
          "tgn:7005560",
          "tgn:7029392"
        ],
        "placetype": [
          "aat:300007783"
        ],
        "id": 7382969,
        "name:xx": "Estación Norotes"
      }
    }
  ]
}
