{
  "type": "FeatureCollection",
  "features": [
    {
      "geometry": {
        "type": "Point",
        "coordinates": [
          79.034006,
          27.866705
        ]
      },
      "type": "Feature",
      "properties": {
        "hierarchy": [
          "tgn:7561540",
          "tgn:1000004",
          "tgn:7000198",
          "tgn:7016722",
          "tgn:7029392"
        ],
        "placetype": [
          "aat:300008347"
        ],
        "name:en": "Kāshi Nagla",
        "id": 7561540
      }
    },
    {
      "geometry": {
        "type": "Point",
        "coordinates": [
          79.038339,
          27.864772
        ]
      },
      "type": "Feature",
      "properties": {
        "hierarchy": [
          "tgn:7561541",
          "tgn:1000004",
          "tgn:7000198",
          "tgn:7016722",
          "tgn:7029392"
        ],
        "placetype": [
          "aat:300008347"
        ],
        "name:en": "Khūni Nagla",
        "id": 7561541
      }
    },
    {
      "geometry": {
        "type": "Point",
        "coordinates": [
          79.046142,
          27.864097
        ]
      },
      "type": "Feature",
      "properties": {
        "hierarchy": [
          "tgn:7561542",
          "tgn:1000004",
          "tgn:7000198",
          "tgn:7016722",
          "tgn:7029392"
        ],
        "placetype": [
          "aat:300008347"
        ],
        "name:en": "Gangi Nagla",
        "id": 7561542
      }
    },
    {
      "geometry": {
        "type": "Point",
        "coordinates": [
          79.060144,
          27.871261
        ]
      },
      "type": "Feature",
      "properties": {
        "hierarchy": [
          "tgn:7561543",
          "tgn:1000004",
          "tgn:7000198",
          "tgn:7016722",
          "tgn:7029392"
        ],
        "placetype": [
          "aat:300008347"
        ],
        "name:en": "Dhokal Nagla",
        "id": 7561543
      }
    },
    {
      "geometry": {
        "type": "Point",
        "coordinates": [
          79.055874,
          27.864934
        ]
      },
      "type": "Feature",
      "properties": {
        "hierarchy": [
          "tgn:7561544",
          "tgn:1000004",
          "tgn:7000198",
          "tgn:7016722",
          "tgn:7029392"
        ],
        "placetype": [
          "aat:300008347"
        ],
        "name:en": "Mohan Nagla",
        "id": 7561544
      }
    },
    {
      "geometry": {
        "type": "Point",
        "coordinates": [
          79.057218,
          27.86309
        ]
      },
      "type": "Feature",
      "properties": {
        "hierarchy": [
          "tgn:7561545",
          "tgn:1000004",
          "tgn:7000198",
          "tgn:7016722",
          "tgn:7029392"
        ],
        "placetype": [
          "aat:300008347"
        ],
        "name:en": "Slmaria",
        "id": 7561545
      }
    },
    {
      "geometry": {
        "type": "Point",
        "coordinates": [
          79.073969,
          27.855921
        ]
      },
      "type": "Feature",
      "properties": {
        "hierarchy": [
          "tgn:7561546",
          "tgn:1000004",
          "tgn:7000198",
          "tgn:7016722",
          "tgn:7029392"
        ],
        "placetype": [
          "aat:300008347"
        ],
        "name:en": "Gangpur Pukhta",
        "id": 7561546
      }
    },
    {
      "geometry": {
        "type": "Point",
        "coordinates": [
          79.068308,
          27.848855
        ]
      },
      "type": "Feature",
      "properties": {
        "hierarchy": [
          "tgn:7561547",
          "tgn:1000004",
          "tgn:7000198",
          "tgn:7016722",
          "tgn:7029392"
        ],
        "placetype": [
          "aat:300008347"
        ],
        "name:en": "Qādirbāri",
        "id": 7561547
      }
    },
    {
      "geometry": {
        "type": "Point",
        "coordinates": [
          79.06839,
          27.847329
        ]
      },
      "type": "Feature",
      "properties": {
        "hierarchy": [
          "tgn:7561548",
          "tgn:1000004",
          "tgn:7000198",
          "tgn:7016722",
          "tgn:7029392"
        ],
        "placetype": [
          "aat:300008347"
        ],
        "name:en": "Gauri Nagla",
        "id": 7561548
      }
    },
    {
      "geometry": {
        "type": "Point",
        "coordinates": [
          79.071614,
          27.84837
        ]
      },
      "type": "Feature",
      "properties": {
        "hierarchy": [
          "tgn:7561549",
          "tgn:1000004",
          "tgn:7000198",
          "tgn:7016722",
          "tgn:7029392"
        ],
        "placetype": [
          "aat:300008347"
        ],
        "name:en": "Gangpur Khām",
        "id": 7561549
      }
    }
  ]
}
