{
  "type": "FeatureCollection",
  "features": [
    {
      "geometry": {
        "type": "Point",
        "coordinates": [
          78.440345,
          24.764201
        ]
      },
      "type": "Feature",
      "properties": {
        "hierarchy": [
          "tgn:7582070",
          "tgn:1000004",
          "tgn:7000198",
          "tgn:7016722",
          "tgn:7029392"
        ],
        "placetype": [
          "aat:300008347"
        ],
        "name:en": "Chīra",
        "id": 7582070
      }
    },
    {
      "geometry": {
        "type": "Point",
        "coordinates": [
          78.373372,
          24.867071
        ]
      },
      "type": "Feature",
      "properties": {
        "hierarchy": [
          "tgn:7582071",
          "tgn:1000004",
          "tgn:7000198",
          "tgn:7016722",
          "tgn:7029392"
        ],
        "placetype": [
          "aat:300008347"
        ],
        "name:en": "Jamora",
        "id": 7582071
      }
    },
    {
      "geometry": {
        "type": "Point",
        "coordinates": [
          78.377629,
          24.87593
        ]
      },
      "type": "Feature",
      "properties": {
        "hierarchy": [
          "tgn:7582072",
          "tgn:1000004",
          "tgn:7000198",
          "tgn:7016722",
          "tgn:7029392"
        ],
        "placetype": [
          "aat:300008347"
        ],
        "name:en": "Devrākhera",
        "id": 7582072
      }
    },
    {
      "geometry": {
        "type": "Point",
        "coordinates": [
          78.341714,
          24.874352
        ]
      },
      "type": "Feature",
      "properties": {
        "hierarchy": [
          "tgn:7582073",
          "tgn:1000004",
          "tgn:7000198",
          "tgn:7016722",
          "tgn:7029392"
        ],
        "placetype": [
          "aat:300008699"
        ],
        "name:en": "Parwa Nāla",
        "id": 7582073
      }
    },
    {
      "geometry": {
        "type": "Point",
        "coordinates": [
          78.376123,
          24.881977
        ]
      },
      "type": "Feature",
      "properties": {
        "hierarchy": [
          "tgn:7582074",
          "tgn:1000004",
          "tgn:7000198",
          "tgn:7016722",
          "tgn:7029392"
        ],
        "placetype": [
          "aat:300008347"
        ],
        "name:en": "Kanchanpur",
        "id": 7582074
      }
    },
    {
      "geometry": {
        "type": "Point",
        "coordinates": [
          78.350855,
          24.873045
        ]
      },
      "type": "Feature",
      "properties": {
        "hierarchy": [
          "tgn:7582075",
          "tgn:1000004",
          "tgn:7000198",
          "tgn:7016722",
          "tgn:7029392"
        ],
        "placetype": [
          "aat:300008347"
        ],
        "name:en": "Puniākhera",
        "id": 7582075
      }
    },
    {
      "geometry": {
        "type": "Point",
        "coordinates": [
          78.340991,
          24.866448
        ]
      },
      "type": "Feature",
      "properties": {
        "hierarchy": [
          "tgn:7582076",
          "tgn:1000004",
          "tgn:7000198",
          "tgn:7016722",
          "tgn:7029392"
        ],
        "placetype": [
          "aat:300008347"
        ],
        "name:en": "Sirsi",
        "id": 7582076
      }
    },
    {
      "geometry": {
        "type": "Point",
        "coordinates": [
          78.393395,
          24.885933
        ]
      },
      "type": "Feature",
      "properties": {
        "hierarchy": [
          "tgn:7582077",
          "tgn:1000004",
          "tgn:7000198",
          "tgn:7016722",
          "tgn:7029392"
        ],
        "placetype": [
          "aat:300008347"
        ],
        "name:en": "Rājpur",
        "id": 7582077
      }
    },
    {
      "geometry": {
        "type": "Point",
        "coordinates": [
          78.392574,
          24.889678
        ]
      },
      "type": "Feature",
      "properties": {
        "hierarchy": [
          "tgn:7582078",
          "tgn:1000004",
          "tgn:7000198",
          "tgn:7016722",
          "tgn:7029392"
        ],
        "placetype": [
          "aat:300008347"
        ],
        "name:en": "Sati",
        "id": 7582078
      }
    },
    {
      "geometry": {
        "type": "Point",
        "coordinates": [
          78.386364,
          24.899347
        ]
      },
      "type": "Feature",
      "properties": {
        "hierarchy": [
          "tgn:7582079",
          "tgn:1000004",
          "tgn:7000198",
          "tgn:7016722",
          "tgn:7029392"
        ],
        "placetype": [
          "aat:300008347"
        ],
        "name:en": "Pipra",
        "id": 7582079
      }
    }
  ]
}
