{
  "type": "FeatureCollection",
  "features": [
    {
      "geometry": {
        "type": "Point",
        "coordinates": [
          75.606598,
          25.707238
        ]
      },
      "type": "Feature",
      "properties": {
        "hierarchy": [
          "tgn:7569920",
          "tgn:1000004",
          "tgn:7000198",
          "tgn:7016788",
          "tgn:7029392"
        ],
        "placetype": [
          "aat:300008347"
        ],
        "name:en": "Rājnagar",
        "id": 7569920
      }
    },
    {
      "geometry": {
        "type": "Point",
        "coordinates": [
          75.639466,
          25.712081
        ]
      },
      "type": "Feature",
      "properties": {
        "hierarchy": [
          "tgn:7569921",
          "tgn:1000004",
          "tgn:7000198",
          "tgn:7016788",
          "tgn:7029392"
        ],
        "placetype": [
          "aat:300008347"
        ],
        "name:en": "Kīrwa ka Jhonpara",
        "id": 7569921
      }
    },
    {
      "geometry": {
        "type": "Point",
        "coordinates": [
          75.625477,
          25.712156
        ]
      },
      "type": "Feature",
      "properties": {
        "hierarchy": [
          "tgn:7569922",
          "tgn:1000004",
          "tgn:7000198",
          "tgn:7016788",
          "tgn:7029392"
        ],
        "placetype": [
          "aat:300008347"
        ],
        "name:en": "Dhanna ka Jhonpara",
        "id": 7569922
      }
    },
    {
      "geometry": {
        "type": "Point",
        "coordinates": [
          75.647251,
          25.717537
        ]
      },
      "type": "Feature",
      "properties": {
        "hierarchy": [
          "tgn:7569923",
          "tgn:1000004",
          "tgn:7000198",
          "tgn:7016788",
          "tgn:7029392"
        ],
        "placetype": [
          "aat:300008347"
        ],
        "name:en": "Brāhman ka Jhonpara",
        "id": 7569923
      }
    },
    {
      "geometry": {
        "type": "Point",
        "coordinates": [
          75.643647,
          25.726481
        ]
      },
      "type": "Feature",
      "properties": {
        "hierarchy": [
          "tgn:7569924",
          "tgn:1000004",
          "tgn:7000198",
          "tgn:7016788",
          "tgn:7029392"
        ],
        "placetype": [
          "aat:300008347"
        ],
        "name:en": "Ajaipāl ka Dūngri",
        "id": 7569924
      }
    },
    {
      "geometry": {
        "type": "Point",
        "coordinates": [
          75.592461,
          25.731455
        ]
      },
      "type": "Feature",
      "properties": {
        "hierarchy": [
          "tgn:7569925",
          "tgn:1000004",
          "tgn:7000198",
          "tgn:7016788",
          "tgn:7029392"
        ],
        "placetype": [
          "aat:300008347"
        ],
        "name:en": "Rājkot",
        "id": 7569925
      }
    },
    {
      "geometry": {
        "type": "Point",
        "coordinates": [
          75.587791,
          25.736809
        ]
      },
      "type": "Feature",
      "properties": {
        "hierarchy": [
          "tgn:7569926",
          "tgn:1000004",
          "tgn:7000198",
          "tgn:7016788",
          "tgn:7029392"
        ],
        "placetype": [
          "aat:300008347"
        ],
        "name:en": "Rājkot",
        "id": 7569926
      }
    },
    {
      "geometry": {
        "type": "Point",
        "coordinates": [
          75.628611,
          25.743874
        ]
      },
      "type": "Feature",
      "properties": {
        "hierarchy": [
          "tgn:7569927",
          "tgn:1000004",
          "tgn:7000198",
          "tgn:7016788",
          "tgn:7029392"
        ],
        "placetype": [
          "aat:300008347"
        ],
        "name:en": "Dhārola",
        "id": 7569927
      }
    },
    {
      "geometry": {
        "type": "Point",
        "coordinates": [
          75.509004,
          25.668074
        ]
      },
      "type": "Feature",
      "properties": {
        "hierarchy": [
          "tgn:7569928",
          "tgn:1000004",
          "tgn:7000198",
          "tgn:7016788",
          "tgn:7029392"
        ],
        "placetype": [
          "aat:300008347"
        ],
        "name:en": "Kābri",
        "id": 7569928
      }
    },
    {
      "geometry": {
        "type": "Point",
        "coordinates": [
          75.534543,
          25.675304
        ]
      },
      "type": "Feature",
      "properties": {
        "hierarchy": [
          "tgn:7569929",
          "tgn:1000004",
          "tgn:7000198",
          "tgn:7016788",
          "tgn:7029392"
        ],
        "placetype": [
          "aat:300008347"
        ],
        "name:en": "Chāwandiya",
        "id": 7569929
      }
    }
  ]
}
