{
  "type": "FeatureCollection",
  "features": [
    {
      "geometry": {
        "type": "Point",
        "coordinates": [
          120.191667,
          22.969167
        ]
      },
      "type": "Feature",
      "properties": {
        "hierarchy": [
          "tgn:7482780",
          "tgn:1000004",
          "tgn:7490934",
          "tgn:1000141",
          "tgn:7029392"
        ],
        "placetype": [
          "aat:300000745"
        ],
        "id": 7482780,
        "name:xx": "Nanqu"
      }
    },
    {
      "geometry": {
        "type": "Point",
        "coordinates": [
          120.169722,
          22.990833
        ]
      },
      "type": "Feature",
      "properties": {
        "hierarchy": [
          "tgn:7482781",
          "tgn:1000004",
          "tgn:7490934",
          "tgn:1000141",
          "tgn:7029392"
        ],
        "placetype": [
          "aat:300387173"
        ],
        "id": 7482781,
        "name:xx": "Anping Qu"
      }
    },
    {
      "geometry": {
        "type": "Point",
        "coordinates": [
          120.191111,
          22.992222
        ]
      },
      "type": "Feature",
      "properties": {
        "hierarchy": [
          "tgn:7482782",
          "tgn:1000004",
          "tgn:7490934",
          "tgn:1000141",
          "tgn:7029392"
        ],
        "placetype": [
          "aat:300007836"
        ],
        "id": 7482782,
        "name:xx": "Xinnan Qiao"
      }
    },
    {
      "geometry": {
        "type": "Point",
        "coordinates": [
          120.196667,
          22.986944
        ]
      },
      "type": "Feature",
      "properties": {
        "hierarchy": [
          "tgn:7482783",
          "tgn:1000004",
          "tgn:7490934",
          "tgn:1000141",
          "tgn:7029392"
        ],
        "placetype": [
          "aat:300000745"
        ],
        "id": 7482783,
        "name:xx": "Zhongxiqu"
      }
    },
    {
      "geometry": {
        "type": "Point",
        "coordinates": [
          120.218611,
          22.977222
        ]
      },
      "type": "Feature",
      "properties": {
        "hierarchy": [
          "tgn:7482784",
          "tgn:1000004",
          "tgn:7490934",
          "tgn:1000141",
          "tgn:7029392"
        ],
        "placetype": [
          "aat:300000745"
        ],
        "id": 7482784,
        "name:xx": "Dongqu"
      }
    },
    {
      "geometry": {
        "type": "Point",
        "coordinates": [
          120.2525,
          22.998056
        ]
      },
      "type": "Feature",
      "properties": {
        "hierarchy": [
          "tgn:7482785",
          "tgn:1000004",
          "tgn:7490934",
          "tgn:1000141",
          "tgn:7029392"
        ],
        "placetype": [
          "aat:300387033"
        ],
        "id": 7482785,
        "name:xx": "Tushiku"
      }
    },
    {
      "geometry": {
        "type": "Point",
        "coordinates": [
          120.2225,
          22.963611
        ]
      },
      "type": "Feature",
      "properties": {
        "hierarchy": [
          "tgn:7482786",
          "tgn:1000004",
          "tgn:7490934",
          "tgn:1000141",
          "tgn:7029392"
        ],
        "placetype": [
          "aat:300008347"
        ],
        "id": 7482786,
        "name:xx": "Daludong"
      }
    },
    {
      "geometry": {
        "type": "Point",
        "coordinates": [
          120.23,
          22.934444
        ]
      },
      "type": "Feature",
      "properties": {
        "hierarchy": [
          "tgn:7482787",
          "tgn:1000004",
          "tgn:7490934",
          "tgn:1000141",
          "tgn:7029392"
        ],
        "placetype": [
          "aat:300007836"
        ],
        "id": 7482787,
        "name:xx": "Wenxian Qiao"
      }
    },
    {
      "geometry": {
        "type": "Point",
        "coordinates": [
          120.175278,
          22.912778
        ]
      },
      "type": "Feature",
      "properties": {
        "hierarchy": [
          "tgn:7482788",
          "tgn:1000004",
          "tgn:7490934",
          "tgn:1000141",
          "tgn:7029392"
        ],
        "placetype": [
          "aat:300387057"
        ],
        "id": 7482788,
        "name:xx": "Erren Xikou"
      }
    },
    {
      "geometry": {
        "type": "Point",
        "coordinates": [
          120.209722,
          22.821389
        ]
      },
      "type": "Feature",
      "properties": {
        "hierarchy": [
          "tgn:7482789",
          "tgn:7001004",
          "tgn:1000004",
          "tgn:1000141",
          "tgn:7029392"
        ],
        "placetype": [
          "aat:300008347"
        ],
        "id": 7482789,
        "name:xx": "Xingang"
      }
    }
  ]
}
