{
  "type": "FeatureCollection",
  "features": [
    {
      "geometry": {
        "type": "Point",
        "coordinates": [
          34.816667,
          25.166667
        ]
      },
      "type": "Feature",
      "properties": {
        "hierarchy": [
          "tgn:7526040",
          "tgn:7001242",
          "tgn:7001311",
          "tgn:7016833",
          "tgn:7029392"
        ],
        "placetype": [
          "aat:300379998"
        ],
        "name:en": "Ţarāfī, Wādī",
        "id": 7526040
      }
    },
    {
      "geometry": {
        "type": "Point",
        "coordinates": [
          34.822343,
          25.195937
        ]
      },
      "type": "Feature",
      "properties": {
        "hierarchy": [
          "tgn:7526041",
          "tgn:7001242",
          "tgn:7001311",
          "tgn:7016833",
          "tgn:7029392"
        ],
        "placetype": [
          "aat:300132317"
        ],
        "name:en": "Ţarāfī, Marsá",
        "id": 7526041
      }
    },
    {
      "geometry": {
        "type": "Point",
        "coordinates": [
          25.516667,
          29.216667
        ]
      },
      "type": "Feature",
      "properties": {
        "hierarchy": [
          "tgn:7526042",
          "tgn:7001242",
          "tgn:7016833",
          "tgn:1001418",
          "tgn:7029392"
        ],
        "placetype": [
          "aat:300008697"
        ],
        "name:en": "Ţarābī' al Qiblīyah, 'Ayn",
        "id": 7526042
      }
    },
    {
      "geometry": {
        "type": "Point",
        "coordinates": [
          25.516667,
          29.216667
        ]
      },
      "type": "Feature",
      "properties": {
        "hierarchy": [
          "tgn:7526043",
          "tgn:7001242",
          "tgn:7016833",
          "tgn:1001418",
          "tgn:7029392"
        ],
        "placetype": [
          "aat:300008697"
        ],
        "name:en": "Ţarābī' al Baḩrīyah, 'Ayn",
        "id": 7526043
      }
    },
    {
      "geometry": {
        "type": "Point",
        "coordinates": [
          30.543484,
          30.99042
        ]
      },
      "type": "Feature",
      "properties": {
        "hierarchy": [
          "tgn:7526044",
          "tgn:7001242",
          "tgn:1001075",
          "tgn:7016833",
          "tgn:7029392"
        ],
        "placetype": [
          "aat:300008347"
        ],
        "name:en": "Ţarābanbā",
        "id": 7526044
      }
    },
    {
      "geometry": {
        "type": "Point",
        "coordinates": [
          27.95,
          30.983333
        ]
      },
      "type": "Feature",
      "properties": {
        "hierarchy": [
          "tgn:7526045",
          "tgn:7001242",
          "tgn:7016833",
          "tgn:1001418",
          "tgn:7029392"
        ],
        "placetype": [
          "aat:300006207"
        ],
        "name:en": "Bîr el Taqa",
        "id": 7526045
      }
    },
    {
      "geometry": {
        "type": "Point",
        "coordinates": [
          30.824815,
          27.640535
        ]
      },
      "type": "Feature",
      "properties": {
        "hierarchy": [
          "tgn:7526046",
          "tgn:7001242",
          "tgn:7016833",
          "tgn:1001088",
          "tgn:7029392"
        ],
        "placetype": [
          "aat:300008347"
        ],
        "name:en": "Tānūf",
        "id": 7526046
      }
    },
    {
      "geometry": {
        "type": "Point",
        "coordinates": [
          31.084291,
          30.357965
        ]
      },
      "type": "Feature",
      "properties": {
        "hierarchy": [
          "tgn:7526047",
          "tgn:7001242",
          "tgn:7016833",
          "tgn:1001092",
          "tgn:7029392"
        ],
        "placetype": [
          "aat:300008347"
        ],
        "id": 7526047,
        "name:xx": "Ţanţ al Jazīrah"
      }
    }
  ]
}
