{
  "type": "FeatureCollection",
  "features": [
    {
      "geometry": {
        "type": "Point",
        "coordinates": [
          120.765556,
          23.160278
        ]
      },
      "type": "Feature",
      "properties": {
        "hierarchy": [
          "tgn:7492530",
          "tgn:7001004",
          "tgn:1000004",
          "tgn:1000141",
          "tgn:7029392"
        ],
        "placetype": [
          "aat:300008347"
        ],
        "id": 7492530,
        "name:xx": "Taoyuan"
      }
    },
    {
      "geometry": {
        "type": "Point",
        "coordinates": [
          121.0838,
          22.9034
        ]
      },
      "type": "Feature",
      "properties": {
        "hierarchy": [
          "tgn:7492531",
          "tgn:1000004",
          "tgn:7491221",
          "tgn:1000141",
          "tgn:7029392"
        ],
        "placetype": [
          "aat:300008347"
        ],
        "id": 7492531,
        "name:xx": "Taoyuan"
      }
    },
    {
      "geometry": {
        "type": "Point",
        "coordinates": [
          119.566667,
          23.783333
        ]
      },
      "type": "Feature",
      "properties": {
        "hierarchy": [
          "tgn:7492532",
          "tgn:1000004",
          "tgn:7004300",
          "tgn:1000141",
          "tgn:7029392"
        ],
        "placetype": [
          "aat:300011692"
        ],
        "id": 7492532,
        "name:xx": "Daoye Jiao"
      }
    },
    {
      "geometry": {
        "type": "Point",
        "coordinates": [
          120.272867,
          23.093019
        ]
      },
      "type": "Feature",
      "properties": {
        "hierarchy": [
          "tgn:7492533",
          "tgn:1000004",
          "tgn:7490934",
          "tgn:1000141",
          "tgn:7029392"
        ],
        "placetype": [
          "aat:300008347"
        ],
        "id": 7492533,
        "name:xx": "Daoyezhuang"
      }
    },
    {
      "geometry": {
        "type": "Point",
        "coordinates": [
          121.107909,
          22.884308
        ]
      },
      "type": "Feature",
      "properties": {
        "hierarchy": [
          "tgn:7492534",
          "tgn:1000004",
          "tgn:7491221",
          "tgn:1000141",
          "tgn:7029392"
        ],
        "placetype": [
          "aat:300008347"
        ],
        "id": 7492534,
        "name:xx": "Daoye"
      }
    },
    {
      "geometry": {
        "type": "Point",
        "coordinates": [
          120.664,
          23.760307
        ]
      },
      "type": "Feature",
      "properties": {
        "hierarchy": [
          "tgn:7492535",
          "tgn:7488858",
          "tgn:1000004",
          "tgn:1000141",
          "tgn:7029392"
        ],
        "placetype": [
          "aat:300008347"
        ],
        "id": 7492535,
        "name:xx": "Taoziyuan"
      }
    },
    {
      "geometry": {
        "type": "Point",
        "coordinates": [
          120.266779,
          22.673151
        ]
      },
      "type": "Feature",
      "properties": {
        "hierarchy": [
          "tgn:7492536",
          "tgn:7001004",
          "tgn:1000004",
          "tgn:1000141",
          "tgn:7029392"
        ],
        "placetype": [
          "aat:300008347"
        ],
        "id": 7492536,
        "name:xx": "Taoziyuan"
      }
    },
    {
      "geometry": {
        "type": "Point",
        "coordinates": [
          121.391812,
          24.949007
        ]
      },
      "type": "Feature",
      "properties": {
        "hierarchy": [
          "tgn:7492537",
          "tgn:1000004",
          "tgn:1000454",
          "tgn:1000141",
          "tgn:7029392"
        ],
        "placetype": [
          "aat:300008347"
        ],
        "id": 7492537,
        "name:xx": "Taozijiao"
      }
    },
    {
      "geometry": {
        "type": "Point",
        "coordinates": [
          121.7453,
          24.8905
        ]
      },
      "type": "Feature",
      "properties": {
        "hierarchy": [
          "tgn:7492538",
          "tgn:1000004",
          "tgn:1000454",
          "tgn:1000141",
          "tgn:7029392"
        ],
        "placetype": [
          "aat:300008347"
        ],
        "id": 7492538,
        "name:xx": "Daodiaozi"
      }
    },
    {
      "geometry": {
        "type": "Point",
        "coordinates": [
          121.695109,
          24.905631
        ]
      },
      "type": "Feature",
      "properties": {
        "hierarchy": [
          "tgn:7492539",
          "tgn:1000004",
          "tgn:1000454",
          "tgn:1000141",
          "tgn:7029392"
        ],
        "placetype": [
          "aat:300008798"
        ],
        "id": 7492539,
        "name:xx": "Daodiao Ling"
      }
    }
  ]
}
