{
  "type": "FeatureCollection",
  "features": [
    {
      "geometry": {
        "type": "Point",
        "coordinates": [
          179.021667,
          -47.747778
        ]
      },
      "type": "Feature",
      "properties": {
        "hierarchy": [
          "tgn:7505110",
          "tgn:7016670",
          "tgn:1008380",
          "tgn:1000226",
          "tgn:1000006",
          "tgn:7029392"
        ],
        "placetype": [
          "aat:300132317"
        ],
        "name:en": "Bradley Cove",
        "id": 7505110
      }
    },
    {
      "geometry": {
        "type": "Point",
        "coordinates": [
          179.018889,
          -47.748889
        ]
      },
      "type": "Feature",
      "properties": {
        "hierarchy": [
          "tgn:7505111",
          "tgn:7016670",
          "tgn:1008380",
          "tgn:1000226",
          "tgn:1000006",
          "tgn:7029392"
        ],
        "placetype": [
          "aat:300011692"
        ],
        "name:en": "Skua Rock",
        "id": 7505111
      }
    },
    {
      "geometry": {
        "type": "Point",
        "coordinates": [
          179.020833,
          -47.747222
        ]
      },
      "type": "Feature",
      "properties": {
        "hierarchy": [
          "tgn:7505112",
          "tgn:1009892",
          "tgn:1000226",
          "tgn:1000006",
          "tgn:7029392"
        ],
        "placetype": [
          "aat:300008791"
        ],
        "name:en": "Spider Island",
        "id": 7505112
      }
    },
    {
      "geometry": {
        "type": "Point",
        "coordinates": [
          179.026111,
          -47.749444
        ]
      },
      "type": "Feature",
      "properties": {
        "hierarchy": [
          "tgn:7505113",
          "tgn:1009892",
          "tgn:1000226",
          "tgn:1000006",
          "tgn:7029392"
        ],
        "placetype": [
          "aat:300008791"
        ],
        "name:en": "Proclamation Island",
        "id": 7505113
      }
    },
    {
      "geometry": {
        "type": "Point",
        "coordinates": [
          179.0275,
          -47.750833
        ]
      },
      "type": "Feature",
      "properties": {
        "hierarchy": [
          "tgn:7505114",
          "tgn:1009892",
          "tgn:1000226",
          "tgn:1000006",
          "tgn:7029392"
        ],
        "placetype": [
          "aat:300008791"
        ],
        "name:en": "Tunnel Island",
        "id": 7505114
      }
    },
    {
      "geometry": {
        "type": "Point",
        "coordinates": [
          179.033333,
          -47.751111
        ]
      },
      "type": "Feature",
      "properties": {
        "hierarchy": [
          "tgn:7505115",
          "tgn:7016670",
          "tgn:1008380",
          "tgn:1000226",
          "tgn:1000006",
          "tgn:7029392"
        ],
        "placetype": [
          "aat:300008808"
        ],
        "name:en": "Blackfish Shoal",
        "id": 7505115
      }
    },
    {
      "geometry": {
        "type": "Point",
        "coordinates": [
          179.038056,
          -47.751944
        ]
      },
      "type": "Feature",
      "properties": {
        "hierarchy": [
          "tgn:7505116",
          "tgn:1009892",
          "tgn:1000226",
          "tgn:1000006",
          "tgn:7029392"
        ],
        "placetype": [
          "aat:300008791"
        ],
        "name:en": "Lion Island",
        "id": 7505116
      }
    },
    {
      "geometry": {
        "type": "Point",
        "coordinates": [
          179.031111,
          -47.751111
        ]
      },
      "type": "Feature",
      "properties": {
        "hierarchy": [
          "tgn:7505117",
          "tgn:1009892",
          "tgn:1000226",
          "tgn:1000006",
          "tgn:7029392"
        ],
        "placetype": [
          "aat:300008791"
        ],
        "name:en": "Ranfurly Island",
        "id": 7505117
      }
    },
    {
      "geometry": {
        "type": "Point",
        "coordinates": [
          179.022778,
          -47.750833
        ]
      },
      "type": "Feature",
      "properties": {
        "hierarchy": [
          "tgn:7505118",
          "tgn:1009892",
          "tgn:1000226",
          "tgn:1000006",
          "tgn:7029392"
        ],
        "placetype": [
          "aat:300008791"
        ],
        "name:en": "Depot Island",
        "id": 7505118
      }
    },
    {
      "geometry": {
        "type": "Point",
        "coordinates": [
          179.023333,
          -47.755278
        ]
      },
      "type": "Feature",
      "properties": {
        "hierarchy": [
          "tgn:7505119",
          "tgn:7016670",
          "tgn:1008380",
          "tgn:1000226",
          "tgn:1000006",
          "tgn:7029392"
        ],
        "placetype": [
          "aat:300008791"
        ],
        "name:en": "Rustara Island",
        "id": 7505119
      }
    }
  ]
}
