{
  "type": "FeatureCollection",
  "features": [
    {
      "geometry": {
        "type": "Point",
        "coordinates": [
          120.640833,
          24.331389
        ]
      },
      "type": "Feature",
      "properties": {
        "hierarchy": [
          "tgn:7483140",
          "tgn:1000004",
          "tgn:7001009",
          "tgn:1000141",
          "tgn:7029392"
        ],
        "placetype": [
          "aat:300007836"
        ],
        "id": 7483140,
        "name:xx": "Guishan Qiao"
      }
    },
    {
      "geometry": {
        "type": "Point",
        "coordinates": [
          120.648611,
          24.331389
        ]
      },
      "type": "Feature",
      "properties": {
        "hierarchy": [
          "tgn:7483141",
          "tgn:1000004",
          "tgn:7001009",
          "tgn:1000141",
          "tgn:7029392"
        ],
        "placetype": [
          "aat:300006495"
        ],
        "id": 7483141,
        "name:xx": "Waibu Guozhong"
      }
    },
    {
      "geometry": {
        "type": "Point",
        "coordinates": [
          120.709722,
          24.339722
        ]
      },
      "type": "Feature",
      "properties": {
        "hierarchy": [
          "tgn:7483142",
          "tgn:7487020",
          "tgn:1000004",
          "tgn:1000141",
          "tgn:7029392"
        ],
        "placetype": [
          "aat:300007836"
        ],
        "id": 7483142,
        "name:xx": "Tucheng Qiao"
      }
    },
    {
      "geometry": {
        "type": "Point",
        "coordinates": [
          120.750278,
          24.325
        ]
      },
      "type": "Feature",
      "properties": {
        "hierarchy": [
          "tgn:7483143",
          "tgn:7487020",
          "tgn:1000004",
          "tgn:1000141",
          "tgn:7029392"
        ],
        "placetype": [
          "aat:300006495"
        ],
        "id": 7483143,
        "name:xx": "Tai'an Guoxiao"
      }
    },
    {
      "geometry": {
        "type": "Point",
        "coordinates": [
          120.728611,
          24.326667
        ]
      },
      "type": "Feature",
      "properties": {
        "hierarchy": [
          "tgn:7483144",
          "tgn:7487020",
          "tgn:1000004",
          "tgn:1000141",
          "tgn:7029392"
        ],
        "placetype": [
          "aat:300007836"
        ],
        "id": 7483144,
        "name:xx": "Zhongshe Qiao"
      }
    },
    {
      "geometry": {
        "type": "Point",
        "coordinates": [
          120.694722,
          24.324722
        ]
      },
      "type": "Feature",
      "properties": {
        "hierarchy": [
          "tgn:7483145",
          "tgn:1000004",
          "tgn:7001009",
          "tgn:1000141",
          "tgn:7029392"
        ],
        "placetype": [
          "aat:300008777"
        ],
        "id": 7483145,
        "name:xx": "Yuemei Shan"
      }
    },
    {
      "geometry": {
        "type": "Point",
        "coordinates": [
          120.654444,
          24.330556
        ]
      },
      "type": "Feature",
      "properties": {
        "hierarchy": [
          "tgn:7483146",
          "tgn:1000004",
          "tgn:7001009",
          "tgn:1000141",
          "tgn:7029392"
        ],
        "placetype": [
          "aat:300007836"
        ],
        "id": 7483146,
        "name:xx": "Ciyao Qiao"
      }
    },
    {
      "geometry": {
        "type": "Point",
        "coordinates": [
          120.636111,
          24.325833
        ]
      },
      "type": "Feature",
      "properties": {
        "hierarchy": [
          "tgn:7483147",
          "tgn:1000004",
          "tgn:7001009",
          "tgn:1000141",
          "tgn:7029392"
        ],
        "placetype": [
          "aat:300006495"
        ],
        "id": 7483147,
        "name:xx": "Shuimei Guoxiao"
      }
    },
    {
      "geometry": {
        "type": "Point",
        "coordinates": [
          120.609167,
          24.327778
        ]
      },
      "type": "Feature",
      "properties": {
        "hierarchy": [
          "tgn:7483148",
          "tgn:1000004",
          "tgn:7001009",
          "tgn:1000141",
          "tgn:7029392"
        ],
        "placetype": [
          "aat:300007836"
        ],
        "id": 7483148,
        "name:xx": "Houcuozi Qiao"
      }
    },
    {
      "geometry": {
        "type": "Point",
        "coordinates": [
          120.564167,
          24.323889
        ]
      },
      "type": "Feature",
      "properties": {
        "hierarchy": [
          "tgn:7483149",
          "tgn:1000004",
          "tgn:7001009",
          "tgn:1000141",
          "tgn:7029392"
        ],
        "placetype": [
          "aat:300387033"
        ],
        "id": 7483149,
        "name:xx": "Gaomei"
      }
    }
  ]
}
