{
  "type": "FeatureCollection",
  "features": [
    {
      "geometry": {
        "type": "Point",
        "coordinates": [
          86.320457,
          21.121787
        ]
      },
      "type": "Feature",
      "properties": {
        "hierarchy": [
          "tgn:7548000",
          "tgn:1000004",
          "tgn:7000198",
          "tgn:7016694",
          "tgn:7029392"
        ],
        "placetype": [
          "aat:300008347"
        ],
        "name:en": "Banta",
        "id": 7548000
      }
    },
    {
      "geometry": {
        "type": "Point",
        "coordinates": [
          77.883333,
          18.383333
        ]
      },
      "type": "Feature",
      "properties": {
        "hierarchy": [
          "tgn:7548003",
          "tgn:1001828",
          "tgn:1000004",
          "tgn:7000198",
          "tgn:7029392"
        ],
        "placetype": [
          "aat:300008347"
        ],
        "name:en": "Bānswāda",
        "id": 7548003
      }
    },
    {
      "geometry": {
        "type": "Point",
        "coordinates": [
          81.252677,
          27.373102
        ]
      },
      "type": "Feature",
      "properties": {
        "hierarchy": [
          "tgn:7548004",
          "tgn:1000004",
          "tgn:7000198",
          "tgn:7016722",
          "tgn:7029392"
        ],
        "placetype": [
          "aat:300008347"
        ],
        "name:en": "Bānsura",
        "id": 7548004
      }
    },
    {
      "geometry": {
        "type": "Point",
        "coordinates": [
          76.353549,
          27.683322
        ]
      },
      "type": "Feature",
      "properties": {
        "hierarchy": [
          "tgn:7548005",
          "tgn:1000004",
          "tgn:7000198",
          "tgn:7016788",
          "tgn:7029392"
        ],
        "placetype": [
          "aat:300008347"
        ],
        "name:en": "Bānsur",
        "id": 7548005
      }
    },
    {
      "geometry": {
        "type": "Point",
        "coordinates": [
          77.404685,
          26.681463
        ]
      },
      "type": "Feature",
      "properties": {
        "hierarchy": [
          "tgn:7548006",
          "tgn:1000004",
          "tgn:7000198",
          "tgn:7016788",
          "tgn:7029392"
        ],
        "placetype": [
          "aat:300008347"
        ],
        "name:en": "Bānsrai",
        "id": 7548006
      }
    },
    {
      "geometry": {
        "type": "Point",
        "coordinates": [
          85.430355,
          21.999325
        ]
      },
      "type": "Feature",
      "properties": {
        "hierarchy": [
          "tgn:7548007",
          "tgn:1000004",
          "tgn:7000198",
          "tgn:7016694",
          "tgn:7029392"
        ],
        "placetype": [
          "aat:300008795"
        ],
        "name:en": "Bānspāni Pahār",
        "id": 7548007
      }
    },
    {
      "geometry": {
        "type": "Point",
        "coordinates": [
          85.424142,
          21.995111
        ]
      },
      "type": "Feature",
      "properties": {
        "hierarchy": [
          "tgn:7548008",
          "tgn:1000004",
          "tgn:7000198",
          "tgn:7016694",
          "tgn:7029392"
        ],
        "placetype": [
          "aat:300008347"
        ],
        "name:en": "Bānspāni",
        "id": 7548008
      }
    },
    {
      "geometry": {
        "type": "Point",
        "coordinates": [
          88.048803,
          24.495744
        ]
      },
      "type": "Feature",
      "properties": {
        "hierarchy": [
          "tgn:7548009",
          "tgn:1000004",
          "tgn:7000198",
          "tgn:1001977",
          "tgn:7029392"
        ],
        "placetype": [
          "aat:300008699"
        ],
        "name:en": "Bānsloi Nadī",
        "id": 7548009
      }
    }
  ]
}
