{
  "type": "FeatureCollection",
  "features": [
    {
      "geometry": {
        "type": "Point",
        "coordinates": [
          77.35,
          11.633333
        ]
      },
      "type": "Feature",
      "properties": {
        "hierarchy": [
          "tgn:7571070",
          "tgn:1000004",
          "tgn:7000198",
          "tgn:7001797",
          "tgn:7029392"
        ],
        "placetype": [
          "aat:300008347"
        ],
        "name:en": "Kalkadambūr",
        "id": 7571070
      }
    },
    {
      "geometry": {
        "type": "Point",
        "coordinates": [
          89.694582,
          26.208866
        ]
      },
      "type": "Feature",
      "properties": {
        "hierarchy": [
          "tgn:7571072",
          "tgn:1000004",
          "tgn:1001832",
          "tgn:7000198",
          "tgn:7029392"
        ],
        "placetype": [
          "aat:300008699"
        ],
        "name:en": "Kāljāni River",
        "id": 7571072
      }
    },
    {
      "geometry": {
        "type": "Point",
        "coordinates": [
          93.726016,
          26.899025
        ]
      },
      "type": "Feature",
      "properties": {
        "hierarchy": [
          "tgn:7571075",
          "tgn:1000004",
          "tgn:1001832",
          "tgn:7000198",
          "tgn:7029392"
        ],
        "placetype": [
          "aat:300008347"
        ],
        "name:en": "Kālitagaon",
        "id": 7571075
      }
    },
    {
      "geometry": {
        "type": "Point",
        "coordinates": [
          74.542767,
          32.879588
        ]
      },
      "type": "Feature",
      "properties": {
        "hierarchy": [
          "tgn:7571076",
          "tgn:1000004",
          "tgn:7000198",
          "tgn:7000799",
          "tgn:7029392"
        ],
        "placetype": [
          "aat:300008347"
        ],
        "name:en": "Kalit",
        "id": 7571076
      }
    },
    {
      "geometry": {
        "type": "Point",
        "coordinates": [
          76.281623,
          25.533551
        ]
      },
      "type": "Feature",
      "properties": {
        "hierarchy": [
          "tgn:7571077",
          "tgn:1000004",
          "tgn:7000198",
          "tgn:7016788",
          "tgn:7029392"
        ],
        "placetype": [
          "aat:300008699"
        ],
        "name:en": "Kāli Sindh River",
        "id": 7571077
      }
    },
    {
      "geometry": {
        "type": "Point",
        "coordinates": [
          75.52215,
          24.024143
        ]
      },
      "type": "Feature",
      "properties": {
        "hierarchy": [
          "tgn:7571078",
          "tgn:1000004",
          "tgn:7000198",
          "tgn:1001894",
          "tgn:7029392"
        ],
        "placetype": [
          "aat:300008699"
        ],
        "name:en": "Kāli Sindh River",
        "id": 7571078
      }
    },
    {
      "geometry": {
        "type": "Point",
        "coordinates": [
          76.428238,
          23.344386
        ]
      },
      "type": "Feature",
      "properties": {
        "hierarchy": [
          "tgn:7571079",
          "tgn:1000004",
          "tgn:7000198",
          "tgn:1001894",
          "tgn:7029392"
        ],
        "placetype": [
          "aat:300007783"
        ],
        "name:en": "Kāli Sindh",
        "id": 7571079
      }
    }
  ]
}
