{
  "type": "FeatureCollection",
  "features": [
    {
      "geometry": {
        "type": "Point",
        "coordinates": [
          -96.234167,
          18.125
        ]
      },
      "type": "Feature",
      "properties": {
        "hierarchy": [
          "tgn:7417100",
          "tgn:1000001",
          "tgn:7005591",
          "tgn:7005560",
          "tgn:7029392"
        ],
        "placetype": [
          "aat:300008347"
        ],
        "id": 7417100,
        "name:es": "San Fransisco Salsipuedes"
      }
    },
    {
      "geometry": {
        "type": "Point",
        "coordinates": [
          -96.2975,
          18.125
        ]
      },
      "type": "Feature",
      "properties": {
        "hierarchy": [
          "tgn:7417101",
          "tgn:1000001",
          "tgn:7005591",
          "tgn:7005560",
          "tgn:7029392"
        ],
        "placetype": [
          "aat:300008347"
        ],
        "id": 7417101,
        "name:es": "Mazín Grande"
      }
    },
    {
      "geometry": {
        "type": "Point",
        "coordinates": [
          -96.216944,
          18.163056
        ]
      },
      "type": "Feature",
      "properties": {
        "hierarchy": [
          "tgn:7417102",
          "tgn:1000001",
          "tgn:7005591",
          "tgn:7005560",
          "tgn:7029392"
        ],
        "placetype": [
          "aat:300008347"
        ],
        "id": 7417102,
        "name:es": "El Porvenir"
      }
    },
    {
      "geometry": {
        "type": "Point",
        "coordinates": [
          -96.265,
          18.156111
        ]
      },
      "type": "Feature",
      "properties": {
        "hierarchy": [
          "tgn:7417103",
          "tgn:1000001",
          "tgn:7005591",
          "tgn:7005560",
          "tgn:7029392"
        ],
        "placetype": [
          "aat:300008347"
        ],
        "id": 7417103,
        "name:es": "Buenos Aires"
      }
    },
    {
      "geometry": {
        "type": "Point",
        "coordinates": [
          -96.5175,
          16.218611
        ]
      },
      "type": "Feature",
      "properties": {
        "hierarchy": [
          "tgn:7417104",
          "tgn:1000001",
          "tgn:7005591",
          "tgn:7005560",
          "tgn:7029392"
        ],
        "placetype": [
          "aat:300008795"
        ],
        "id": 7417104,
        "name:es": "Quellón, Cerro"
      }
    },
    {
      "geometry": {
        "type": "Point",
        "coordinates": [
          -96.748889,
          16.271667
        ]
      },
      "type": "Feature",
      "properties": {
        "hierarchy": [
          "tgn:7417105",
          "tgn:1000001",
          "tgn:7005591",
          "tgn:7005560",
          "tgn:7029392"
        ],
        "placetype": [
          "aat:300008795"
        ],
        "id": 7417105,
        "name:es": "San Pedro, Cerro"
      }
    },
    {
      "geometry": {
        "type": "Point",
        "coordinates": [
          -96.757222,
          16.256944
        ]
      },
      "type": "Feature",
      "properties": {
        "hierarchy": [
          "tgn:7417106",
          "tgn:1000001",
          "tgn:7005591",
          "tgn:7005560",
          "tgn:7029392"
        ],
        "placetype": [
          "aat:300008347"
        ],
        "id": 7417106,
        "name:es": "San Pedro Coatlán"
      }
    },
    {
      "geometry": {
        "type": "Point",
        "coordinates": [
          -96.784444,
          16.3125
        ]
      },
      "type": "Feature",
      "properties": {
        "hierarchy": [
          "tgn:7417107",
          "tgn:1000001",
          "tgn:7005591",
          "tgn:7005560",
          "tgn:7029392"
        ],
        "placetype": [
          "aat:300008347"
        ],
        "id": 7417107,
        "name:es": "El Sabino"
      }
    },
    {
      "geometry": {
        "type": "Point",
        "coordinates": [
          -96.914444,
          16.362222
        ]
      },
      "type": "Feature",
      "properties": {
        "hierarchy": [
          "tgn:7417108",
          "tgn:1000001",
          "tgn:7005591",
          "tgn:7005560",
          "tgn:7029392"
        ],
        "placetype": [
          "aat:300008795"
        ],
        "id": 7417108,
        "name:es": "El Eslabón"
      }
    },
    {
      "geometry": {
        "type": "Point",
        "coordinates": [
          -96.911111,
          16.383056
        ]
      },
      "type": "Feature",
      "properties": {
        "hierarchy": [
          "tgn:7417109",
          "tgn:1000001",
          "tgn:7005591",
          "tgn:7005560",
          "tgn:7029392"
        ],
        "placetype": [
          "aat:300008347"
        ],
        "id": 7417109,
        "name:es": "Paso Ancho"
      }
    }
  ]
}
