{
  "type": "FeatureCollection",
  "features": [
    {
      "geometry": {
        "type": "Point",
        "coordinates": [
          75.685325,
          17.403002
        ]
      },
      "type": "Feature",
      "properties": {
        "hierarchy": [
          "tgn:7551951",
          "tgn:1000004",
          "tgn:7000198",
          "tgn:1001895",
          "tgn:7029392"
        ],
        "placetype": [
          "aat:300008699"
        ],
        "name:en": "Bor River",
        "id": 7551951
      }
    },
    {
      "geometry": {
        "type": "Point",
        "coordinates": [
          92.508767,
          26.187349
        ]
      },
      "type": "Feature",
      "properties": {
        "hierarchy": [
          "tgn:7551952",
          "tgn:1000004",
          "tgn:1001832",
          "tgn:7000198",
          "tgn:7029392"
        ],
        "placetype": [
          "aat:300008699"
        ],
        "name:en": "Borpāni River",
        "id": 7551952
      }
    },
    {
      "geometry": {
        "type": "Point",
        "coordinates": [
          91.87805,
          25.646956
        ]
      },
      "type": "Feature",
      "properties": {
        "hierarchy": [
          "tgn:7551953",
          "tgn:1000004",
          "tgn:7000198",
          "tgn:1003539",
          "tgn:7029392"
        ],
        "placetype": [
          "aat:300008347"
        ],
        "name:en": "Borpāni",
        "id": 7551953
      }
    },
    {
      "geometry": {
        "type": "Point",
        "coordinates": [
          77.342202,
          22.022452
        ]
      },
      "type": "Feature",
      "properties": {
        "hierarchy": [
          "tgn:7551954",
          "tgn:1000004",
          "tgn:7000198",
          "tgn:1001894",
          "tgn:7029392"
        ],
        "placetype": [
          "aat:300008347"
        ],
        "name:en": "Borpāni",
        "id": 7551954
      }
    },
    {
      "geometry": {
        "type": "Point",
        "coordinates": [
          73.933333,
          21.133333
        ]
      },
      "type": "Feature",
      "properties": {
        "hierarchy": [
          "tgn:7551955",
          "tgn:1000004",
          "tgn:7000198",
          "tgn:1001895",
          "tgn:7029392"
        ],
        "placetype": [
          "aat:300008347"
        ],
        "name:en": "Borpāda",
        "id": 7551955
      }
    },
    {
      "geometry": {
        "type": "Point",
        "coordinates": [
          76.254387,
          17.395293
        ]
      },
      "type": "Feature",
      "properties": {
        "hierarchy": [
          "tgn:7551956",
          "tgn:1000004",
          "tgn:7000198",
          "tgn:1001895",
          "tgn:7029392"
        ],
        "placetype": [
          "aat:300007783"
        ],
        "name:en": "Boroti",
        "id": 7551956
      }
    },
    {
      "geometry": {
        "type": "Point",
        "coordinates": [
          75.002069,
          22.038972
        ]
      },
      "type": "Feature",
      "properties": {
        "hierarchy": [
          "tgn:7551957",
          "tgn:1000004",
          "tgn:7000198",
          "tgn:1001894",
          "tgn:7029392"
        ],
        "placetype": [
          "aat:300008347"
        ],
        "name:en": "Borlai Pīr",
        "id": 7551957
      }
    },
    {
      "geometry": {
        "type": "Point",
        "coordinates": [
          73.006389,
          18.168333
        ]
      },
      "type": "Feature",
      "properties": {
        "hierarchy": [
          "tgn:7551958",
          "tgn:1000004",
          "tgn:7000198",
          "tgn:1001895",
          "tgn:7029392"
        ],
        "placetype": [
          "aat:300008347"
        ],
        "name:en": "Borlai Panchaitan",
        "id": 7551958
      }
    },
    {
      "geometry": {
        "type": "Point",
        "coordinates": [
          76.554031,
          23.483387
        ]
      },
      "type": "Feature",
      "properties": {
        "hierarchy": [
          "tgn:7551959",
          "tgn:1000004",
          "tgn:7000198",
          "tgn:1001894",
          "tgn:7029392"
        ],
        "placetype": [
          "aat:300008347"
        ],
        "name:en": "Borlāi",
        "id": 7551959
      }
    }
  ]
}
