{
  "type": "FeatureCollection",
  "features": [
    {
      "geometry": {
        "type": "Point",
        "coordinates": [
          120.365556,
          23.353056
        ]
      },
      "type": "Feature",
      "properties": {
        "hierarchy": [
          "tgn:7484160",
          "tgn:1000004",
          "tgn:7490934",
          "tgn:1000141",
          "tgn:7029392"
        ],
        "placetype": [
          "aat:300007836"
        ],
        "id": 7484160,
        "name:xx": "Xiaqiedong Qiao"
      }
    },
    {
      "geometry": {
        "type": "Point",
        "coordinates": [
          120.353333,
          23.340556
        ]
      },
      "type": "Feature",
      "properties": {
        "hierarchy": [
          "tgn:7484161",
          "tgn:1000004",
          "tgn:7490934",
          "tgn:1000141",
          "tgn:7029392"
        ],
        "placetype": [
          "aat:300007836"
        ],
        "id": 7484161,
        "name:xx": "Dingliao Qiao"
      }
    },
    {
      "geometry": {
        "type": "Point",
        "coordinates": [
          120.358056,
          23.355833
        ]
      },
      "type": "Feature",
      "properties": {
        "hierarchy": [
          "tgn:7484162",
          "tgn:1000004",
          "tgn:7490934",
          "tgn:1000141",
          "tgn:7029392"
        ],
        "placetype": [
          "aat:300007836"
        ],
        "id": 7484162,
        "name:xx": "Liaozi Qiao"
      }
    },
    {
      "geometry": {
        "type": "Point",
        "coordinates": [
          120.317778,
          23.343611
        ]
      },
      "type": "Feature",
      "properties": {
        "hierarchy": [
          "tgn:7484163",
          "tgn:1000004",
          "tgn:7490934",
          "tgn:1000141",
          "tgn:7029392"
        ],
        "placetype": [
          "aat:300387033"
        ],
        "id": 7484163,
        "name:xx": "Xingangdong"
      }
    },
    {
      "geometry": {
        "type": "Point",
        "coordinates": [
          120.303056,
          23.317222
        ]
      },
      "type": "Feature",
      "properties": {
        "hierarchy": [
          "tgn:7484164",
          "tgn:1000004",
          "tgn:7490934",
          "tgn:1000141",
          "tgn:7029392"
        ],
        "placetype": [
          "aat:300266755"
        ],
        "id": 7484164,
        "name:xx": "Shifan Gongmu"
      }
    },
    {
      "geometry": {
        "type": "Point",
        "coordinates": [
          120.320833,
          23.330556
        ]
      },
      "type": "Feature",
      "properties": {
        "hierarchy": [
          "tgn:7484165",
          "tgn:1000004",
          "tgn:7490934",
          "tgn:1000141",
          "tgn:7029392"
        ],
        "placetype": [
          "aat:300008680"
        ],
        "id": 7484165,
        "name:xx": "Piliao Pi"
      }
    },
    {
      "geometry": {
        "type": "Point",
        "coordinates": [
          120.318333,
          23.332222
        ]
      },
      "type": "Feature",
      "properties": {
        "hierarchy": [
          "tgn:7484166",
          "tgn:1000004",
          "tgn:7490934",
          "tgn:1000141",
          "tgn:7029392"
        ],
        "placetype": [
          "aat:300007836"
        ],
        "id": 7484166,
        "name:xx": "Fuxing Qiao"
      }
    },
    {
      "geometry": {
        "type": "Point",
        "coordinates": [
          120.312222,
          23.333889
        ]
      },
      "type": "Feature",
      "properties": {
        "hierarchy": [
          "tgn:7484167",
          "tgn:1000004",
          "tgn:7490934",
          "tgn:1000141",
          "tgn:7029392"
        ],
        "placetype": [
          "aat:300007836"
        ],
        "id": 7484167,
        "name:xx": "Houzhen Qiao"
      }
    },
    {
      "geometry": {
        "type": "Point",
        "coordinates": [
          120.323889,
          23.311667
        ]
      },
      "type": "Feature",
      "properties": {
        "hierarchy": [
          "tgn:7484168",
          "tgn:1000004",
          "tgn:7490934",
          "tgn:1000141",
          "tgn:7029392"
        ],
        "placetype": [
          "aat:300006495"
        ],
        "id": 7484168,
        "name:xx": "Xindong Guozhong"
      }
    },
    {
      "geometry": {
        "type": "Point",
        "coordinates": [
          120.301944,
          23.317222
        ]
      },
      "type": "Feature",
      "properties": {
        "hierarchy": [
          "tgn:7484169",
          "tgn:1000004",
          "tgn:7490934",
          "tgn:1000141",
          "tgn:7029392"
        ],
        "placetype": [
          "aat:300007836"
        ],
        "id": 7484169,
        "name:xx": "Luzhukeng Qiao"
      }
    }
  ]
}
