{
  "type": "FeatureCollection",
  "features": [
    {
      "geometry": {
        "type": "Point",
        "coordinates": [
          75.715493,
          28.06883
        ]
      },
      "type": "Feature",
      "properties": {
        "hierarchy": [
          "tgn:7583110",
          "tgn:1000004",
          "tgn:7000198",
          "tgn:7016788",
          "tgn:7029392"
        ],
        "placetype": [
          "aat:300008347"
        ],
        "name:en": "Devta ka Bās",
        "id": 7583110
      }
    },
    {
      "geometry": {
        "type": "Point",
        "coordinates": [
          75.697331,
          28.075494
        ]
      },
      "type": "Feature",
      "properties": {
        "hierarchy": [
          "tgn:7583111",
          "tgn:1000004",
          "tgn:7000198",
          "tgn:7016788",
          "tgn:7029392"
        ],
        "placetype": [
          "aat:300008347"
        ],
        "name:en": "Bādha ki Dhāni",
        "id": 7583111
      }
    },
    {
      "geometry": {
        "type": "Point",
        "coordinates": [
          75.661014,
          28.082732
        ]
      },
      "type": "Feature",
      "properties": {
        "hierarchy": [
          "tgn:7583112",
          "tgn:1000004",
          "tgn:7000198",
          "tgn:7016788",
          "tgn:7029392"
        ],
        "placetype": [
          "aat:300008347"
        ],
        "name:en": "Thichali ki Dhāni",
        "id": 7583112
      }
    },
    {
      "geometry": {
        "type": "Point",
        "coordinates": [
          79.084734,
          27.88579
        ]
      },
      "type": "Feature",
      "properties": {
        "hierarchy": [
          "tgn:7583113",
          "tgn:1000004",
          "tgn:7000198",
          "tgn:7016722",
          "tgn:7029392"
        ],
        "placetype": [
          "aat:300008347"
        ],
        "name:en": "Samādhi",
        "id": 7583113
      }
    },
    {
      "geometry": {
        "type": "Point",
        "coordinates": [
          79.104895,
          27.879163
        ]
      },
      "type": "Feature",
      "properties": {
        "hierarchy": [
          "tgn:7583114",
          "tgn:1000004",
          "tgn:7000198",
          "tgn:7016722",
          "tgn:7029392"
        ],
        "placetype": [
          "aat:300008347"
        ],
        "name:en": "Chaundera",
        "id": 7583114
      }
    },
    {
      "geometry": {
        "type": "Point",
        "coordinates": [
          79.117282,
          27.880271
        ]
      },
      "type": "Feature",
      "properties": {
        "hierarchy": [
          "tgn:7583115",
          "tgn:1000004",
          "tgn:7000198",
          "tgn:7016722",
          "tgn:7029392"
        ],
        "placetype": [
          "aat:300008347"
        ],
        "name:en": "Nūrpur",
        "id": 7583115
      }
    },
    {
      "geometry": {
        "type": "Point",
        "coordinates": [
          79.135861,
          27.887471
        ]
      },
      "type": "Feature",
      "properties": {
        "hierarchy": [
          "tgn:7583116",
          "tgn:1000004",
          "tgn:7000198",
          "tgn:7016722",
          "tgn:7029392"
        ],
        "placetype": [
          "aat:300008347"
        ],
        "name:en": "Lālūpur",
        "id": 7583116
      }
    },
    {
      "geometry": {
        "type": "Point",
        "coordinates": [
          79.13513,
          27.896062
        ]
      },
      "type": "Feature",
      "properties": {
        "hierarchy": [
          "tgn:7583117",
          "tgn:1000004",
          "tgn:7000198",
          "tgn:7016722",
          "tgn:7029392"
        ],
        "placetype": [
          "aat:300008347"
        ],
        "name:en": "Mannua Nagla",
        "id": 7583117
      }
    },
    {
      "geometry": {
        "type": "Point",
        "coordinates": [
          79.11927,
          27.895738
        ]
      },
      "type": "Feature",
      "properties": {
        "hierarchy": [
          "tgn:7583118",
          "tgn:1000004",
          "tgn:7000198",
          "tgn:7016722",
          "tgn:7029392"
        ],
        "placetype": [
          "aat:300008347"
        ],
        "name:en": "Ganesh Nagla",
        "id": 7583118
      }
    },
    {
      "geometry": {
        "type": "Point",
        "coordinates": [
          79.105965,
          27.892547
        ]
      },
      "type": "Feature",
      "properties": {
        "hierarchy": [
          "tgn:7583119",
          "tgn:1000004",
          "tgn:7000198",
          "tgn:7016722",
          "tgn:7029392"
        ],
        "placetype": [
          "aat:300008347"
        ],
        "name:en": "Dalli Nagla",
        "id": 7583119
      }
    }
  ]
}
