{
  "type": "FeatureCollection",
  "features": [
    {
      "geometry": {
        "type": "Point",
        "coordinates": [
          74.439802,
          34.279536
        ]
      },
      "type": "Feature",
      "properties": {
        "hierarchy": [
          "tgn:7588980",
          "tgn:1000004",
          "tgn:7000198",
          "tgn:7000799",
          "tgn:7029392"
        ],
        "placetype": [
          "aat:300008347"
        ],
        "name:en": "Bāghāt",
        "id": 7588980
      }
    },
    {
      "geometry": {
        "type": "Point",
        "coordinates": [
          74.451389,
          34.275
        ]
      },
      "type": "Feature",
      "properties": {
        "hierarchy": [
          "tgn:7588981",
          "tgn:1000004",
          "tgn:7000198",
          "tgn:7000799",
          "tgn:7029392"
        ],
        "placetype": [
          "aat:300008347"
        ],
        "name:en": "Tailbal",
        "id": 7588981
      }
    },
    {
      "geometry": {
        "type": "Point",
        "coordinates": [
          74.466886,
          34.28143
        ]
      },
      "type": "Feature",
      "properties": {
        "hierarchy": [
          "tgn:7588982",
          "tgn:1000004",
          "tgn:7000198",
          "tgn:7000799",
          "tgn:7029392"
        ],
        "placetype": [
          "aat:300008347"
        ],
        "name:en": "Hamilun",
        "id": 7588982
      }
    },
    {
      "geometry": {
        "type": "Point",
        "coordinates": [
          74.466667,
          34.275
        ]
      },
      "type": "Feature",
      "properties": {
        "hierarchy": [
          "tgn:7588983",
          "tgn:1000004",
          "tgn:7000198",
          "tgn:7000799",
          "tgn:7029392"
        ],
        "placetype": [
          "aat:300008347"
        ],
        "name:en": "Dogul Teng",
        "id": 7588983
      }
    },
    {
      "geometry": {
        "type": "Point",
        "coordinates": [
          74.497275,
          34.270911
        ]
      },
      "type": "Feature",
      "properties": {
        "hierarchy": [
          "tgn:7588984",
          "tgn:1000004",
          "tgn:7000198",
          "tgn:7000799",
          "tgn:7029392"
        ],
        "placetype": [
          "aat:300008347"
        ],
        "name:en": "Tārazu",
        "id": 7588984
      }
    },
    {
      "geometry": {
        "type": "Point",
        "coordinates": [
          74.47947,
          34.258687
        ]
      },
      "type": "Feature",
      "properties": {
        "hierarchy": [
          "tgn:7588985",
          "tgn:1000004",
          "tgn:7000198",
          "tgn:7000799",
          "tgn:7029392"
        ],
        "placetype": [
          "aat:300008347"
        ],
        "name:en": "Batapur",
        "id": 7588985
      }
    },
    {
      "geometry": {
        "type": "Point",
        "coordinates": [
          74.498114,
          34.256245
        ]
      },
      "type": "Feature",
      "properties": {
        "hierarchy": [
          "tgn:7588986",
          "tgn:1000004",
          "tgn:7000198",
          "tgn:7000799",
          "tgn:7029392"
        ],
        "placetype": [
          "aat:300008347"
        ],
        "name:en": "Panzipur",
        "id": 7588986
      }
    },
    {
      "geometry": {
        "type": "Point",
        "coordinates": [
          74.483636,
          34.252282
        ]
      },
      "type": "Feature",
      "properties": {
        "hierarchy": [
          "tgn:7588987",
          "tgn:1000004",
          "tgn:7000198",
          "tgn:7000799",
          "tgn:7029392"
        ],
        "placetype": [
          "aat:300008347"
        ],
        "name:en": "Karinkshiwan",
        "id": 7588987
      }
    },
    {
      "geometry": {
        "type": "Point",
        "coordinates": [
          74.480973,
          34.25625
        ]
      },
      "type": "Feature",
      "properties": {
        "hierarchy": [
          "tgn:7588988",
          "tgn:1000004",
          "tgn:7000198",
          "tgn:7000799",
          "tgn:7029392"
        ],
        "placetype": [
          "aat:300008347"
        ],
        "name:en": "Dara Nambal",
        "id": 7588988
      }
    },
    {
      "geometry": {
        "type": "Point",
        "coordinates": [
          74.459963,
          34.256738
        ]
      },
      "type": "Feature",
      "properties": {
        "hierarchy": [
          "tgn:7588989",
          "tgn:1000004",
          "tgn:7000198",
          "tgn:7000799",
          "tgn:7029392"
        ],
        "placetype": [
          "aat:300008347"
        ],
        "name:en": "Amargad",
        "id": 7588989
      }
    }
  ]
}
