{
  "type": "FeatureCollection",
  "features": [
    {
      "geometry": {
        "type": "Point",
        "coordinates": [
          -94.796944,
          16.773611
        ]
      },
      "type": "Feature",
      "properties": {
        "hierarchy": [
          "tgn:7417820",
          "tgn:1000001",
          "tgn:7005591",
          "tgn:7005560",
          "tgn:7029392"
        ],
        "placetype": [
          "aat:300008347"
        ],
        "id": 7417820,
        "name:es": "Santa Inés"
      }
    },
    {
      "geometry": {
        "type": "Point",
        "coordinates": [
          -94.711667,
          16.718611
        ]
      },
      "type": "Feature",
      "properties": {
        "hierarchy": [
          "tgn:7417821",
          "tgn:1000001",
          "tgn:7005591",
          "tgn:7005560",
          "tgn:7029392"
        ],
        "placetype": [
          "aat:300008347"
        ],
        "id": 7417821,
        "name:es": "Rancho Viejo"
      }
    },
    {
      "geometry": {
        "type": "Point",
        "coordinates": [
          -94.783056,
          16.648611
        ]
      },
      "type": "Feature",
      "properties": {
        "hierarchy": [
          "tgn:7417822",
          "tgn:1000001",
          "tgn:7005591",
          "tgn:7005560",
          "tgn:7029392"
        ],
        "placetype": [
          "aat:300008347"
        ],
        "id": 7417822,
        "name:es": "El Porvenir"
      }
    },
    {
      "geometry": {
        "type": "Point",
        "coordinates": [
          -94.726389,
          16.663889
        ]
      },
      "type": "Feature",
      "properties": {
        "hierarchy": [
          "tgn:7417823",
          "tgn:1000001",
          "tgn:7005591",
          "tgn:7005560",
          "tgn:7029392"
        ],
        "placetype": [
          "aat:300008347"
        ],
        "id": 7417823,
        "name:es": "Las Conchas"
      }
    },
    {
      "geometry": {
        "type": "Point",
        "coordinates": [
          -94.7125,
          16.671667
        ]
      },
      "type": "Feature",
      "properties": {
        "hierarchy": [
          "tgn:7417824",
          "tgn:1000001",
          "tgn:7005591",
          "tgn:7005560",
          "tgn:7029392"
        ],
        "placetype": [
          "aat:300008347"
        ],
        "id": 7417824,
        "name:es": "Emiliano Zapata"
      }
    },
    {
      "geometry": {
        "type": "Point",
        "coordinates": [
          -94.671667,
          16.709722
        ]
      },
      "type": "Feature",
      "properties": {
        "hierarchy": [
          "tgn:7417825",
          "tgn:1000001",
          "tgn:7005591",
          "tgn:7005560",
          "tgn:7029392"
        ],
        "placetype": [
          "aat:300008347"
        ],
        "id": 7417825,
        "name:es": "Cuauhtémoc"
      }
    },
    {
      "geometry": {
        "type": "Point",
        "coordinates": [
          -94.625,
          16.710833
        ]
      },
      "type": "Feature",
      "properties": {
        "hierarchy": [
          "tgn:7417826",
          "tgn:1000001",
          "tgn:7005591",
          "tgn:7005560",
          "tgn:7029392"
        ],
        "placetype": [
          "aat:300008347"
        ],
        "id": 7417826,
        "name:es": "Río Grande"
      }
    },
    {
      "geometry": {
        "type": "Point",
        "coordinates": [
          -94.591667,
          16.710833
        ]
      },
      "type": "Feature",
      "properties": {
        "hierarchy": [
          "tgn:7417827",
          "tgn:1000001",
          "tgn:7005591",
          "tgn:7005560",
          "tgn:7029392"
        ],
        "placetype": [
          "aat:300008347"
        ],
        "id": 7417827,
        "name:es": "El Palmar"
      }
    },
    {
      "geometry": {
        "type": "Point",
        "coordinates": [
          -94.566389,
          16.6875
        ]
      },
      "type": "Feature",
      "properties": {
        "hierarchy": [
          "tgn:7417828",
          "tgn:1000001",
          "tgn:7005591",
          "tgn:7005560",
          "tgn:7029392"
        ],
        "placetype": [
          "aat:300008347"
        ],
        "id": 7417828,
        "name:es": "Carrizal"
      }
    },
    {
      "geometry": {
        "type": "Point",
        "coordinates": [
          -94.532222,
          16.693611
        ]
      },
      "type": "Feature",
      "properties": {
        "hierarchy": [
          "tgn:7417829",
          "tgn:1000001",
          "tgn:7005591",
          "tgn:7005560",
          "tgn:7029392"
        ],
        "placetype": [
          "aat:300008347"
        ],
        "id": 7417829,
        "name:es": "Ciruela"
      }
    }
  ]
}
