{
  "type": "FeatureCollection",
  "features": [
    {
      "geometry": {
        "type": "Point",
        "coordinates": [
          4.983333,
          53.05
        ]
      },
      "type": "Feature",
      "properties": {
        "hierarchy": [
          "tgn:7272710",
          "tgn:1000003",
          "tgn:7006951",
          "tgn:7016845",
          "tgn:7029392"
        ],
        "placetype": [
          "aat:300132350"
        ],
        "name:nl": "Vogelzand",
        "id": 7272710
      }
    },
    {
      "geometry": {
        "type": "Point",
        "coordinates": [
          4.266667,
          52.083333
        ]
      },
      "type": "Feature",
      "properties": {
        "hierarchy": [
          "tgn:7272711",
          "tgn:1000003",
          "tgn:7003632",
          "tgn:7016845",
          "tgn:7029392"
        ],
        "placetype": [
          "aat:300000745"
        ],
        "name:nl": "Vogelwijk",
        "id": 7272711
      }
    },
    {
      "geometry": {
        "type": "Point",
        "coordinates": [
          3.966667,
          51.333333
        ]
      },
      "type": "Feature",
      "properties": {
        "hierarchy": [
          "tgn:7272712",
          "tgn:1000003",
          "tgn:7003635",
          "tgn:7016845",
          "tgn:7029392"
        ],
        "placetype": [
          "aat:300008347"
        ],
        "name:nl": "Vogelwaarde",
        "id": 7272712
      }
    },
    {
      "geometry": {
        "type": "Point",
        "coordinates": [
          5.55,
          52.45
        ]
      },
      "type": "Feature",
      "properties": {
        "hierarchy": [
          "tgn:7272713",
          "tgn:7003615",
          "tgn:1000003",
          "tgn:7016845",
          "tgn:7029392"
        ],
        "placetype": [
          "aat:300006075"
        ],
        "name:nl": "Vogeltocht",
        "id": 7272713
      }
    },
    {
      "geometry": {
        "type": "Point",
        "coordinates": [
          5.05,
          51.85
        ]
      },
      "type": "Feature",
      "properties": {
        "hierarchy": [
          "tgn:7272714",
          "tgn:7003619",
          "tgn:1000003",
          "tgn:7016845",
          "tgn:7029392"
        ],
        "placetype": [
          "aat:300008347"
        ],
        "name:nl": "Vogelswerf",
        "id": 7272714
      }
    },
    {
      "geometry": {
        "type": "Point",
        "coordinates": [
          5.916667,
          52.15
        ]
      },
      "type": "Feature",
      "properties": {
        "hierarchy": [
          "tgn:7272715",
          "tgn:7003619",
          "tgn:1000003",
          "tgn:7016845",
          "tgn:7029392"
        ],
        "placetype": [
          "aat:300008863"
        ],
        "name:nl": "Vossenbosch",
        "id": 7272715
      }
    },
    {
      "geometry": {
        "type": "Point",
        "coordinates": [
          5.433333,
          51.633333
        ]
      },
      "type": "Feature",
      "properties": {
        "hierarchy": [
          "tgn:7272716",
          "tgn:1000003",
          "tgn:7003624",
          "tgn:7016845",
          "tgn:7029392"
        ],
        "placetype": [
          "aat:300008347"
        ],
        "name:nl": "Vossenberg",
        "id": 7272716
      }
    },
    {
      "geometry": {
        "type": "Point",
        "coordinates": [
          5.783333,
          51.566667
        ]
      },
      "type": "Feature",
      "properties": {
        "hierarchy": [
          "tgn:7272717",
          "tgn:1000003",
          "tgn:7003624",
          "tgn:7016845",
          "tgn:7029392"
        ],
        "placetype": [
          "aat:300008347"
        ],
        "name:nl": "Vossenberg",
        "id": 7272717
      }
    },
    {
      "geometry": {
        "type": "Point",
        "coordinates": [
          6.55,
          52.816667
        ]
      },
      "type": "Feature",
      "properties": {
        "hierarchy": [
          "tgn:7272718",
          "tgn:7003614",
          "tgn:1000003",
          "tgn:7016845",
          "tgn:7029392"
        ],
        "placetype": [
          "aat:300387200"
        ],
        "name:nl": "Vossenberg",
        "id": 7272718
      }
    },
    {
      "geometry": {
        "type": "Point",
        "coordinates": [
          5.75,
          52.216667
        ]
      },
      "type": "Feature",
      "properties": {
        "hierarchy": [
          "tgn:7272719",
          "tgn:7003619",
          "tgn:1000003",
          "tgn:7016845",
          "tgn:7029392"
        ],
        "placetype": [
          "aat:300008347"
        ],
        "name:nl": "Vossen",
        "id": 7272719
      }
    }
  ]
}
