{
  "type": "FeatureCollection",
  "features": [
    {
      "geometry": {
        "type": "Point",
        "coordinates": [
          78.523273,
          24.51039
        ]
      },
      "type": "Feature",
      "properties": {
        "hierarchy": [
          "tgn:7583650",
          "tgn:1000004",
          "tgn:7000198",
          "tgn:7016722",
          "tgn:7029392"
        ],
        "placetype": [
          "aat:300008347"
        ],
        "name:en": "Harpura",
        "id": 7583650
      }
    },
    {
      "geometry": {
        "type": "Point",
        "coordinates": [
          78.538313,
          24.53171
        ]
      },
      "type": "Feature",
      "properties": {
        "hierarchy": [
          "tgn:7583651",
          "tgn:1000004",
          "tgn:7000198",
          "tgn:7016722",
          "tgn:7029392"
        ],
        "placetype": [
          "aat:300008347"
        ],
        "name:en": "Satora",
        "id": 7583651
      }
    },
    {
      "geometry": {
        "type": "Point",
        "coordinates": [
          78.508414,
          24.532911
        ]
      },
      "type": "Feature",
      "properties": {
        "hierarchy": [
          "tgn:7583652",
          "tgn:1000004",
          "tgn:7000198",
          "tgn:7016722",
          "tgn:7029392"
        ],
        "placetype": [
          "aat:300008347"
        ],
        "name:en": "Rīchhpura",
        "id": 7583652
      }
    },
    {
      "geometry": {
        "type": "Point",
        "coordinates": [
          78.550222,
          24.548074
        ]
      },
      "type": "Feature",
      "properties": {
        "hierarchy": [
          "tgn:7583653",
          "tgn:1000004",
          "tgn:7000198",
          "tgn:7016722",
          "tgn:7029392"
        ],
        "placetype": [
          "aat:300266554",
          "aat:300008699"
        ],
        "name:en": "Jamunia Nāla",
        "id": 7583653
      }
    },
    {
      "geometry": {
        "type": "Point",
        "coordinates": [
          78.538047,
          24.551251
        ]
      },
      "type": "Feature",
      "properties": {
        "hierarchy": [
          "tgn:7583654",
          "tgn:1000004",
          "tgn:7000198",
          "tgn:7016722",
          "tgn:7029392"
        ],
        "placetype": [
          "aat:300008347"
        ],
        "name:en": "Mainwāra",
        "id": 7583654
      }
    },
    {
      "geometry": {
        "type": "Point",
        "coordinates": [
          78.600527,
          24.572772
        ]
      },
      "type": "Feature",
      "properties": {
        "hierarchy": [
          "tgn:7583655",
          "tgn:1000004",
          "tgn:7000198",
          "tgn:7016722",
          "tgn:7029392"
        ],
        "placetype": [
          "aat:300008699"
        ],
        "name:en": "Gadbāru Nāla",
        "id": 7583655
      }
    },
    {
      "geometry": {
        "type": "Point",
        "coordinates": [
          78.513752,
          24.560247
        ]
      },
      "type": "Feature",
      "properties": {
        "hierarchy": [
          "tgn:7583656",
          "tgn:1000004",
          "tgn:7000198",
          "tgn:7016722",
          "tgn:7029392"
        ],
        "placetype": [
          "aat:300008347"
        ],
        "name:en": "Tīla",
        "id": 7583656
      }
    },
    {
      "geometry": {
        "type": "Point",
        "coordinates": [
          78.545672,
          24.569149
        ]
      },
      "type": "Feature",
      "properties": {
        "hierarchy": [
          "tgn:7583657",
          "tgn:1000004",
          "tgn:7000198",
          "tgn:7016722",
          "tgn:7029392"
        ],
        "placetype": [
          "aat:300008347"
        ],
        "name:en": "Andela",
        "id": 7583657
      }
    },
    {
      "geometry": {
        "type": "Point",
        "coordinates": [
          78.691755,
          24.61668
        ]
      },
      "type": "Feature",
      "properties": {
        "hierarchy": [
          "tgn:7583658",
          "tgn:1000004",
          "tgn:7000198",
          "tgn:7016722",
          "tgn:7029392"
        ],
        "placetype": [
          "aat:300387042"
        ],
        "name:en": "Bamori Ghāt",
        "id": 7583658
      }
    },
    {
      "geometry": {
        "type": "Point",
        "coordinates": [
          78.554667,
          24.58803
        ]
      },
      "type": "Feature",
      "properties": {
        "hierarchy": [
          "tgn:7583659",
          "tgn:1000004",
          "tgn:7000198",
          "tgn:7016722",
          "tgn:7029392"
        ],
        "placetype": [
          "aat:300008347"
        ],
        "name:en": "Khitwāns",
        "id": 7583659
      }
    }
  ]
}
