{
  "type": "FeatureCollection",
  "features": [
    {
      "geometry": {
        "type": "Point",
        "coordinates": [
          -100.662222,
          20.629722
        ]
      },
      "type": "Feature",
      "properties": {
        "hierarchy": [
          "tgn:7417640",
          "tgn:7005584",
          "tgn:1000001",
          "tgn:7005560",
          "tgn:7029392"
        ],
        "placetype": [
          "aat:300008347"
        ],
        "id": 7417640,
        "name:xx": "Las Pulgas"
      }
    },
    {
      "geometry": {
        "type": "Point",
        "coordinates": [
          -100.654722,
          20.648889
        ]
      },
      "type": "Feature",
      "properties": {
        "hierarchy": [
          "tgn:7417641",
          "tgn:7005584",
          "tgn:1000001",
          "tgn:7005560",
          "tgn:7029392"
        ],
        "placetype": [
          "aat:300008347"
        ],
        "id": 7417641,
        "name:xx": "Rancho Viejo"
      }
    },
    {
      "geometry": {
        "type": "Point",
        "coordinates": [
          -100.605278,
          20.67
        ]
      },
      "type": "Feature",
      "properties": {
        "hierarchy": [
          "tgn:7417642",
          "tgn:7005584",
          "tgn:1000001",
          "tgn:7005560",
          "tgn:7029392"
        ],
        "placetype": [
          "aat:300008347"
        ],
        "id": 7417642,
        "name:xx": "El Obraje"
      }
    },
    {
      "geometry": {
        "type": "Point",
        "coordinates": [
          -100.566944,
          20.638333
        ]
      },
      "type": "Feature",
      "properties": {
        "hierarchy": [
          "tgn:7417643",
          "tgn:7005584",
          "tgn:1000001",
          "tgn:7005560",
          "tgn:7029392"
        ],
        "placetype": [
          "aat:300008347"
        ],
        "id": 7417643,
        "name:xx": "Ojo de Agua"
      }
    },
    {
      "geometry": {
        "type": "Point",
        "coordinates": [
          -100.6025,
          20.625
        ]
      },
      "type": "Feature",
      "properties": {
        "hierarchy": [
          "tgn:7417644",
          "tgn:7005584",
          "tgn:1000001",
          "tgn:7005560",
          "tgn:7029392"
        ],
        "placetype": [
          "aat:300008347"
        ],
        "id": 7417644,
        "name:xx": "Ojo Zarco"
      }
    },
    {
      "geometry": {
        "type": "Point",
        "coordinates": [
          -100.558333,
          20.620833
        ]
      },
      "type": "Feature",
      "properties": {
        "hierarchy": [
          "tgn:7417646",
          "tgn:7005584",
          "tgn:1000001",
          "tgn:7005560",
          "tgn:7029392"
        ],
        "placetype": [
          "aat:300008347"
        ],
        "id": 7417646,
        "name:xx": "La Higenia"
      }
    },
    {
      "geometry": {
        "type": "Point",
        "coordinates": [
          -100.634722,
          20.593611
        ]
      },
      "type": "Feature",
      "properties": {
        "hierarchy": [
          "tgn:7417647",
          "tgn:7005584",
          "tgn:1000001",
          "tgn:7005560",
          "tgn:7029392"
        ],
        "placetype": [
          "aat:300266554",
          "aat:300008699"
        ],
        "id": 7417647,
        "name:xx": "Las Pulgas, Arroyo"
      }
    },
    {
      "geometry": {
        "type": "Point",
        "coordinates": [
          -100.689444,
          20.581944
        ]
      },
      "type": "Feature",
      "properties": {
        "hierarchy": [
          "tgn:7417648",
          "tgn:7005584",
          "tgn:1000001",
          "tgn:7005560",
          "tgn:7029392"
        ],
        "placetype": [
          "aat:300008347"
        ],
        "id": 7417648,
        "name:xx": "Jocoque"
      }
    },
    {
      "geometry": {
        "type": "Point",
        "coordinates": [
          -100.679722,
          20.561944
        ]
      },
      "type": "Feature",
      "properties": {
        "hierarchy": [
          "tgn:7417649",
          "tgn:7005584",
          "tgn:1000001",
          "tgn:7005560",
          "tgn:7029392"
        ],
        "placetype": [
          "aat:300008347"
        ],
        "id": 7417649,
        "name:xx": "El Cerrito"
      }
    }
  ]
}
