{
  "type": "FeatureCollection",
  "features": [
    {
      "geometry": {
        "type": "Point",
        "coordinates": [
          31.314222,
          30.273471
        ]
      },
      "type": "Feature",
      "properties": {
        "hierarchy": [
          "tgn:7534240",
          "tgn:7001242",
          "tgn:7016833",
          "tgn:1001092",
          "tgn:7029392"
        ],
        "placetype": [
          "aat:300008347"
        ],
        "name:en": "Kafr Sindiwah",
        "id": 7534240
      }
    },
    {
      "geometry": {
        "type": "Point",
        "coordinates": [
          31.183237,
          30.632326
        ]
      },
      "type": "Feature",
      "properties": {
        "hierarchy": [
          "tgn:7534241",
          "tgn:7001242",
          "tgn:7016833",
          "tgn:7001312",
          "tgn:7029392"
        ],
        "placetype": [
          "aat:300008347"
        ],
        "name:en": "Kafr Sinbū",
        "id": 7534241
      }
    },
    {
      "geometry": {
        "type": "Point",
        "coordinates": [
          30.729854,
          29.379983
        ]
      },
      "type": "Feature",
      "properties": {
        "hierarchy": [
          "tgn:7534242",
          "tgn:7001242",
          "tgn:7001105",
          "tgn:7016833",
          "tgn:7029392"
        ],
        "placetype": [
          "aat:300008347"
        ],
        "name:en": "Kafr Sinarū",
        "id": 7534242
      }
    },
    {
      "geometry": {
        "type": "Point",
        "coordinates": [
          31.488088,
          31.115919
        ]
      },
      "type": "Feature",
      "properties": {
        "hierarchy": [
          "tgn:7534243",
          "tgn:7001242",
          "tgn:1001059",
          "tgn:7016833",
          "tgn:7029392"
        ],
        "placetype": [
          "aat:300008347"
        ],
        "name:en": "Kafr Si'fân",
        "id": 7534243
      }
    },
    {
      "geometry": {
        "type": "Point",
        "coordinates": [
          31.039529,
          30.768479
        ]
      },
      "type": "Feature",
      "properties": {
        "hierarchy": [
          "tgn:7534244",
          "tgn:7001242",
          "tgn:7016833",
          "tgn:7001312",
          "tgn:7029392"
        ],
        "placetype": [
          "aat:300008347"
        ],
        "name:en": "Kafr Sibţās",
        "id": 7534244
      }
    },
    {
      "geometry": {
        "type": "Point",
        "coordinates": [
          30.977622,
          30.522606
        ]
      },
      "type": "Feature",
      "properties": {
        "hierarchy": [
          "tgn:7534245",
          "tgn:7001242",
          "tgn:7016833",
          "tgn:1001087",
          "tgn:7029392"
        ],
        "placetype": [
          "aat:300008347"
        ],
        "name:en": "Kafr Shunūfah",
        "id": 7534245
      }
    },
    {
      "geometry": {
        "type": "Point",
        "coordinates": [
          31.269331,
          30.388421
        ]
      },
      "type": "Feature",
      "properties": {
        "hierarchy": [
          "tgn:7534246",
          "tgn:7001242",
          "tgn:7016833",
          "tgn:1001092",
          "tgn:7029392"
        ],
        "placetype": [
          "aat:300008347"
        ],
        "name:en": "Kafr Shūmān",
        "id": 7534246
      }
    },
    {
      "geometry": {
        "type": "Point",
        "coordinates": [
          31.25,
          30.55
        ]
      },
      "type": "Feature",
      "properties": {
        "hierarchy": [
          "tgn:7534247",
          "tgn:7001242",
          "tgn:7016833",
          "tgn:1001087",
          "tgn:7029392"
        ],
        "placetype": [
          "aat:300008347"
        ],
        "name:en": "Kafr Shukr al Qadīm",
        "id": 7534247
      }
    },
    {
      "geometry": {
        "type": "Point",
        "coordinates": [
          31.00085,
          30.445122
        ]
      },
      "type": "Feature",
      "properties": {
        "hierarchy": [
          "tgn:7534249",
          "tgn:7001242",
          "tgn:7016833",
          "tgn:1001087",
          "tgn:7029392"
        ],
        "placetype": [
          "aat:300008347"
        ],
        "id": 7534249,
        "name:xx": "Kafr Shubrā Zinjī"
      }
    }
  ]
}
