{
  "type": "FeatureCollection",
  "features": [
    {
      "geometry": {
        "type": "Point",
        "coordinates": [
          31.231745,
          30.127814
        ]
      },
      "type": "Feature",
      "properties": {
        "hierarchy": [
          "tgn:7532360",
          "tgn:7001242",
          "tgn:7016833",
          "tgn:1001092",
          "tgn:7029392"
        ],
        "placetype": [
          "aat:300007544"
        ],
        "id": 7532360,
        "name:xx": "Masjid Maşna' Yāsīn lil Zujāj"
      }
    },
    {
      "geometry": {
        "type": "Point",
        "coordinates": [
          31.234039,
          30.125935
        ]
      },
      "type": "Feature",
      "properties": {
        "hierarchy": [
          "tgn:7532361",
          "tgn:7001242",
          "tgn:7016833",
          "tgn:1001092",
          "tgn:7029392"
        ],
        "placetype": [
          "aat:300000745"
        ],
        "id": 7532361,
        "name:xx": "Ash Sharqāwīyah al Qadīmah"
      }
    },
    {
      "geometry": {
        "type": "Point",
        "coordinates": [
          31.234921,
          30.126383
        ]
      },
      "type": "Feature",
      "properties": {
        "hierarchy": [
          "tgn:7532362",
          "tgn:7001242",
          "tgn:7016833",
          "tgn:1001092",
          "tgn:7029392"
        ],
        "placetype": [
          "aat:300007836"
        ],
        "id": 7532362,
        "name:xx": "Kūbrī ash Sharqāwīyah"
      }
    },
    {
      "geometry": {
        "type": "Point",
        "coordinates": [
          31.239366,
          30.125549
        ]
      },
      "type": "Feature",
      "properties": {
        "hierarchy": [
          "tgn:7532363",
          "tgn:7001242",
          "tgn:7016833",
          "tgn:1001092",
          "tgn:7029392"
        ],
        "placetype": [
          "aat:300000745"
        ],
        "id": 7532363,
        "name:xx": "Masākin al Akhshāb wa ash Shāy"
      }
    },
    {
      "geometry": {
        "type": "Point",
        "coordinates": [
          31.239955,
          30.123194
        ]
      },
      "type": "Feature",
      "properties": {
        "hierarchy": [
          "tgn:7532364",
          "tgn:7001242",
          "tgn:7016833",
          "tgn:1001092",
          "tgn:7029392"
        ],
        "placetype": [
          "aat:300000745"
        ],
        "id": 7532364,
        "name:xx": "Masākin al Farnawānī al Qadīmah"
      }
    },
    {
      "geometry": {
        "type": "Point",
        "coordinates": [
          31.238998,
          30.121918
        ]
      },
      "type": "Feature",
      "properties": {
        "hierarchy": [
          "tgn:7532365",
          "tgn:7001242",
          "tgn:7016833",
          "tgn:1001092",
          "tgn:7029392"
        ],
        "placetype": [
          "aat:300004792"
        ],
        "id": 7532365,
        "name:xx": "Ma'had al Kifāyat al Intājīyah wa at Tadrīb al Mihnī"
      }
    },
    {
      "geometry": {
        "type": "Point",
        "coordinates": [
          31.238382,
          30.120601
        ]
      },
      "type": "Feature",
      "properties": {
        "hierarchy": [
          "tgn:7532366",
          "tgn:7001242",
          "tgn:7016833",
          "tgn:1001092",
          "tgn:7029392"
        ],
        "placetype": [
          "aat:300004792"
        ],
        "id": 7532366,
        "name:xx": "Ash Shirkah al Mişrīyah lil Inshā'āt al Ma'dinīyah"
      }
    },
    {
      "geometry": {
        "type": "Point",
        "coordinates": [
          31.243425,
          30.123985
        ]
      },
      "type": "Feature",
      "properties": {
        "hierarchy": [
          "tgn:7532367",
          "tgn:7001242",
          "tgn:7016833",
          "tgn:1001092",
          "tgn:7029392"
        ],
        "placetype": [
          "aat:300007780"
        ],
        "id": 7532367,
        "name:xx": "Maḩaţţat Shubrā al Khaymah"
      }
    },
    {
      "geometry": {
        "type": "Point",
        "coordinates": [
          31.242579,
          30.121767
        ]
      },
      "type": "Feature",
      "properties": {
        "hierarchy": [
          "tgn:7532368",
          "tgn:7001242",
          "tgn:7016833",
          "tgn:1001092",
          "tgn:7029392"
        ],
        "placetype": [
          "aat:300004792"
        ],
        "id": 7532368,
        "name:xx": "Nādī al Mu'assasah al 'Ummālīyah"
      }
    },
    {
      "geometry": {
        "type": "Point",
        "coordinates": [
          31.239527,
          30.120533
        ]
      },
      "type": "Feature",
      "properties": {
        "hierarchy": [
          "tgn:7532369",
          "tgn:7001242",
          "tgn:7016833",
          "tgn:1001092",
          "tgn:7029392"
        ],
        "placetype": [
          "aat:300004792"
        ],
        "id": 7532369,
        "name:xx": "Murūr al Qalyūbīyah"
      }
    }
  ]
}
