{
  "type": "FeatureCollection",
  "features": [
    {
      "geometry": {
        "type": "Point",
        "coordinates": [
          -99.3975,
          26.1875
        ]
      },
      "type": "Feature",
      "properties": {
        "hierarchy": [
          "tgn:7420110",
          "tgn:1000001",
          "tgn:7005589",
          "tgn:7005560",
          "tgn:7029392"
        ],
        "placetype": [
          "aat:300008699"
        ],
        "id": 7420110,
        "name:es": "Mascorro, Río"
      }
    },
    {
      "geometry": {
        "type": "Point",
        "coordinates": [
          -110.541667,
          23.741944
        ]
      },
      "type": "Feature",
      "properties": {
        "hierarchy": [
          "tgn:7420111",
          "tgn:1001836",
          "tgn:1000001",
          "tgn:7005560",
          "tgn:7029392"
        ],
        "placetype": [
          "aat:300008347"
        ],
        "id": 7420111,
        "name:xx": "Buenavista"
      }
    },
    {
      "geometry": {
        "type": "Point",
        "coordinates": [
          -110.560833,
          23.841389
        ]
      },
      "type": "Feature",
      "properties": {
        "hierarchy": [
          "tgn:7420112",
          "tgn:1001836",
          "tgn:1000001",
          "tgn:7005560",
          "tgn:7029392"
        ],
        "placetype": [
          "aat:300008347"
        ],
        "id": 7420112,
        "name:xx": "Matape"
      }
    },
    {
      "geometry": {
        "type": "Point",
        "coordinates": [
          -110.5625,
          24.218611
        ]
      },
      "type": "Feature",
      "properties": {
        "hierarchy": [
          "tgn:7420113",
          "tgn:1001836",
          "tgn:1000001",
          "tgn:7005560",
          "tgn:7029392"
        ],
        "placetype": [
          "aat:300386846"
        ],
        "id": 7420113,
        "name:xx": "El León, Punta"
      }
    },
    {
      "geometry": {
        "type": "Point",
        "coordinates": [
          -110.5625,
          24.875
        ]
      },
      "type": "Feature",
      "properties": {
        "hierarchy": [
          "tgn:7420114",
          "tgn:1001836",
          "tgn:1000001",
          "tgn:7005560",
          "tgn:7029392"
        ],
        "placetype": [
          "aat:300132316"
        ],
        "id": 7420114,
        "name:xx": "La Montajado, Bahía"
      }
    },
    {
      "geometry": {
        "type": "Point",
        "coordinates": [
          -110.563611,
          24.156111
        ]
      },
      "type": "Feature",
      "properties": {
        "hierarchy": [
          "tgn:7420115",
          "tgn:1001836",
          "tgn:1000001",
          "tgn:7005560",
          "tgn:7029392"
        ],
        "placetype": [
          "aat:300008347"
        ],
        "id": 7420115,
        "name:xx": "Alfredo V. Bonfil"
      }
    },
    {
      "geometry": {
        "type": "Point",
        "coordinates": [
          -110.578056,
          23.625
        ]
      },
      "type": "Feature",
      "properties": {
        "hierarchy": [
          "tgn:7420116",
          "tgn:1001836",
          "tgn:1000001",
          "tgn:7005560",
          "tgn:7029392"
        ],
        "placetype": [
          "aat:300008699"
        ],
        "id": 7420116,
        "name:xx": "Santa Inés, Río"
      }
    },
    {
      "geometry": {
        "type": "Point",
        "coordinates": [
          -110.588889,
          24.218056
        ]
      },
      "type": "Feature",
      "properties": {
        "hierarchy": [
          "tgn:7420117",
          "tgn:1001836",
          "tgn:1000001",
          "tgn:7005560",
          "tgn:7029392"
        ],
        "placetype": [
          "aat:300008347"
        ],
        "id": 7420117,
        "name:xx": "Las Pacas"
      }
    },
    {
      "geometry": {
        "type": "Point",
        "coordinates": [
          -110.593611,
          24.250278
        ]
      },
      "type": "Feature",
      "properties": {
        "hierarchy": [
          "tgn:7420118",
          "tgn:1001836",
          "tgn:1000001",
          "tgn:7005560",
          "tgn:7029392"
        ],
        "placetype": [
          "aat:300386846"
        ],
        "id": 7420118,
        "name:xx": "Los Tules, Punta"
      }
    },
    {
      "geometry": {
        "type": "Point",
        "coordinates": [
          -110.623611,
          24.245833
        ]
      },
      "type": "Feature",
      "properties": {
        "hierarchy": [
          "tgn:7420119",
          "tgn:1001836",
          "tgn:1000001",
          "tgn:7005560",
          "tgn:7029392"
        ],
        "placetype": [
          "aat:300008347"
        ],
        "id": 7420119,
        "name:xx": "El Cajete"
      }
    }
  ]
}
