{
  "type": "FeatureCollection",
  "features": [
    {
      "geometry": {
        "type": "Point",
        "coordinates": [
          -108.033333,
          30.283333
        ]
      },
      "type": "Feature",
      "properties": {
        "hierarchy": [
          "tgn:7391040",
          "tgn:7005581",
          "tgn:1000001",
          "tgn:7005560",
          "tgn:7029392"
        ],
        "placetype": [
          "aat:300008347"
        ],
        "id": 7391040,
        "name:xx": "Rancho La Mora"
      }
    },
    {
      "geometry": {
        "type": "Point",
        "coordinates": [
          -109.316667,
          30.066667
        ]
      },
      "type": "Feature",
      "properties": {
        "hierarchy": [
          "tgn:7391041",
          "tgn:1000001",
          "tgn:1001960",
          "tgn:7005560",
          "tgn:7029392"
        ],
        "placetype": [
          "aat:300008347"
        ],
        "id": 7391041,
        "name:xx": "Rancho La Mora"
      }
    },
    {
      "geometry": {
        "type": "Point",
        "coordinates": [
          -105.233333,
          29.583333
        ]
      },
      "type": "Feature",
      "properties": {
        "hierarchy": [
          "tgn:7391042",
          "tgn:7005581",
          "tgn:1000001",
          "tgn:7005560",
          "tgn:7029392"
        ],
        "placetype": [
          "aat:300008347"
        ],
        "id": 7391042,
        "name:xx": "Rancho La Mora"
      }
    },
    {
      "geometry": {
        "type": "Point",
        "coordinates": [
          -101.216667,
          24.883333
        ]
      },
      "type": "Feature",
      "properties": {
        "hierarchy": [
          "tgn:7391043",
          "tgn:1001853",
          "tgn:1000001",
          "tgn:7005560",
          "tgn:7029392"
        ],
        "placetype": [
          "aat:300008347"
        ],
        "id": 7391043,
        "name:xx": "Rancho La Mora"
      }
    },
    {
      "geometry": {
        "type": "Point",
        "coordinates": [
          -111.633333,
          28.983333
        ]
      },
      "type": "Feature",
      "properties": {
        "hierarchy": [
          "tgn:7391044",
          "tgn:1000001",
          "tgn:1001960",
          "tgn:7005560",
          "tgn:7029392"
        ],
        "placetype": [
          "aat:300008347"
        ],
        "id": 7391044,
        "name:xx": "Rancho La Mocha"
      }
    },
    {
      "geometry": {
        "type": "Point",
        "coordinates": [
          -105.066667,
          26.066667
        ]
      },
      "type": "Feature",
      "properties": {
        "hierarchy": [
          "tgn:7391045",
          "tgn:7005583",
          "tgn:1000001",
          "tgn:7005560",
          "tgn:7029392"
        ],
        "placetype": [
          "aat:300008347"
        ],
        "id": 7391045,
        "name:xx": "Rancho La Miria"
      }
    },
    {
      "geometry": {
        "type": "Point",
        "coordinates": [
          -109.633333,
          30.483333
        ]
      },
      "type": "Feature",
      "properties": {
        "hierarchy": [
          "tgn:7391046",
          "tgn:1000001",
          "tgn:1001960",
          "tgn:7005560",
          "tgn:7029392"
        ],
        "placetype": [
          "aat:300008347"
        ],
        "id": 7391046,
        "name:xx": "Rancho La Milpita"
      }
    },
    {
      "geometry": {
        "type": "Point",
        "coordinates": [
          -100.883333,
          27.966667
        ]
      },
      "type": "Feature",
      "properties": {
        "hierarchy": [
          "tgn:7391047",
          "tgn:1001853",
          "tgn:1000001",
          "tgn:7005560",
          "tgn:7029392"
        ],
        "placetype": [
          "aat:300008347"
        ],
        "id": 7391047,
        "name:xx": "Rancho La Mezquitosa"
      }
    },
    {
      "geometry": {
        "type": "Point",
        "coordinates": [
          -100.516667,
          27.633333
        ]
      },
      "type": "Feature",
      "properties": {
        "hierarchy": [
          "tgn:7391048",
          "tgn:1001853",
          "tgn:1000001",
          "tgn:7005560",
          "tgn:7029392"
        ],
        "placetype": [
          "aat:300008347"
        ],
        "id": 7391048,
        "name:xx": "Rancho La Mezquitos"
      }
    },
    {
      "geometry": {
        "type": "Point",
        "coordinates": [
          -110.266667,
          30.933333
        ]
      },
      "type": "Feature",
      "properties": {
        "hierarchy": [
          "tgn:7391049",
          "tgn:1000001",
          "tgn:1001960",
          "tgn:7005560",
          "tgn:7029392"
        ],
        "placetype": [
          "aat:300008347"
        ],
        "id": 7391049,
        "name:xx": "Rancho La Mexicana"
      }
    }
  ]
}
