{
  "type": "FeatureCollection",
  "features": [
    {
      "geometry": {
        "type": "Point",
        "coordinates": [
          77.900224,
          30.431372
        ]
      },
      "type": "Feature",
      "properties": {
        "hierarchy": [
          "tgn:7591430",
          "tgn:1000004",
          "tgn:7000198",
          "tgn:7031786",
          "tgn:7029392"
        ],
        "placetype": [
          "aat:300008347"
        ],
        "name:en": "Rajauli",
        "id": 7591430
      }
    },
    {
      "geometry": {
        "type": "Point",
        "coordinates": [
          77.889034,
          30.426466
        ]
      },
      "type": "Feature",
      "properties": {
        "hierarchy": [
          "tgn:7591431",
          "tgn:1000004",
          "tgn:7000198",
          "tgn:7031786",
          "tgn:7029392"
        ],
        "placetype": [
          "aat:300008347"
        ],
        "name:en": "Horāwāla",
        "id": 7591431
      }
    },
    {
      "geometry": {
        "type": "Point",
        "coordinates": [
          77.883483,
          30.423317
        ]
      },
      "type": "Feature",
      "properties": {
        "hierarchy": [
          "tgn:7591432",
          "tgn:1000004",
          "tgn:7000198",
          "tgn:7031786",
          "tgn:7029392"
        ],
        "placetype": [
          "aat:300008347"
        ],
        "name:en": "Mānduwāla",
        "id": 7591432
      }
    },
    {
      "geometry": {
        "type": "Point",
        "coordinates": [
          77.870451,
          30.42651
        ]
      },
      "type": "Feature",
      "properties": {
        "hierarchy": [
          "tgn:7591433",
          "tgn:1000004",
          "tgn:7000198",
          "tgn:7031786",
          "tgn:7029392"
        ],
        "placetype": [
          "aat:300008347"
        ],
        "name:en": "Badrīpur",
        "id": 7591433
      }
    },
    {
      "geometry": {
        "type": "Point",
        "coordinates": [
          77.844292,
          30.417346
        ]
      },
      "type": "Feature",
      "properties": {
        "hierarchy": [
          "tgn:7591434",
          "tgn:1000004",
          "tgn:7000198",
          "tgn:7031786",
          "tgn:7029392"
        ],
        "placetype": [
          "aat:300008863"
        ],
        "name:en": "Chharwa Block Reserved Forest",
        "id": 7591434
      }
    },
    {
      "geometry": {
        "type": "Point",
        "coordinates": [
          77.863029,
          30.427133
        ]
      },
      "type": "Feature",
      "properties": {
        "hierarchy": [
          "tgn:7591435",
          "tgn:1000004",
          "tgn:7000198",
          "tgn:7031786",
          "tgn:7029392"
        ],
        "placetype": [
          "aat:300008347"
        ],
        "name:en": "Chāndpur",
        "id": 7591435
      }
    },
    {
      "geometry": {
        "type": "Point",
        "coordinates": [
          77.853889,
          30.425556
        ]
      },
      "type": "Feature",
      "properties": {
        "hierarchy": [
          "tgn:7591436",
          "tgn:1000004",
          "tgn:7000198",
          "tgn:7031786",
          "tgn:7029392"
        ],
        "placetype": [
          "aat:300008863"
        ],
        "name:en": "Chāndpur Block Reserved Forest",
        "id": 7591436
      }
    },
    {
      "geometry": {
        "type": "Point",
        "coordinates": [
          77.84005,
          30.431109
        ]
      },
      "type": "Feature",
      "properties": {
        "hierarchy": [
          "tgn:7591437",
          "tgn:1000004",
          "tgn:7000198",
          "tgn:7031786",
          "tgn:7029392"
        ],
        "placetype": [
          "aat:300008863"
        ],
        "name:en": "Dobri Block Reserved Forest",
        "id": 7591437
      }
    },
    {
      "geometry": {
        "type": "Point",
        "coordinates": [
          77.826649,
          30.421281
        ]
      },
      "type": "Feature",
      "properties": {
        "hierarchy": [
          "tgn:7591438",
          "tgn:1000004",
          "tgn:7000198",
          "tgn:7031786",
          "tgn:7029392"
        ],
        "placetype": [
          "aat:300008347"
        ],
        "name:en": "Chhorba",
        "id": 7591438
      }
    },
    {
      "geometry": {
        "type": "Point",
        "coordinates": [
          77.758845,
          30.412045
        ]
      },
      "type": "Feature",
      "properties": {
        "hierarchy": [
          "tgn:7591439",
          "tgn:1000004",
          "tgn:7000198",
          "tgn:7031786",
          "tgn:7029392"
        ],
        "placetype": [
          "aat:300008699"
        ],
        "name:en": "Sītla Rao",
        "id": 7591439
      }
    }
  ]
}
