{
  "type": "FeatureCollection",
  "features": [
    {
      "geometry": {
        "type": "Point",
        "coordinates": [
          119.662154,
          23.666264
        ]
      },
      "type": "Feature",
      "properties": {
        "hierarchy": [
          "tgn:7489550",
          "tgn:1000004",
          "tgn:7004300",
          "tgn:1000141",
          "tgn:7029392"
        ],
        "placetype": [
          "aat:300387173"
        ],
        "id": 7489550,
        "name:xx": "Niaoyu Cun"
      }
    },
    {
      "geometry": {
        "type": "Point",
        "coordinates": [
          119.66366,
          23.663013
        ]
      },
      "type": "Feature",
      "properties": {
        "hierarchy": [
          "tgn:7489551",
          "tgn:1000004",
          "tgn:7004300",
          "tgn:1000141",
          "tgn:7029392"
        ],
        "placetype": [
          "aat:300008791"
        ],
        "id": 7489551,
        "name:xx": "Niao Yu"
      }
    },
    {
      "geometry": {
        "type": "Point",
        "coordinates": [
          120.983333,
          24.466667
        ]
      },
      "type": "Feature",
      "properties": {
        "hierarchy": [
          "tgn:7489552",
          "tgn:7487020",
          "tgn:1000004",
          "tgn:1000141",
          "tgn:7029392"
        ],
        "placetype": [
          "aat:300008798"
        ],
        "id": 7489552,
        "name:xx": "Niaozui Shan"
      }
    },
    {
      "geometry": {
        "type": "Point",
        "coordinates": [
          121.298333,
          24.730556
        ]
      },
      "type": "Feature",
      "properties": {
        "hierarchy": [
          "tgn:7489553",
          "tgn:1000004",
          "tgn:7471332",
          "tgn:1000141",
          "tgn:7029392"
        ],
        "placetype": [
          "aat:300008798"
        ],
        "id": 7489553,
        "name:xx": "Niaozui Shan"
      }
    },
    {
      "geometry": {
        "type": "Point",
        "coordinates": [
          121.075556,
          24.580833
        ]
      },
      "type": "Feature",
      "properties": {
        "hierarchy": [
          "tgn:7489554",
          "tgn:1000004",
          "tgn:7471332",
          "tgn:1000141",
          "tgn:7029392"
        ],
        "placetype": [
          "aat:300008798"
        ],
        "id": 7489554,
        "name:xx": "Niaozui Shan"
      }
    },
    {
      "geometry": {
        "type": "Point",
        "coordinates": [
          121.284167,
          24.720833
        ]
      },
      "type": "Feature",
      "properties": {
        "hierarchy": [
          "tgn:7489555",
          "tgn:1000004",
          "tgn:7471332",
          "tgn:1000141",
          "tgn:7029392"
        ],
        "placetype": [
          "aat:300008347"
        ],
        "id": 7489555,
        "name:xx": "Niaozui"
      }
    },
    {
      "geometry": {
        "type": "Point",
        "coordinates": [
          120.274167,
          23.335278
        ]
      },
      "type": "Feature",
      "properties": {
        "hierarchy": [
          "tgn:7489558",
          "tgn:1000004",
          "tgn:7490934",
          "tgn:1000141",
          "tgn:7029392"
        ],
        "placetype": [
          "aat:300008347"
        ],
        "id": 7489558,
        "name:xx": "Yuansongjiao"
      }
    }
  ]
}
