{
  "type": "FeatureCollection",
  "features": [
    {
      "geometry": {
        "type": "Point",
        "coordinates": [
          120.822778,
          23.714167
        ]
      },
      "type": "Feature",
      "properties": {
        "hierarchy": [
          "tgn:7500500",
          "tgn:7488858",
          "tgn:1000004",
          "tgn:1000141",
          "tgn:7029392"
        ],
        "placetype": [
          "aat:300008347"
        ],
        "id": 7500500,
        "name:xx": "Tiandi"
      }
    },
    {
      "geometry": {
        "type": "Point",
        "coordinates": [
          120.852778,
          23.722778
        ]
      },
      "type": "Feature",
      "properties": {
        "hierarchy": [
          "tgn:7500501",
          "tgn:7488858",
          "tgn:1000004",
          "tgn:1000141",
          "tgn:7029392"
        ],
        "placetype": [
          "aat:300008347"
        ],
        "id": 7500501,
        "name:xx": "Baibuzikou"
      }
    },
    {
      "geometry": {
        "type": "Point",
        "coordinates": [
          120.871667,
          23.726944
        ]
      },
      "type": "Feature",
      "properties": {
        "hierarchy": [
          "tgn:7500502",
          "tgn:7488858",
          "tgn:1000004",
          "tgn:1000141",
          "tgn:7029392"
        ],
        "placetype": [
          "aat:300008347"
        ],
        "id": 7500502,
        "name:xx": "Sanpou"
      }
    },
    {
      "geometry": {
        "type": "Point",
        "coordinates": [
          120.867778,
          23.740556
        ]
      },
      "type": "Feature",
      "properties": {
        "hierarchy": [
          "tgn:7500503",
          "tgn:7488858",
          "tgn:1000004",
          "tgn:1000141",
          "tgn:7029392"
        ],
        "placetype": [
          "aat:300008347"
        ],
        "id": 7500503,
        "name:xx": "Erpou"
      }
    },
    {
      "geometry": {
        "type": "Point",
        "coordinates": [
          120.783333,
          23.746389
        ]
      },
      "type": "Feature",
      "properties": {
        "hierarchy": [
          "tgn:7500504",
          "tgn:7488858",
          "tgn:1000004",
          "tgn:1000141",
          "tgn:7029392"
        ],
        "placetype": [
          "aat:300008347"
        ],
        "id": 7500504,
        "name:xx": "Dashuikuping"
      }
    },
    {
      "geometry": {
        "type": "Point",
        "coordinates": [
          119.469722,
          23.562222
        ]
      },
      "type": "Feature",
      "properties": {
        "hierarchy": [
          "tgn:7500506",
          "tgn:1000004",
          "tgn:7004300",
          "tgn:1000141",
          "tgn:7029392"
        ],
        "placetype": [
          "aat:300008347"
        ],
        "id": 7500506,
        "name:xx": "Yiziwei"
      }
    },
    {
      "geometry": {
        "type": "Point",
        "coordinates": [
          119.506667,
          23.5675
        ]
      },
      "type": "Feature",
      "properties": {
        "hierarchy": [
          "tgn:7500507",
          "tgn:1000004",
          "tgn:7004300",
          "tgn:1000141",
          "tgn:7029392"
        ],
        "placetype": [
          "aat:300008347"
        ],
        "id": 7500507,
        "name:xx": "Fengkengkou"
      }
    },
    {
      "geometry": {
        "type": "Point",
        "coordinates": [
          119.502222,
          23.628611
        ]
      },
      "type": "Feature",
      "properties": {
        "hierarchy": [
          "tgn:7500509",
          "tgn:1000004",
          "tgn:7004300",
          "tgn:1000141",
          "tgn:7029392"
        ],
        "placetype": [
          "aat:300386846"
        ],
        "id": 7500509,
        "name:xx": "Longwei Bi"
      }
    }
  ]
}
