{
  "type": "FeatureCollection",
  "features": [
    {
      "geometry": {
        "type": "Point",
        "coordinates": [
          121.799722,
          24.750833
        ]
      },
      "type": "Feature",
      "properties": {
        "hierarchy": [
          "tgn:7482770",
          "tgn:1000004",
          "tgn:7489179",
          "tgn:1000141",
          "tgn:7029392"
        ],
        "placetype": [
          "aat:300007595"
        ],
        "id": 7482770,
        "name:xx": "Zhen'an Miao"
      }
    },
    {
      "geometry": {
        "type": "Point",
        "coordinates": [
          121.788611,
          24.750278
        ]
      },
      "type": "Feature",
      "properties": {
        "hierarchy": [
          "tgn:7482771",
          "tgn:1000004",
          "tgn:7489179",
          "tgn:1000141",
          "tgn:7029392"
        ],
        "placetype": [
          "aat:300006495"
        ],
        "id": 7482771,
        "name:xx": "Zhuangwei Guozhong"
      }
    },
    {
      "geometry": {
        "type": "Point",
        "coordinates": [
          121.900833,
          24.995
        ]
      },
      "type": "Feature",
      "properties": {
        "hierarchy": [
          "tgn:7482772",
          "tgn:1000004",
          "tgn:1000454",
          "tgn:1000141",
          "tgn:7029392"
        ],
        "placetype": [
          "aat:300008798"
        ],
        "id": 7482772,
        "name:xx": "Wujiutong Shan"
      }
    },
    {
      "geometry": {
        "type": "Point",
        "coordinates": [
          120.251389,
          22.968333
        ]
      },
      "type": "Feature",
      "properties": {
        "hierarchy": [
          "tgn:7482773",
          "tgn:1000004",
          "tgn:7490934",
          "tgn:1000141",
          "tgn:7029392"
        ],
        "placetype": [
          "aat:300000745"
        ],
        "id": 7482773,
        "name:xx": "Ganlinqian"
      }
    },
    {
      "geometry": {
        "type": "Point",
        "coordinates": [
          120.245278,
          22.816111
        ]
      },
      "type": "Feature",
      "properties": {
        "hierarchy": [
          "tgn:7482774",
          "tgn:7001004",
          "tgn:1000004",
          "tgn:1000141",
          "tgn:7029392"
        ],
        "placetype": [
          "aat:300008347"
        ],
        "id": 7482774,
        "name:xx": "Kanxia"
      }
    },
    {
      "geometry": {
        "type": "Point",
        "coordinates": [
          120.236667,
          22.884722
        ]
      },
      "type": "Feature",
      "properties": {
        "hierarchy": [
          "tgn:7482775",
          "tgn:1000004",
          "tgn:7490934",
          "tgn:1000141",
          "tgn:7029392"
        ],
        "placetype": [
          "aat:300008347"
        ],
        "id": 7482775,
        "name:xx": "Hunei"
      }
    },
    {
      "geometry": {
        "type": "Point",
        "coordinates": [
          120.236389,
          22.907778
        ]
      },
      "type": "Feature",
      "properties": {
        "hierarchy": [
          "tgn:7482776",
          "tgn:1000004",
          "tgn:7490934",
          "tgn:1000141",
          "tgn:7029392"
        ],
        "placetype": [
          "aat:300008347"
        ],
        "id": 7482776,
        "name:xx": "Erqiao"
      }
    },
    {
      "geometry": {
        "type": "Point",
        "coordinates": [
          120.242222,
          22.917778
        ]
      },
      "type": "Feature",
      "properties": {
        "hierarchy": [
          "tgn:7482777",
          "tgn:1000004",
          "tgn:7490934",
          "tgn:1000141",
          "tgn:7029392"
        ],
        "placetype": [
          "aat:300007836"
        ],
        "id": 7482777,
        "name:xx": "Rong Qiao"
      }
    },
    {
      "geometry": {
        "type": "Point",
        "coordinates": [
          120.246944,
          22.993333
        ]
      },
      "type": "Feature",
      "properties": {
        "hierarchy": [
          "tgn:7482778",
          "tgn:1000004",
          "tgn:7490934",
          "tgn:1000141",
          "tgn:7029392"
        ],
        "placetype": [
          "aat:300008347"
        ],
        "id": 7482778,
        "name:xx": "Jianguocun"
      }
    },
    {
      "geometry": {
        "type": "Point",
        "coordinates": [
          120.161389,
          22.964722
        ]
      },
      "type": "Feature",
      "properties": {
        "hierarchy": [
          "tgn:7482779",
          "tgn:1000004",
          "tgn:7490934",
          "tgn:1000141",
          "tgn:7029392"
        ],
        "placetype": [
          "aat:300006137"
        ],
        "id": 7482779,
        "name:xx": "Anping Gang Fangboti"
      }
    }
  ]
}
