{
  "type": "FeatureCollection",
  "features": [
    {
      "geometry": {
        "type": "Point",
        "coordinates": [
          79.396527,
          27.839623
        ]
      },
      "type": "Feature",
      "properties": {
        "hierarchy": [
          "tgn:7562590",
          "tgn:1000004",
          "tgn:7000198",
          "tgn:7016722",
          "tgn:7029392"
        ],
        "placetype": [
          "aat:300008347"
        ],
        "name:en": "Anandpur",
        "id": 7562590
      }
    },
    {
      "geometry": {
        "type": "Point",
        "coordinates": [
          79.403663,
          27.835375
        ]
      },
      "type": "Feature",
      "properties": {
        "hierarchy": [
          "tgn:7562591",
          "tgn:1000004",
          "tgn:7000198",
          "tgn:7016722",
          "tgn:7029392"
        ],
        "placetype": [
          "aat:300008347"
        ],
        "name:en": "Nagaria Rāsa",
        "id": 7562591
      }
    },
    {
      "geometry": {
        "type": "Point",
        "coordinates": [
          79.397359,
          27.835341
        ]
      },
      "type": "Feature",
      "properties": {
        "hierarchy": [
          "tgn:7562592",
          "tgn:1000004",
          "tgn:7000198",
          "tgn:7016722",
          "tgn:7029392"
        ],
        "placetype": [
          "aat:300008347"
        ],
        "name:en": "Phūlchhāi",
        "id": 7562592
      }
    },
    {
      "geometry": {
        "type": "Point",
        "coordinates": [
          79.388497,
          27.835157
        ]
      },
      "type": "Feature",
      "properties": {
        "hierarchy": [
          "tgn:7562593",
          "tgn:1000004",
          "tgn:7000198",
          "tgn:7016722",
          "tgn:7029392"
        ],
        "placetype": [
          "aat:300008057"
        ],
        "name:en": "Murli Nagla",
        "id": 7562593
      }
    },
    {
      "geometry": {
        "type": "Point",
        "coordinates": [
          79.385641,
          27.840591
        ]
      },
      "type": "Feature",
      "properties": {
        "hierarchy": [
          "tgn:7562594",
          "tgn:1000004",
          "tgn:7000198",
          "tgn:7016722",
          "tgn:7029392"
        ],
        "placetype": [
          "aat:300008347"
        ],
        "name:en": "Karauri",
        "id": 7562594
      }
    },
    {
      "geometry": {
        "type": "Point",
        "coordinates": [
          79.386383,
          27.843471
        ]
      },
      "type": "Feature",
      "properties": {
        "hierarchy": [
          "tgn:7562595",
          "tgn:1000004",
          "tgn:7000198",
          "tgn:7016722",
          "tgn:7029392"
        ],
        "placetype": [
          "aat:300008347"
        ],
        "name:en": "Saidpur",
        "id": 7562595
      }
    },
    {
      "geometry": {
        "type": "Point",
        "coordinates": [
          79.37076,
          27.842044
        ]
      },
      "type": "Feature",
      "properties": {
        "hierarchy": [
          "tgn:7562596",
          "tgn:1000004",
          "tgn:7000198",
          "tgn:7016722",
          "tgn:7029392"
        ],
        "placetype": [
          "aat:300008347"
        ],
        "name:en": "Nagaria Abi",
        "id": 7562596
      }
    },
    {
      "geometry": {
        "type": "Point",
        "coordinates": [
          79.365547,
          27.846275
        ]
      },
      "type": "Feature",
      "properties": {
        "hierarchy": [
          "tgn:7562597",
          "tgn:1000004",
          "tgn:7000198",
          "tgn:7016722",
          "tgn:7029392"
        ],
        "placetype": [
          "aat:300008347"
        ],
        "name:en": "Gūra Barela",
        "id": 7562597
      }
    },
    {
      "geometry": {
        "type": "Point",
        "coordinates": [
          79.35531,
          27.859944
        ]
      },
      "type": "Feature",
      "properties": {
        "hierarchy": [
          "tgn:7562598",
          "tgn:1000004",
          "tgn:7000198",
          "tgn:7016722",
          "tgn:7029392"
        ],
        "placetype": [
          "aat:300008347"
        ],
        "name:en": "Nabīganj",
        "id": 7562598
      }
    },
    {
      "geometry": {
        "type": "Point",
        "coordinates": [
          79.352607,
          27.865131
        ]
      },
      "type": "Feature",
      "properties": {
        "hierarchy": [
          "tgn:7562599",
          "tgn:1000004",
          "tgn:7000198",
          "tgn:7016722",
          "tgn:7029392"
        ],
        "placetype": [
          "aat:300008347"
        ],
        "name:en": "Seha",
        "id": 7562599
      }
    }
  ]
}
