{
  "type": "FeatureCollection",
  "features": [
    {
      "geometry": {
        "type": "Point",
        "coordinates": [
          74.446843,
          33.217404
        ]
      },
      "type": "Feature",
      "properties": {
        "hierarchy": [
          "tgn:7589600",
          "tgn:1000004",
          "tgn:7000198",
          "tgn:7000799",
          "tgn:7029392"
        ],
        "placetype": [
          "aat:300008347"
        ],
        "name:en": "Batiār",
        "id": 7589600
      }
    },
    {
      "geometry": {
        "type": "Point",
        "coordinates": [
          74.421824,
          33.229099
        ]
      },
      "type": "Feature",
      "properties": {
        "hierarchy": [
          "tgn:7589601",
          "tgn:1000004",
          "tgn:7000198",
          "tgn:7000799",
          "tgn:7029392"
        ],
        "placetype": [
          "aat:300008347"
        ],
        "name:en": "Kālanoī",
        "id": 7589601
      }
    },
    {
      "geometry": {
        "type": "Point",
        "coordinates": [
          74.442055,
          33.228058
        ]
      },
      "type": "Feature",
      "properties": {
        "hierarchy": [
          "tgn:7589602",
          "tgn:1000004",
          "tgn:7000198",
          "tgn:7000799",
          "tgn:7029392"
        ],
        "placetype": [
          "aat:300008347"
        ],
        "name:en": "Dāli",
        "id": 7589602
      }
    },
    {
      "geometry": {
        "type": "Point",
        "coordinates": [
          74.454539,
          33.231858
        ]
      },
      "type": "Feature",
      "properties": {
        "hierarchy": [
          "tgn:7589603",
          "tgn:1000004",
          "tgn:7000198",
          "tgn:7000799",
          "tgn:7029392"
        ],
        "placetype": [
          "aat:300008347"
        ],
        "name:en": "Bhar Gāla",
        "id": 7589603
      }
    },
    {
      "geometry": {
        "type": "Point",
        "coordinates": [
          74.475,
          33.225
        ]
      },
      "type": "Feature",
      "properties": {
        "hierarchy": [
          "tgn:7589604",
          "tgn:1000004",
          "tgn:7000198",
          "tgn:7000799",
          "tgn:7029392"
        ],
        "placetype": [
          "aat:300008347"
        ],
        "name:en": "Baherarī",
        "id": 7589604
      }
    },
    {
      "geometry": {
        "type": "Point",
        "coordinates": [
          74.488889,
          33.222222
        ]
      },
      "type": "Feature",
      "properties": {
        "hierarchy": [
          "tgn:7589605",
          "tgn:1000004",
          "tgn:7000198",
          "tgn:7000799",
          "tgn:7029392"
        ],
        "placetype": [
          "aat:300008347"
        ],
        "name:en": "Dabiot",
        "id": 7589605
      }
    },
    {
      "geometry": {
        "type": "Point",
        "coordinates": [
          74.4897,
          33.231009
        ]
      },
      "type": "Feature",
      "properties": {
        "hierarchy": [
          "tgn:7589606",
          "tgn:1000004",
          "tgn:7000198",
          "tgn:7000799",
          "tgn:7029392"
        ],
        "placetype": [
          "aat:300008347"
        ],
        "name:en": "Kalāha",
        "id": 7589606
      }
    },
    {
      "geometry": {
        "type": "Point",
        "coordinates": [
          74.472222,
          33.238889
        ]
      },
      "type": "Feature",
      "properties": {
        "hierarchy": [
          "tgn:7589607",
          "tgn:1000004",
          "tgn:7000198",
          "tgn:7000799",
          "tgn:7029392"
        ],
        "placetype": [
          "aat:300008863"
        ],
        "name:en": "Malatra Forest",
        "id": 7589607
      }
    },
    {
      "geometry": {
        "type": "Point",
        "coordinates": [
          74.486176,
          33.239936
        ]
      },
      "type": "Feature",
      "properties": {
        "hierarchy": [
          "tgn:7589608",
          "tgn:1000004",
          "tgn:7000198",
          "tgn:7000799",
          "tgn:7029392"
        ],
        "placetype": [
          "aat:300008347"
        ],
        "name:en": "Lanjhā",
        "id": 7589608
      }
    },
    {
      "geometry": {
        "type": "Point",
        "coordinates": [
          74.494444,
          33.241667
        ]
      },
      "type": "Feature",
      "properties": {
        "hierarchy": [
          "tgn:7589609",
          "tgn:1000004",
          "tgn:7000198",
          "tgn:7000799",
          "tgn:7029392"
        ],
        "placetype": [
          "aat:300008863"
        ],
        "name:en": "Khersu Forest",
        "id": 7589609
      }
    }
  ]
}
