{
  "type": "FeatureCollection",
  "features": [
    {
      "geometry": {
        "type": "Point",
        "coordinates": [
          31.260972,
          30.031829
        ]
      },
      "type": "Feature",
      "properties": {
        "hierarchy": [
          "tgn:7527150",
          "tgn:7001242",
          "tgn:7016833",
          "tgn:1001091",
          "tgn:7029392"
        ],
        "placetype": [
          "aat:300004792"
        ],
        "id": 7527150,
        "name:xx": "Dār al Maḩfūz̧āt"
      }
    },
    {
      "geometry": {
        "type": "Point",
        "coordinates": [
          31.261757,
          30.028924
        ]
      },
      "type": "Feature",
      "properties": {
        "hierarchy": [
          "tgn:7527151",
          "tgn:7001242",
          "tgn:7016833",
          "tgn:1001091",
          "tgn:7029392"
        ],
        "placetype": [
          "aat:300004847"
        ],
        "id": 7527151,
        "name:xx": "Burj al Muqaţţam"
      }
    },
    {
      "geometry": {
        "type": "Point",
        "coordinates": [
          30.582229,
          24.587223
        ]
      },
      "type": "Feature",
      "properties": {
        "hierarchy": [
          "tgn:7527152",
          "tgn:7001242",
          "tgn:7016833",
          "tgn:7001334",
          "tgn:7029392"
        ],
        "placetype": [
          "aat:300008697"
        ],
        "name:en": "Zabībah, 'Ayn",
        "id": 7527152
      }
    },
    {
      "geometry": {
        "type": "Point",
        "coordinates": [
          31.881995,
          31.471277
        ]
      },
      "type": "Feature",
      "properties": {
        "hierarchy": [
          "tgn:7527153",
          "tgn:7001242",
          "tgn:1001059",
          "tgn:7016833",
          "tgn:7029392"
        ],
        "placetype": [
          "aat:300008680"
        ],
        "name:en": "Zabīb, Nuqrat az",
        "id": 7527153
      }
    },
    {
      "geometry": {
        "type": "Point",
        "coordinates": [
          33.033333,
          27.283333
        ]
      },
      "type": "Feature",
      "properties": {
        "hierarchy": [
          "tgn:7527154",
          "tgn:7001242",
          "tgn:7001311",
          "tgn:7016833",
          "tgn:7029392"
        ],
        "placetype": [
          "aat:300008795"
        ],
        "name:en": "Uglub, Gebel el",
        "id": 7527154
      }
    },
    {
      "geometry": {
        "type": "Point",
        "coordinates": [
          33.380125,
          30.091761
        ]
      },
      "type": "Feature",
      "properties": {
        "hierarchy": [
          "tgn:7527155",
          "tgn:7001242",
          "tgn:7016833",
          "tgn:7001335",
          "tgn:7029392"
        ],
        "placetype": [
          "aat:300379998"
        ],
        "id": 7527155,
        "name:xx": "Aghaydirā, Wādī al"
      }
    },
    {
      "geometry": {
        "type": "Point",
        "coordinates": [
          32.984444,
          31.011667
        ]
      },
      "type": "Feature",
      "properties": {
        "hierarchy": [
          "tgn:7527156",
          "tgn:7001242",
          "tgn:7016833",
          "tgn:7001335",
          "tgn:7029392"
        ],
        "placetype": [
          "aat:300006207"
        ],
        "name:en": "Bîr el-'Afein",
        "id": 7527156
      }
    },
    {
      "geometry": {
        "type": "Point",
        "coordinates": [
          32.483333,
          25.583333
        ]
      },
      "type": "Feature",
      "properties": {
        "hierarchy": [
          "tgn:7527157",
          "tgn:7001242",
          "tgn:7016833",
          "tgn:7000123",
          "tgn:7029392"
        ],
        "placetype": [
          "aat:300343519"
        ],
        "name:en": "'Udaysāt, Ḩawḑ al",
        "id": 7527157
      }
    },
    {
      "geometry": {
        "type": "Point",
        "coordinates": [
          33.429722,
          28.950833
        ]
      },
      "type": "Feature",
      "properties": {
        "hierarchy": [
          "tgn:7527158",
          "tgn:7001242",
          "tgn:7016833",
          "tgn:7001336",
          "tgn:7029392"
        ],
        "placetype": [
          "aat:300008795"
        ],
        "id": 7527158,
        "name:xx": "'Udaydīyah, Jabal"
      }
    },
    {
      "geometry": {
        "type": "Point",
        "coordinates": [
          34.173917,
          29.014365
        ]
      },
      "type": "Feature",
      "properties": {
        "hierarchy": [
          "tgn:7527159",
          "tgn:7001242",
          "tgn:7016833",
          "tgn:7001336",
          "tgn:7029392"
        ],
        "placetype": [
          "aat:300379998"
        ],
        "name:en": "'Udayd, Wādī al",
        "id": 7527159
      }
    }
  ]
}
