{
  "type": "FeatureCollection",
  "features": [
    {
      "geometry": {
        "type": "Point",
        "coordinates": [
          79.333,
          9.25
        ]
      },
      "type": "Feature",
      "properties": {
        "hierarchy": [
          "tgn:1008480",
          "tgn:1000004",
          "tgn:7000198",
          "tgn:7001797",
          "tgn:7029392"
        ],
        "placetype": [
          "aat:300008791"
        ],
        "name:en": "Pāmban Island",
        "id": 1008480
      }
    },
    {
      "geometry": {
        "type": "Point",
        "coordinates": [
          27.6167,
          40.4667
        ]
      },
      "type": "Feature",
      "properties": {
        "hierarchy": [
          "tgn:1008482",
          "tgn:1001135",
          "tgn:1000004",
          "tgn:7018450",
          "tgn:1000144",
          "tgn:7029392"
        ],
        "placetype": [
          "aat:300008791"
        ],
        "id": 1008482,
        "name:xx": "Paşalimanı Adası"
      }
    },
    {
      "geometry": {
        "type": "Point",
        "coordinates": [
          15.3333,
          43.9667
        ]
      },
      "type": "Feature",
      "properties": {
        "hierarchy": [
          "tgn:1008483",
          "tgn:1000003",
          "tgn:7017304",
          "tgn:7006663",
          "tgn:7029392"
        ],
        "placetype": [
          "aat:300008791"
        ],
        "id": 1008483,
        "name:xx": "Pašman"
      }
    },
    {
      "geometry": {
        "type": "Point",
        "coordinates": [
          168.25,
          -16.4833
        ]
      },
      "type": "Feature",
      "properties": {
        "hierarchy": [
          "tgn:1008484",
          "tgn:7024016",
          "tgn:1000225",
          "tgn:1000006",
          "tgn:7029392"
        ],
        "placetype": [
          "aat:300008791"
        ],
        "id": 1008484,
        "name:xx": "Paama"
      }
    },
    {
      "geometry": {
        "type": "Point",
        "coordinates": [
          -7.583333,
          56.85
        ]
      },
      "type": "Feature",
      "properties": {
        "hierarchy": [
          "tgn:1008485",
          "tgn:7002444",
          "tgn:1000003",
          "tgn:7008094",
          "tgn:7008591",
          "tgn:7029392"
        ],
        "placetype": [
          "aat:300008791"
        ],
        "name:en": "Pabbay",
        "id": 1008485
      }
    },
    {
      "geometry": {
        "type": "Point",
        "coordinates": [
          124.3333,
          10.6333
        ]
      },
      "type": "Feature",
      "properties": {
        "hierarchy": [
          "tgn:1008486",
          "tgn:1009912",
          "tgn:1000004",
          "tgn:1001185",
          "tgn:1000135",
          "tgn:7029392"
        ],
        "placetype": [
          "aat:300008791"
        ],
        "id": 1008486,
        "name:xx": "Pacijan Island"
      }
    }
  ]
}
