{
  "type": "FeatureCollection",
  "features": [
    {
      "geometry": {
        "type": "Point",
        "coordinates": [
          74.913408,
          32.492924
        ]
      },
      "type": "Feature",
      "properties": {
        "hierarchy": [
          "tgn:7564970",
          "tgn:1000004",
          "tgn:7000198",
          "tgn:7000799",
          "tgn:7029392"
        ],
        "placetype": [
          "aat:300008347"
        ],
        "name:en": "Sri Partābsinghpura",
        "id": 7564970
      }
    },
    {
      "geometry": {
        "type": "Point",
        "coordinates": [
          74.914497,
          32.482403
        ]
      },
      "type": "Feature",
      "properties": {
        "hierarchy": [
          "tgn:7564971",
          "tgn:1000004",
          "tgn:7000198",
          "tgn:7000799",
          "tgn:7029392"
        ],
        "placetype": [
          "aat:300008347"
        ],
        "name:en": "Bamun Chak",
        "id": 7564971
      }
    },
    {
      "geometry": {
        "type": "Point",
        "coordinates": [
          74.914793,
          32.4716
        ]
      },
      "type": "Feature",
      "properties": {
        "hierarchy": [
          "tgn:7564972",
          "tgn:1000004",
          "tgn:7000198",
          "tgn:7000799",
          "tgn:7029392"
        ],
        "placetype": [
          "aat:300008347"
        ],
        "name:en": "Chak Jasu",
        "id": 7564972
      }
    },
    {
      "geometry": {
        "type": "Point",
        "coordinates": [
          74.918628,
          32.471957
        ]
      },
      "type": "Feature",
      "properties": {
        "hierarchy": [
          "tgn:7564973",
          "tgn:1000004",
          "tgn:7000198",
          "tgn:7000799",
          "tgn:7029392"
        ],
        "placetype": [
          "aat:300008347"
        ],
        "name:en": "Samdu Manhāspur",
        "id": 7564973
      }
    },
    {
      "geometry": {
        "type": "Point",
        "coordinates": [
          74.926994,
          32.478023
        ]
      },
      "type": "Feature",
      "properties": {
        "hierarchy": [
          "tgn:7564974",
          "tgn:1000004",
          "tgn:7000198",
          "tgn:7000799",
          "tgn:7029392"
        ],
        "placetype": [
          "aat:300008347"
        ],
        "name:en": "Jugwāl",
        "id": 7564974
      }
    },
    {
      "geometry": {
        "type": "Point",
        "coordinates": [
          74.933474,
          32.476278
        ]
      },
      "type": "Feature",
      "properties": {
        "hierarchy": [
          "tgn:7564975",
          "tgn:1000004",
          "tgn:7000198",
          "tgn:7000799",
          "tgn:7029392"
        ],
        "placetype": [
          "aat:300008347"
        ],
        "name:en": "Kandrāl",
        "id": 7564975
      }
    },
    {
      "geometry": {
        "type": "Point",
        "coordinates": [
          74.942055,
          32.483377
        ]
      },
      "type": "Feature",
      "properties": {
        "hierarchy": [
          "tgn:7564976",
          "tgn:1000004",
          "tgn:7000198",
          "tgn:7000799",
          "tgn:7029392"
        ],
        "placetype": [
          "aat:300008347"
        ],
        "name:en": "Bukhan Kani",
        "id": 7564976
      }
    },
    {
      "geometry": {
        "type": "Point",
        "coordinates": [
          74.937533,
          32.487087
        ]
      },
      "type": "Feature",
      "properties": {
        "hierarchy": [
          "tgn:7564977",
          "tgn:1000004",
          "tgn:7000198",
          "tgn:7000799",
          "tgn:7029392"
        ],
        "placetype": [
          "aat:300008347"
        ],
        "name:en": "Chak Alia",
        "id": 7564977
      }
    },
    {
      "geometry": {
        "type": "Point",
        "coordinates": [
          74.938085,
          32.497107
        ]
      },
      "type": "Feature",
      "properties": {
        "hierarchy": [
          "tgn:7564978",
          "tgn:1000004",
          "tgn:7000198",
          "tgn:7000799",
          "tgn:7029392"
        ],
        "placetype": [
          "aat:300008347"
        ],
        "name:en": "Shekhūpur",
        "id": 7564978
      }
    },
    {
      "geometry": {
        "type": "Point",
        "coordinates": [
          74.9474,
          32.491518
        ]
      },
      "type": "Feature",
      "properties": {
        "hierarchy": [
          "tgn:7564979",
          "tgn:1000004",
          "tgn:7000198",
          "tgn:7000799",
          "tgn:7029392"
        ],
        "placetype": [
          "aat:300008347"
        ],
        "name:en": "Dhupiri",
        "id": 7564979
      }
    }
  ]
}
