{
  "type": "FeatureCollection",
  "features": [
    {
      "geometry": {
        "type": "Point",
        "coordinates": [
          79.034931,
          26.74867
        ]
      },
      "type": "Feature",
      "properties": {
        "hierarchy": [
          "tgn:7562190",
          "tgn:1000004",
          "tgn:7000198",
          "tgn:7016722",
          "tgn:7029392"
        ],
        "placetype": [
          "aat:300008347"
        ],
        "name:en": "Mānikpur Bisu",
        "id": 7562190
      }
    },
    {
      "geometry": {
        "type": "Point",
        "coordinates": [
          79.121897,
          26.781648
        ]
      },
      "type": "Feature",
      "properties": {
        "hierarchy": [
          "tgn:7562191",
          "tgn:1000004",
          "tgn:7000198",
          "tgn:7016722",
          "tgn:7029392"
        ],
        "placetype": [
          "aat:300008347"
        ],
        "name:en": "Nagla Gurha",
        "id": 7562191
      }
    },
    {
      "geometry": {
        "type": "Point",
        "coordinates": [
          79.164284,
          26.79309
        ]
      },
      "type": "Feature",
      "properties": {
        "hierarchy": [
          "tgn:7562192",
          "tgn:1000004",
          "tgn:7000198",
          "tgn:7016722",
          "tgn:7029392"
        ],
        "placetype": [
          "aat:300008347"
        ],
        "name:en": "Dīnpura",
        "id": 7562192
      }
    },
    {
      "geometry": {
        "type": "Point",
        "coordinates": [
          79.200979,
          26.84059
        ]
      },
      "type": "Feature",
      "properties": {
        "hierarchy": [
          "tgn:7562193",
          "tgn:1000004",
          "tgn:7000198",
          "tgn:7016722",
          "tgn:7029392"
        ],
        "placetype": [
          "aat:300008699"
        ],
        "name:en": "Khāki Nāla",
        "id": 7562193
      }
    },
    {
      "geometry": {
        "type": "Point",
        "coordinates": [
          79.11741,
          26.796174
        ]
      },
      "type": "Feature",
      "properties": {
        "hierarchy": [
          "tgn:7562194",
          "tgn:1000004",
          "tgn:7000198",
          "tgn:7016722",
          "tgn:7029392"
        ],
        "placetype": [
          "aat:300008699"
        ],
        "name:en": "Khāki Nāla",
        "id": 7562194
      }
    },
    {
      "geometry": {
        "type": "Point",
        "coordinates": [
          79.14302,
          26.835884
        ]
      },
      "type": "Feature",
      "properties": {
        "hierarchy": [
          "tgn:7562195",
          "tgn:1000004",
          "tgn:7000198",
          "tgn:7016722",
          "tgn:7029392"
        ],
        "placetype": [
          "aat:300008347"
        ],
        "name:en": "Kharagpura",
        "id": 7562195
      }
    },
    {
      "geometry": {
        "type": "Point",
        "coordinates": [
          79.188509,
          26.790322
        ]
      },
      "type": "Feature",
      "properties": {
        "hierarchy": [
          "tgn:7562196",
          "tgn:1000004",
          "tgn:7000198",
          "tgn:7016722",
          "tgn:7029392"
        ],
        "placetype": [
          "aat:300008347"
        ],
        "name:en": "Nagla Mahājīr",
        "id": 7562196
      }
    },
    {
      "geometry": {
        "type": "Point",
        "coordinates": [
          79.206871,
          26.791174
        ]
      },
      "type": "Feature",
      "properties": {
        "hierarchy": [
          "tgn:7562197",
          "tgn:1000004",
          "tgn:7000198",
          "tgn:7016722",
          "tgn:7029392"
        ],
        "placetype": [
          "aat:300008347"
        ],
        "name:en": "Nagla Rāmlāl",
        "id": 7562197
      }
    },
    {
      "geometry": {
        "type": "Point",
        "coordinates": [
          79.193082,
          26.795405
        ]
      },
      "type": "Feature",
      "properties": {
        "hierarchy": [
          "tgn:7562198",
          "tgn:1000004",
          "tgn:7000198",
          "tgn:7016722",
          "tgn:7029392"
        ],
        "placetype": [
          "aat:300008347"
        ],
        "name:en": "Tara",
        "id": 7562198
      }
    },
    {
      "geometry": {
        "type": "Point",
        "coordinates": [
          79.201315,
          26.798457
        ]
      },
      "type": "Feature",
      "properties": {
        "hierarchy": [
          "tgn:7562199",
          "tgn:1000004",
          "tgn:7000198",
          "tgn:7016722",
          "tgn:7029392"
        ],
        "placetype": [
          "aat:300008347"
        ],
        "name:en": "Chandethi",
        "id": 7562199
      }
    }
  ]
}
