{
  "type": "FeatureCollection",
  "features": [
    {
      "geometry": {
        "type": "Point",
        "coordinates": [
          92.610497,
          24.86217
        ]
      },
      "type": "Feature",
      "properties": {
        "hierarchy": [
          "tgn:7549170",
          "tgn:1000004",
          "tgn:1001832",
          "tgn:7000198",
          "tgn:7029392"
        ],
        "placetype": [
          "aat:300008699"
        ],
        "name:en": "Dhaleswari River",
        "id": 7549170
      }
    },
    {
      "geometry": {
        "type": "Point",
        "coordinates": [
          74.546539,
          33.261192
        ]
      },
      "type": "Feature",
      "properties": {
        "hierarchy": [
          "tgn:7549171",
          "tgn:1000004",
          "tgn:7000198",
          "tgn:7000799",
          "tgn:7029392"
        ],
        "placetype": [
          "aat:300008347"
        ],
        "name:en": "Dhaleri",
        "id": 7549171
      }
    },
    {
      "geometry": {
        "type": "Point",
        "coordinates": [
          94.116667,
          26.683333
        ]
      },
      "type": "Feature",
      "properties": {
        "hierarchy": [
          "tgn:7549172",
          "tgn:1000004",
          "tgn:1001832",
          "tgn:7000198",
          "tgn:7029392"
        ],
        "placetype": [
          "aat:300008699"
        ],
        "name:en": "Dhala J훮n",
        "id": 7549172
      }
    },
    {
      "geometry": {
        "type": "Point",
        "coordinates": [
          92.847845,
          24.601167
        ]
      },
      "type": "Feature",
      "properties": {
        "hierarchy": [
          "tgn:7549173",
          "tgn:1000004",
          "tgn:1001832",
          "tgn:7000198",
          "tgn:7029392"
        ],
        "placetype": [
          "aat:300008347"
        ],
        "name:en": "Dhalai",
        "id": 7549173
      }
    },
    {
      "geometry": {
        "type": "Point",
        "coordinates": [
          94.457124,
          27.201143
        ]
      },
      "type": "Feature",
      "properties": {
        "hierarchy": [
          "tgn:7549175",
          "tgn:1000004",
          "tgn:1001832",
          "tgn:7000198",
          "tgn:7029392"
        ],
        "placetype": [
          "aat:300008347"
        ],
        "name:en": "Dhaku훮khan훮",
        "id": 7549175
      }
    },
    {
      "geometry": {
        "type": "Point",
        "coordinates": [
          80.607349,
          27.135005
        ]
      },
      "type": "Feature",
      "properties": {
        "hierarchy": [
          "tgn:7549176",
          "tgn:1000004",
          "tgn:7000198",
          "tgn:7016722",
          "tgn:7029392"
        ],
        "placetype": [
          "aat:300008347"
        ],
        "name:en": "Dhakauni",
        "id": 7549176
      }
    },
    {
      "geometry": {
        "type": "Point",
        "coordinates": [
          73.866667,
          21.25
        ]
      },
      "type": "Feature",
      "properties": {
        "hierarchy": [
          "tgn:7549179",
          "tgn:1000004",
          "tgn:1001869",
          "tgn:7000198",
          "tgn:7029392"
        ],
        "placetype": [
          "aat:300008347"
        ],
        "name:en": "Dh훮ita",
        "id": 7549179
      }
    }
  ]
}
