{
  "type": "FeatureCollection",
  "features": [
    {
      "geometry": {
        "type": "Point",
        "coordinates": [
          121.818214,
          24.65452
        ]
      },
      "type": "Feature",
      "properties": {
        "hierarchy": [
          "tgn:7478830",
          "tgn:1000004",
          "tgn:7489179",
          "tgn:1000141",
          "tgn:7029392"
        ],
        "placetype": [
          "aat:300008347"
        ],
        "id": 7478830,
        "name:xx": "Wushi'erjia"
      }
    },
    {
      "geometry": {
        "type": "Point",
        "coordinates": [
          121.80793,
          24.662337
        ]
      },
      "type": "Feature",
      "properties": {
        "hierarchy": [
          "tgn:7478831",
          "tgn:1000004",
          "tgn:7489179",
          "tgn:1000141",
          "tgn:7029392"
        ],
        "placetype": [
          "aat:300008347"
        ],
        "id": 7478831,
        "name:xx": "Erdu"
      }
    },
    {
      "geometry": {
        "type": "Point",
        "coordinates": [
          121.8008,
          24.6584
        ]
      },
      "type": "Feature",
      "properties": {
        "hierarchy": [
          "tgn:7478832",
          "tgn:1000004",
          "tgn:7489179",
          "tgn:1000141",
          "tgn:7029392"
        ],
        "placetype": [
          "aat:300007836"
        ],
        "id": 7478832,
        "name:xx": "Jiadong Qiao"
      }
    },
    {
      "geometry": {
        "type": "Point",
        "coordinates": [
          121.819085,
          24.62753
        ]
      },
      "type": "Feature",
      "properties": {
        "hierarchy": [
          "tgn:7478833",
          "tgn:1000004",
          "tgn:7489179",
          "tgn:1000141",
          "tgn:7029392"
        ],
        "placetype": [
          "aat:300387302"
        ],
        "id": 7478833,
        "name:xx": "Longde Gongyequ"
      }
    },
    {
      "geometry": {
        "type": "Point",
        "coordinates": [
          121.777828,
          24.673461
        ]
      },
      "type": "Feature",
      "properties": {
        "hierarchy": [
          "tgn:7478834",
          "tgn:1000004",
          "tgn:7489179",
          "tgn:1000141",
          "tgn:7029392"
        ],
        "placetype": [
          "aat:300008347"
        ],
        "id": 7478834,
        "name:xx": "Luozhuang"
      }
    },
    {
      "geometry": {
        "type": "Point",
        "coordinates": [
          121.797633,
          24.627805
        ]
      },
      "type": "Feature",
      "properties": {
        "hierarchy": [
          "tgn:7478835",
          "tgn:1000004",
          "tgn:7489179",
          "tgn:1000141",
          "tgn:7029392"
        ],
        "placetype": [
          "aat:300008347"
        ],
        "id": 7478835,
        "name:xx": "Yamupi"
      }
    },
    {
      "geometry": {
        "type": "Point",
        "coordinates": [
          121.7776,
          24.6283
        ]
      },
      "type": "Feature",
      "properties": {
        "hierarchy": [
          "tgn:7478836",
          "tgn:1000004",
          "tgn:7489179",
          "tgn:1000141",
          "tgn:7029392"
        ],
        "placetype": [
          "aat:300008777"
        ],
        "id": 7478836,
        "name:xx": "Daping Ding"
      }
    },
    {
      "geometry": {
        "type": "Point",
        "coordinates": [
          121.773957,
          24.632788
        ]
      },
      "type": "Feature",
      "properties": {
        "hierarchy": [
          "tgn:7478837",
          "tgn:1000004",
          "tgn:7489179",
          "tgn:1000141",
          "tgn:7029392"
        ],
        "placetype": [
          "aat:300008347"
        ],
        "id": 7478837,
        "name:xx": "Taihe"
      }
    },
    {
      "geometry": {
        "type": "Point",
        "coordinates": [
          121.7621,
          24.6349
        ]
      },
      "type": "Feature",
      "properties": {
        "hierarchy": [
          "tgn:7478838",
          "tgn:1000004",
          "tgn:7489179",
          "tgn:1000141",
          "tgn:7029392"
        ],
        "placetype": [
          "aat:300008347"
        ],
        "id": 7478838,
        "name:xx": "Linggongyuan"
      }
    },
    {
      "geometry": {
        "type": "Point",
        "coordinates": [
          121.7802,
          24.6538
        ]
      },
      "type": "Feature",
      "properties": {
        "hierarchy": [
          "tgn:7478839",
          "tgn:1000004",
          "tgn:7489179",
          "tgn:1000141",
          "tgn:7029392"
        ],
        "placetype": [
          "aat:300008347"
        ],
        "id": 7478839,
        "name:xx": "Shagang"
      }
    }
  ]
}
