{
  "type": "FeatureCollection",
  "features": [
    {
      "geometry": {
        "type": "Point",
        "coordinates": [
          78.983333,
          13.083333
        ]
      },
      "type": "Feature",
      "properties": {
        "hierarchy": [
          "tgn:7557310",
          "tgn:1001828",
          "tgn:1000004",
          "tgn:7000198",
          "tgn:7029392"
        ],
        "placetype": [
          "aat:300008347"
        ],
        "name:en": "Paradarāmi",
        "id": 7557310
      }
    },
    {
      "geometry": {
        "type": "Point",
        "coordinates": [
          75.187889,
          25.878
        ]
      },
      "type": "Feature",
      "properties": {
        "hierarchy": [
          "tgn:7557311",
          "tgn:1000004",
          "tgn:7000198",
          "tgn:7016788",
          "tgn:7029392"
        ],
        "placetype": [
          "aat:300008347"
        ],
        "name:en": "Pāra",
        "id": 7557311
      }
    },
    {
      "geometry": {
        "type": "Point",
        "coordinates": [
          83.638951,
          25.65938
        ]
      },
      "type": "Feature",
      "properties": {
        "hierarchy": [
          "tgn:7557312",
          "tgn:1000004",
          "tgn:7000198",
          "tgn:7016722",
          "tgn:7029392"
        ],
        "placetype": [
          "aat:300008347"
        ],
        "name:en": "Pāra",
        "id": 7557312
      }
    },
    {
      "geometry": {
        "type": "Point",
        "coordinates": [
          79.761921,
          24.904594
        ]
      },
      "type": "Feature",
      "properties": {
        "hierarchy": [
          "tgn:7557313",
          "tgn:1000004",
          "tgn:7000198",
          "tgn:1001894",
          "tgn:7029392"
        ],
        "placetype": [
          "aat:300008347"
        ],
        "name:en": "Para",
        "id": 7557313
      }
    },
    {
      "geometry": {
        "type": "Point",
        "coordinates": [
          86.506381,
          23.510552
        ]
      },
      "type": "Feature",
      "properties": {
        "hierarchy": [
          "tgn:7557314",
          "tgn:1000004",
          "tgn:7000198",
          "tgn:1001977",
          "tgn:7029392"
        ],
        "placetype": [
          "aat:300008347"
        ],
        "name:en": "Pāra",
        "id": 7557314
      }
    },
    {
      "geometry": {
        "type": "Point",
        "coordinates": [
          74.658553,
          22.642933
        ]
      },
      "type": "Feature",
      "properties": {
        "hierarchy": [
          "tgn:7557315",
          "tgn:1000004",
          "tgn:7000198",
          "tgn:1001894",
          "tgn:7029392"
        ],
        "placetype": [
          "aat:300008347"
        ],
        "name:en": "Pāra",
        "id": 7557315
      }
    },
    {
      "geometry": {
        "type": "Point",
        "coordinates": [
          75.821182,
          18.635112
        ]
      },
      "type": "Feature",
      "properties": {
        "hierarchy": [
          "tgn:7557316",
          "tgn:1000004",
          "tgn:7000198",
          "tgn:1001895",
          "tgn:7029392"
        ],
        "placetype": [
          "aat:300008347"
        ],
        "name:en": "Pāra",
        "id": 7557316
      }
    },
    {
      "geometry": {
        "type": "Point",
        "coordinates": [
          75.266667,
          17.216667
        ]
      },
      "type": "Feature",
      "properties": {
        "hierarchy": [
          "tgn:7557317",
          "tgn:1000004",
          "tgn:7000198",
          "tgn:1001895",
          "tgn:7029392"
        ],
        "placetype": [
          "aat:300008347"
        ],
        "name:en": "Pāra",
        "id": 7557317
      }
    },
    {
      "geometry": {
        "type": "Point",
        "coordinates": [
          93.951743,
          27.800088
        ]
      },
      "type": "Feature",
      "properties": {
        "hierarchy": [
          "tgn:7557318",
          "tgn:7001819",
          "tgn:1000004",
          "tgn:7000198",
          "tgn:7029392"
        ],
        "placetype": [
          "aat:300008347"
        ],
        "name:en": "Pār",
        "id": 7557318
      }
    },
    {
      "geometry": {
        "type": "Point",
        "coordinates": [
          80.403218,
          25.627969
        ]
      },
      "type": "Feature",
      "properties": {
        "hierarchy": [
          "tgn:7557319",
          "tgn:1000004",
          "tgn:7000198",
          "tgn:7016722",
          "tgn:7029392"
        ],
        "placetype": [
          "aat:300008347"
        ],
        "name:en": "Paprenda",
        "id": 7557319
      }
    }
  ]
}
