{
  "type": "FeatureCollection",
  "features": [
    {
      "geometry": {
        "type": "Point",
        "coordinates": [
          121.684094,
          25.083389
        ]
      },
      "type": "Feature",
      "properties": {
        "hierarchy": [
          "tgn:7498010",
          "tgn:1000957",
          "tgn:1000004",
          "tgn:1000141",
          "tgn:7029392"
        ],
        "placetype": [
          "aat:300007836"
        ],
        "id": 7498010,
        "name:xx": "Qianxiang Qiao"
      }
    },
    {
      "geometry": {
        "type": "Point",
        "coordinates": [
          121.69275,
          25.085386
        ]
      },
      "type": "Feature",
      "properties": {
        "hierarchy": [
          "tgn:7498011",
          "tgn:1000957",
          "tgn:1000004",
          "tgn:1000141",
          "tgn:7029392"
        ],
        "placetype": [
          "aat:300007836"
        ],
        "id": 7498011,
        "name:xx": "Baifu Qiao"
      }
    },
    {
      "geometry": {
        "type": "Point",
        "coordinates": [
          121.692925,
          25.079026
        ]
      },
      "type": "Feature",
      "properties": {
        "hierarchy": [
          "tgn:7498012",
          "tgn:1000957",
          "tgn:1000004",
          "tgn:1000141",
          "tgn:7029392"
        ],
        "placetype": [
          "aat:300007836"
        ],
        "id": 7498012,
        "name:xx": "Shijian Qiao"
      }
    },
    {
      "geometry": {
        "type": "Point",
        "coordinates": [
          121.697123,
          25.091054
        ]
      },
      "type": "Feature",
      "properties": {
        "hierarchy": [
          "tgn:7498013",
          "tgn:1000957",
          "tgn:1000004",
          "tgn:1000141",
          "tgn:7029392"
        ],
        "placetype": [
          "aat:300007836"
        ],
        "id": 7498013,
        "name:xx": "Wudu Qiao"
      }
    },
    {
      "geometry": {
        "type": "Point",
        "coordinates": [
          121.671574,
          25.08045
        ]
      },
      "type": "Feature",
      "properties": {
        "hierarchy": [
          "tgn:7498014",
          "tgn:1000957",
          "tgn:1000004",
          "tgn:1000141",
          "tgn:7029392"
        ],
        "placetype": [
          "aat:300008699"
        ],
        "id": 7498014,
        "name:xx": "Baochangkeng Xi"
      }
    },
    {
      "geometry": {
        "type": "Point",
        "coordinates": [
          121.707437,
          25.09087
        ]
      },
      "type": "Feature",
      "properties": {
        "hierarchy": [
          "tgn:7498015",
          "tgn:1000957",
          "tgn:1000004",
          "tgn:1000141",
          "tgn:7029392"
        ],
        "placetype": [
          "aat:300008699"
        ],
        "id": 7498015,
        "name:xx": "Baxihou Xi"
      }
    },
    {
      "geometry": {
        "type": "Point",
        "coordinates": [
          121.700894,
          25.081534
        ]
      },
      "type": "Feature",
      "properties": {
        "hierarchy": [
          "tgn:7498016",
          "tgn:1000957",
          "tgn:1000004",
          "tgn:1000141",
          "tgn:7029392"
        ],
        "placetype": [
          "aat:300007836"
        ],
        "id": 7498016,
        "name:xx": "Liudu Qiao"
      }
    },
    {
      "geometry": {
        "type": "Point",
        "coordinates": [
          121.697842,
          25.082812
        ]
      },
      "type": "Feature",
      "properties": {
        "hierarchy": [
          "tgn:7498017",
          "tgn:1000957",
          "tgn:1000004",
          "tgn:1000141",
          "tgn:7029392"
        ],
        "placetype": [
          "aat:300006495"
        ],
        "id": 7498017,
        "name:xx": "Baifu Guozhong"
      }
    },
    {
      "geometry": {
        "type": "Point",
        "coordinates": [
          121.707662,
          25.087608
        ]
      },
      "type": "Feature",
      "properties": {
        "hierarchy": [
          "tgn:7498018",
          "tgn:1000957",
          "tgn:1000004",
          "tgn:1000141",
          "tgn:7029392"
        ],
        "placetype": [
          "aat:300006495"
        ],
        "id": 7498018,
        "name:xx": "Huaxing Guoxiao"
      }
    },
    {
      "geometry": {
        "type": "Point",
        "coordinates": [
          121.703288,
          25.090448
        ]
      },
      "type": "Feature",
      "properties": {
        "hierarchy": [
          "tgn:7498019",
          "tgn:1000957",
          "tgn:1000004",
          "tgn:1000141",
          "tgn:7029392"
        ],
        "placetype": [
          "aat:300008777"
        ],
        "id": 7498019,
        "name:xx": "Liudu Shan"
      }
    }
  ]
}
