{
  "type": "FeatureCollection",
  "features": [
    {
      "geometry": {
        "type": "Point",
        "coordinates": [
          -64.6333,
          44.1333
        ]
      },
      "type": "Feature",
      "properties": {
        "hierarchy": [
          "tgn:1127031",
          "tgn:7005685",
          "tgn:1000001",
          "tgn:7005802",
          "tgn:7029392"
        ],
        "placetype": [
          "aat:300008707"
        ],
        "id": 1127031,
        "name:xx": "Medway"
      }
    },
    {
      "geometry": {
        "type": "Point",
        "coordinates": [
          0.733333,
          51.45
        ]
      },
      "type": "Feature",
      "properties": {
        "hierarchy": [
          "tgn:1127032",
          "tgn:7002445",
          "tgn:1000003",
          "tgn:7008591",
          "tgn:7029392"
        ],
        "placetype": [
          "aat:300008707",
          "aat:300008699"
        ],
        "name:en": "Medway",
        "id": 1127032
      }
    },
    {
      "geometry": {
        "type": "Point",
        "coordinates": [
          -2.65,
          52.6667
        ]
      },
      "type": "Feature",
      "properties": {
        "hierarchy": [
          "tgn:1127034",
          "tgn:7002445",
          "tgn:1000003",
          "tgn:7026533",
          "tgn:7008591",
          "tgn:7029392"
        ],
        "placetype": [
          "aat:300008707"
        ],
        "id": 1127034,
        "name:xx": "Meese"
      }
    },
    {
      "geometry": {
        "type": "Point",
        "coordinates": [
          40.5333,
          -13.4667
        ]
      },
      "type": "Feature",
      "properties": {
        "hierarchy": [
          "tgn:1127035",
          "tgn:1000821",
          "tgn:7001242",
          "tgn:1000180",
          "tgn:7029392"
        ],
        "placetype": [
          "aat:300008707"
        ],
        "id": 1127035,
        "name:xx": "Megaruma, Rio"
      }
    },
    {
      "geometry": {
        "type": "Point",
        "coordinates": [
          90.8333,
          22.8333
        ]
      },
      "type": "Feature",
      "properties": {
        "hierarchy": [
          "tgn:1127036",
          "tgn:1000004",
          "tgn:1000105",
          "tgn:7029392"
        ],
        "placetype": [
          "aat:300008707"
        ],
        "id": 1127036,
        "name:xx": "Meghna"
      }
    },
    {
      "geometry": {
        "type": "Point",
        "coordinates": [
          139.75,
          35.6167
        ]
      },
      "type": "Feature",
      "properties": {
        "hierarchy": [
          "tgn:1127037",
          "tgn:1000004",
          "tgn:7000894",
          "tgn:1001032",
          "tgn:1000120",
          "tgn:7029392"
        ],
        "placetype": [
          "aat:300008707"
        ],
        "id": 1127037,
        "name:xx": "Meguro"
      }
    }
  ]
}
