{
  "type": "FeatureCollection",
  "features": [
    {
      "geometry": {
        "type": "Point",
        "coordinates": [
          120.737837,
          24.146353
        ]
      },
      "type": "Feature",
      "properties": {
        "hierarchy": [
          "tgn:7497170",
          "tgn:1000004",
          "tgn:7001009",
          "tgn:1000141",
          "tgn:7029392"
        ],
        "placetype": [
          "aat:300006495"
        ],
        "id": 7497170,
        "name:xx": "Pinglin Guoxiao"
      }
    },
    {
      "geometry": {
        "type": "Point",
        "coordinates": [
          120.756192,
          24.156216
        ]
      },
      "type": "Feature",
      "properties": {
        "hierarchy": [
          "tgn:7497171",
          "tgn:1000004",
          "tgn:7001009",
          "tgn:1000141",
          "tgn:7029392"
        ],
        "placetype": [
          "aat:300006495"
        ],
        "id": 7497171,
        "name:xx": "Pingpou Guoxiao Fenxiao"
      }
    },
    {
      "geometry": {
        "type": "Point",
        "coordinates": [
          120.693558,
          24.158331
        ]
      },
      "type": "Feature",
      "properties": {
        "hierarchy": [
          "tgn:7497172",
          "tgn:1000004",
          "tgn:7001009",
          "tgn:1000141",
          "tgn:7029392"
        ],
        "placetype": [
          "aat:300006495"
        ],
        "id": 7497172,
        "name:xx": "Guanghua Gaogong"
      }
    },
    {
      "geometry": {
        "type": "Point",
        "coordinates": [
          120.6913,
          24.1568
        ]
      },
      "type": "Feature",
      "properties": {
        "hierarchy": [
          "tgn:7497173",
          "tgn:1000004",
          "tgn:7001009",
          "tgn:1000141",
          "tgn:7029392"
        ],
        "placetype": [
          "aat:300006495"
        ],
        "id": 7497173,
        "name:xx": "Yuren Guoxiao"
      }
    },
    {
      "geometry": {
        "type": "Point",
        "coordinates": [
          120.686846,
          24.150418
        ]
      },
      "type": "Feature",
      "properties": {
        "hierarchy": [
          "tgn:7497174",
          "tgn:1000004",
          "tgn:7001009",
          "tgn:1000141",
          "tgn:7029392"
        ],
        "placetype": [
          "aat:300006495"
        ],
        "id": 7497174,
        "name:xx": "Taizhong Yizhong"
      }
    },
    {
      "geometry": {
        "type": "Point",
        "coordinates": [
          120.6832,
          24.1506
        ]
      },
      "type": "Feature",
      "properties": {
        "hierarchy": [
          "tgn:7497175",
          "tgn:1000004",
          "tgn:7001009",
          "tgn:1000141",
          "tgn:7029392"
        ],
        "placetype": [
          "aat:300006610"
        ],
        "id": 7497175,
        "name:xx": "Taizhong Jishu Xueyuan"
      }
    },
    {
      "geometry": {
        "type": "Point",
        "coordinates": [
          120.679511,
          24.154956
        ]
      },
      "type": "Feature",
      "properties": {
        "hierarchy": [
          "tgn:7497176",
          "tgn:1000004",
          "tgn:7001009",
          "tgn:1000141",
          "tgn:7029392"
        ],
        "placetype": [
          "aat:300006495"
        ],
        "id": 7497176,
        "name:xx": "Wuquan Guozhong"
      }
    },
    {
      "geometry": {
        "type": "Point",
        "coordinates": [
          120.672522,
          24.154427
        ]
      },
      "type": "Feature",
      "properties": {
        "hierarchy": [
          "tgn:7497177",
          "tgn:1000004",
          "tgn:7001009",
          "tgn:1000141",
          "tgn:7029392"
        ],
        "placetype": [
          "aat:300006495"
        ],
        "id": 7497177,
        "name:xx": "Duxing Guoxiao"
      }
    },
    {
      "geometry": {
        "type": "Point",
        "coordinates": [
          120.6667,
          24.152
        ]
      },
      "type": "Feature",
      "properties": {
        "hierarchy": [
          "tgn:7497178",
          "tgn:1000004",
          "tgn:7001009",
          "tgn:1000141",
          "tgn:7029392"
        ],
        "placetype": [
          "aat:300006495"
        ],
        "id": 7497178,
        "name:xx": "Zhongzheng Guoxiao"
      }
    },
    {
      "geometry": {
        "type": "Point",
        "coordinates": [
          120.65227,
          24.155634
        ]
      },
      "type": "Feature",
      "properties": {
        "hierarchy": [
          "tgn:7497179",
          "tgn:1000004",
          "tgn:7001009",
          "tgn:1000141",
          "tgn:7029392"
        ],
        "placetype": [
          "aat:300006495"
        ],
        "id": 7497179,
        "name:xx": "Dongxing Guoxiao"
      }
    }
  ]
}
