{
  "type": "FeatureCollection",
  "features": [
    {
      "geometry": {
        "type": "Point",
        "coordinates": [
          121.134374,
          22.880281
        ]
      },
      "type": "Feature",
      "properties": {
        "hierarchy": [
          "tgn:7499210",
          "tgn:1000004",
          "tgn:7491221",
          "tgn:1000141",
          "tgn:7029392"
        ],
        "placetype": [
          "aat:300007836"
        ],
        "id": 7499210,
        "name:xx": "Shanli Erhao Qiao"
      }
    },
    {
      "geometry": {
        "type": "Point",
        "coordinates": [
          121.123259,
          22.916833
        ]
      },
      "type": "Feature",
      "properties": {
        "hierarchy": [
          "tgn:7499211",
          "tgn:1000004",
          "tgn:7491221",
          "tgn:1000141",
          "tgn:7029392"
        ],
        "placetype": [
          "aat:300008795"
        ],
        "id": 7499211,
        "name:xx": "Luye Shan"
      }
    },
    {
      "geometry": {
        "type": "Point",
        "coordinates": [
          121.139035,
          22.989681
        ]
      },
      "type": "Feature",
      "properties": {
        "hierarchy": [
          "tgn:7499212",
          "tgn:1000004",
          "tgn:7491221",
          "tgn:1000141",
          "tgn:7029392"
        ],
        "placetype": [
          "aat:300007836"
        ],
        "id": 7499212,
        "name:xx": "Jingshui Qiao"
      }
    },
    {
      "geometry": {
        "type": "Point",
        "coordinates": [
          121.062883,
          22.767778
        ]
      },
      "type": "Feature",
      "properties": {
        "hierarchy": [
          "tgn:7499215",
          "tgn:1000004",
          "tgn:7491221",
          "tgn:1000141",
          "tgn:7029392"
        ],
        "placetype": [
          "aat:300008699"
        ],
        "id": 7499215,
        "name:xx": "Xinyuan Xi"
      }
    },
    {
      "geometry": {
        "type": "Point",
        "coordinates": [
          121.039772,
          22.761618
        ]
      },
      "type": "Feature",
      "properties": {
        "hierarchy": [
          "tgn:7499216",
          "tgn:1000004",
          "tgn:7491221",
          "tgn:1000141",
          "tgn:7029392"
        ],
        "placetype": [
          "aat:300008699"
        ],
        "id": 7499216,
        "name:xx": "Dabei Xi"
      }
    },
    {
      "geometry": {
        "type": "Point",
        "coordinates": [
          121.093191,
          22.824893
        ]
      },
      "type": "Feature",
      "properties": {
        "hierarchy": [
          "tgn:7499217",
          "tgn:1000004",
          "tgn:7491221",
          "tgn:1000141",
          "tgn:7029392"
        ],
        "placetype": [
          "aat:300008699"
        ],
        "id": 7499217,
        "name:xx": "Jiubanjiu Xi"
      }
    },
    {
      "geometry": {
        "type": "Point",
        "coordinates": [
          121.094254,
          22.83472
        ]
      },
      "type": "Feature",
      "properties": {
        "hierarchy": [
          "tgn:7499218",
          "tgn:1000004",
          "tgn:7491221",
          "tgn:1000141",
          "tgn:7029392"
        ],
        "placetype": [
          "aat:300008699"
        ],
        "id": 7499218,
        "name:xx": "Xinbanjiu Xi"
      }
    },
    {
      "geometry": {
        "type": "Point",
        "coordinates": [
          121.247249,
          22.881563
        ]
      },
      "type": "Feature",
      "properties": {
        "hierarchy": [
          "tgn:7499219",
          "tgn:1000004",
          "tgn:7491221",
          "tgn:1000141",
          "tgn:7029392"
        ],
        "placetype": [
          "aat:300008699"
        ],
        "id": 7499219,
        "name:xx": "Bali Xi"
      }
    }
  ]
}
