{
  "type": "FeatureCollection",
  "features": [
    {
      "geometry": {
        "type": "Point",
        "coordinates": [
          120.971107,
          24.730762
        ]
      },
      "type": "Feature",
      "properties": {
        "hierarchy": [
          "tgn:7478150",
          "tgn:1000004",
          "tgn:7471332",
          "tgn:1000141",
          "tgn:7029392"
        ],
        "placetype": [
          "aat:300008777"
        ],
        "id": 7478150,
        "name:xx": "Jiangliao Shan"
      }
    },
    {
      "geometry": {
        "type": "Point",
        "coordinates": [
          120.973682,
          24.738035
        ]
      },
      "type": "Feature",
      "properties": {
        "hierarchy": [
          "tgn:7478151",
          "tgn:1000004",
          "tgn:7471332",
          "tgn:1000141",
          "tgn:7029392"
        ],
        "placetype": [
          "aat:300007836"
        ],
        "id": 7478151,
        "name:xx": "Shijiu Qiao"
      }
    },
    {
      "geometry": {
        "type": "Point",
        "coordinates": [
          120.933549,
          24.744713
        ]
      },
      "type": "Feature",
      "properties": {
        "hierarchy": [
          "tgn:7478152",
          "tgn:1000004",
          "tgn:7471332",
          "tgn:1000141",
          "tgn:7029392"
        ],
        "placetype": [
          "aat:300006495"
        ],
        "id": 7478152,
        "name:xx": "Dahu Guoxiao"
      }
    },
    {
      "geometry": {
        "type": "Point",
        "coordinates": [
          120.909068,
          24.741095
        ]
      },
      "type": "Feature",
      "properties": {
        "hierarchy": [
          "tgn:7478153",
          "tgn:1000004",
          "tgn:7001002",
          "tgn:1000141",
          "tgn:7029392"
        ],
        "placetype": [
          "aat:300007836"
        ],
        "id": 7478153,
        "name:xx": "Neihu Qiao"
      }
    },
    {
      "geometry": {
        "type": "Point",
        "coordinates": [
          120.906077,
          24.740933
        ]
      },
      "type": "Feature",
      "properties": {
        "hierarchy": [
          "tgn:7478154",
          "tgn:1000004",
          "tgn:7001002",
          "tgn:1000141",
          "tgn:7029392"
        ],
        "placetype": [
          "aat:300007836"
        ],
        "id": 7478154,
        "name:xx": "Chengren Qiao"
      }
    },
    {
      "geometry": {
        "type": "Point",
        "coordinates": [
          120.775819,
          24.6216
        ]
      },
      "type": "Feature",
      "properties": {
        "hierarchy": [
          "tgn:7478155",
          "tgn:7487020",
          "tgn:1000004",
          "tgn:1000141",
          "tgn:7029392"
        ],
        "placetype": [
          "aat:300007595"
        ],
        "id": 7478155,
        "name:xx": "Zhongxing Gong"
      }
    },
    {
      "geometry": {
        "type": "Point",
        "coordinates": [
          120.780812,
          24.621471
        ]
      },
      "type": "Feature",
      "properties": {
        "hierarchy": [
          "tgn:7478156",
          "tgn:7487020",
          "tgn:1000004",
          "tgn:1000141",
          "tgn:7029392"
        ],
        "placetype": [
          "aat:300006610"
        ],
        "id": 7478156,
        "name:xx": "Rende Yixiao"
      }
    },
    {
      "geometry": {
        "type": "Point",
        "coordinates": [
          120.809697,
          24.627121
        ]
      },
      "type": "Feature",
      "properties": {
        "hierarchy": [
          "tgn:7478157",
          "tgn:7487020",
          "tgn:1000004",
          "tgn:1000141",
          "tgn:7029392"
        ],
        "placetype": [
          "aat:300008777"
        ],
        "id": 7478157,
        "name:xx": "Yangliao Shan"
      }
    },
    {
      "geometry": {
        "type": "Point",
        "coordinates": [
          120.853345,
          24.626575
        ]
      },
      "type": "Feature",
      "properties": {
        "hierarchy": [
          "tgn:7478158",
          "tgn:7487020",
          "tgn:1000004",
          "tgn:1000141",
          "tgn:7029392"
        ],
        "placetype": [
          "aat:300007899"
        ],
        "id": 7478158,
        "name:xx": "Fengfu Suidao"
      }
    },
    {
      "geometry": {
        "type": "Point",
        "coordinates": [
          120.856521,
          24.623708
        ]
      },
      "type": "Feature",
      "properties": {
        "hierarchy": [
          "tgn:7478159",
          "tgn:7487020",
          "tgn:1000004",
          "tgn:1000141",
          "tgn:7029392"
        ],
        "placetype": [
          "aat:300008777"
        ],
        "id": 7478159,
        "name:xx": "Jiadong Shan"
      }
    }
  ]
}
