{
  "type": "FeatureCollection",
  "features": [
    {
      "geometry": {
        "type": "Point",
        "coordinates": [
          -98.975,
          20.131944
        ]
      },
      "type": "Feature",
      "properties": {
        "hierarchy": [
          "tgn:7412450",
          "tgn:7005587",
          "tgn:1000001",
          "tgn:7005560",
          "tgn:7029392"
        ],
        "placetype": [
          "aat:300008347"
        ],
        "id": 7412450,
        "name:es": "Benito Juárez"
      }
    },
    {
      "geometry": {
        "type": "Point",
        "coordinates": [
          -98.997222,
          20.134722
        ]
      },
      "type": "Feature",
      "properties": {
        "hierarchy": [
          "tgn:7412451",
          "tgn:7005587",
          "tgn:1000001",
          "tgn:7005560",
          "tgn:7029392"
        ],
        "placetype": [
          "aat:300008347"
        ],
        "id": 7412451,
        "name:es": "Ignacio Zaragoza"
      }
    },
    {
      "geometry": {
        "type": "Point",
        "coordinates": [
          -98.991667,
          20.156944
        ]
      },
      "type": "Feature",
      "properties": {
        "hierarchy": [
          "tgn:7412452",
          "tgn:7005587",
          "tgn:1000001",
          "tgn:7005560",
          "tgn:7029392"
        ],
        "placetype": [
          "aat:300008347"
        ],
        "id": 7412452,
        "name:es": "San Isidro Llano Largo"
      }
    },
    {
      "geometry": {
        "type": "Point",
        "coordinates": [
          -98.983333,
          20.208333
        ]
      },
      "type": "Feature",
      "properties": {
        "hierarchy": [
          "tgn:7412453",
          "tgn:7005587",
          "tgn:1000001",
          "tgn:7005560",
          "tgn:7029392"
        ],
        "placetype": [
          "aat:300008347"
        ],
        "id": 7412453,
        "name:es": "El Tablón"
      }
    },
    {
      "geometry": {
        "type": "Point",
        "coordinates": [
          -98.904167,
          20.206944
        ]
      },
      "type": "Feature",
      "properties": {
        "hierarchy": [
          "tgn:7412454",
          "tgn:7005587",
          "tgn:1000001",
          "tgn:7005560",
          "tgn:7029392"
        ],
        "placetype": [
          "aat:300008347"
        ],
        "id": 7412454,
        "name:es": "El Boja"
      }
    },
    {
      "geometry": {
        "type": "Point",
        "coordinates": [
          -98.958333,
          20.215278
        ]
      },
      "type": "Feature",
      "properties": {
        "hierarchy": [
          "tgn:7412455",
          "tgn:7005587",
          "tgn:1000001",
          "tgn:7005560",
          "tgn:7029392"
        ],
        "placetype": [
          "aat:300008347"
        ],
        "id": 7412455,
        "name:es": "Cuauhtémoc"
      }
    },
    {
      "geometry": {
        "type": "Point",
        "coordinates": [
          -98.925,
          20.249444
        ]
      },
      "type": "Feature",
      "properties": {
        "hierarchy": [
          "tgn:7412456",
          "tgn:7005587",
          "tgn:1000001",
          "tgn:7005560",
          "tgn:7029392"
        ],
        "placetype": [
          "aat:300008347"
        ],
        "id": 7412456,
        "name:es": "El Jiadi"
      }
    },
    {
      "geometry": {
        "type": "Point",
        "coordinates": [
          -98.941667,
          20.238889
        ]
      },
      "type": "Feature",
      "properties": {
        "hierarchy": [
          "tgn:7412457",
          "tgn:7005587",
          "tgn:1000001",
          "tgn:7005560",
          "tgn:7029392"
        ],
        "placetype": [
          "aat:300008347"
        ],
        "id": 7412457,
        "name:es": "Bothiban"
      }
    },
    {
      "geometry": {
        "type": "Point",
        "coordinates": [
          -98.955556,
          20.241667
        ]
      },
      "type": "Feature",
      "properties": {
        "hierarchy": [
          "tgn:7412458",
          "tgn:7005587",
          "tgn:1000001",
          "tgn:7005560",
          "tgn:7029392"
        ],
        "placetype": [
          "aat:300008347"
        ],
        "id": 7412458,
        "name:es": "Huaxtó"
      }
    },
    {
      "geometry": {
        "type": "Point",
        "coordinates": [
          -99.025,
          20.245833
        ]
      },
      "type": "Feature",
      "properties": {
        "hierarchy": [
          "tgn:7412459",
          "tgn:7005587",
          "tgn:1000001",
          "tgn:7005560",
          "tgn:7029392"
        ],
        "placetype": [
          "aat:300008347"
        ],
        "id": 7412459,
        "name:es": "El Rosario"
      }
    }
  ]
}
