{
  "type": "FeatureCollection",
  "features": [
    {
      "geometry": {
        "type": "Point",
        "coordinates": [
          120.475,
          22.847222
        ]
      },
      "type": "Feature",
      "properties": {
        "hierarchy": [
          "tgn:7502500",
          "tgn:7001004",
          "tgn:1000004",
          "tgn:1000141",
          "tgn:7029392"
        ],
        "placetype": [
          "aat:300008347"
        ],
        "id": 7502500,
        "name:xx": "Wenhe"
      }
    },
    {
      "geometry": {
        "type": "Point",
        "coordinates": [
          120.480556,
          22.890278
        ]
      },
      "type": "Feature",
      "properties": {
        "hierarchy": [
          "tgn:7502501",
          "tgn:7001004",
          "tgn:1000004",
          "tgn:1000141",
          "tgn:7029392"
        ],
        "placetype": [
          "aat:300000745"
        ],
        "id": 7502501,
        "name:xx": "Gushan"
      }
    },
    {
      "geometry": {
        "type": "Point",
        "coordinates": [
          120.473333,
          22.9075
        ]
      },
      "type": "Feature",
      "properties": {
        "hierarchy": [
          "tgn:7502502",
          "tgn:7001004",
          "tgn:1000004",
          "tgn:1000141",
          "tgn:7029392"
        ],
        "placetype": [
          "aat:300008777"
        ],
        "id": 7502502,
        "name:xx": "Goutou Shan"
      }
    },
    {
      "geometry": {
        "type": "Point",
        "coordinates": [
          120.289722,
          22.825556
        ]
      },
      "type": "Feature",
      "properties": {
        "hierarchy": [
          "tgn:7502503",
          "tgn:7001004",
          "tgn:1000004",
          "tgn:1000141",
          "tgn:7029392"
        ],
        "placetype": [
          "aat:300007836"
        ],
        "id": 7502503,
        "name:xx": "Quan Qiao"
      }
    },
    {
      "geometry": {
        "type": "Point",
        "coordinates": [
          120.374444,
          22.9475
        ]
      },
      "type": "Feature",
      "properties": {
        "hierarchy": [
          "tgn:7502504",
          "tgn:1000004",
          "tgn:7490934",
          "tgn:1000141",
          "tgn:7029392"
        ],
        "placetype": [
          "aat:300008777"
        ],
        "id": 7502504,
        "name:xx": "Jisilun"
      }
    },
    {
      "geometry": {
        "type": "Point",
        "coordinates": [
          120.397222,
          22.872222
        ]
      },
      "type": "Feature",
      "properties": {
        "hierarchy": [
          "tgn:7502505",
          "tgn:7001004",
          "tgn:1000004",
          "tgn:1000141",
          "tgn:7029392"
        ],
        "placetype": [
          "aat:300008347"
        ],
        "id": 7502505,
        "name:xx": "Qiedonghu"
      }
    },
    {
      "geometry": {
        "type": "Point",
        "coordinates": [
          120.788683,
          24.477787
        ]
      },
      "type": "Feature",
      "properties": {
        "hierarchy": [
          "tgn:7502507",
          "tgn:7487020",
          "tgn:1000004",
          "tgn:1000141",
          "tgn:7029392"
        ],
        "placetype": [
          "aat:300008347"
        ],
        "id": 7502507,
        "name:xx": "Dongtianyang"
      }
    },
    {
      "geometry": {
        "type": "Point",
        "coordinates": [
          120.793821,
          24.479952
        ]
      },
      "type": "Feature",
      "properties": {
        "hierarchy": [
          "tgn:7502508",
          "tgn:7487020",
          "tgn:1000004",
          "tgn:1000141",
          "tgn:7029392"
        ],
        "placetype": [
          "aat:300387302"
        ],
        "id": 7502508,
        "name:xx": "Tongluo Gongyequ"
      }
    },
    {
      "geometry": {
        "type": "Point",
        "coordinates": [
          120.782586,
          24.478498
        ]
      },
      "type": "Feature",
      "properties": {
        "hierarchy": [
          "tgn:7502509",
          "tgn:7487020",
          "tgn:1000004",
          "tgn:1000141",
          "tgn:7029392"
        ],
        "placetype": [
          "aat:300007836"
        ],
        "id": 7502509,
        "name:xx": "Tongjiu Daqiao"
      }
    }
  ]
}
