{
  "type": "FeatureCollection",
  "features": [
    {
      "geometry": {
        "type": "Point",
        "coordinates": [
          -87.270833,
          20.433333
        ]
      },
      "type": "Feature",
      "properties": {
        "hierarchy": [
          "tgn:7402680",
          "tgn:1000001",
          "tgn:1001937",
          "tgn:7005560",
          "tgn:7029392"
        ],
        "placetype": [
          "aat:300008816"
        ],
        "id": 7402680,
        "name:xx": "Kantenah, Playa"
      }
    },
    {
      "geometry": {
        "type": "Point",
        "coordinates": [
          -87.258333,
          20.458333
        ]
      },
      "type": "Feature",
      "properties": {
        "hierarchy": [
          "tgn:7402681",
          "tgn:1000001",
          "tgn:1001937",
          "tgn:7005560",
          "tgn:7029392"
        ],
        "placetype": [
          "aat:300386846"
        ],
        "id": 7402681,
        "name:xx": "Chile, Punta"
      }
    },
    {
      "geometry": {
        "type": "Point",
        "coordinates": [
          -87.433333,
          20.2125
        ]
      },
      "type": "Feature",
      "properties": {
        "hierarchy": [
          "tgn:7402682",
          "tgn:1000001",
          "tgn:1001937",
          "tgn:7005560",
          "tgn:7029392"
        ],
        "placetype": [
          "aat:300008347"
        ],
        "id": 7402682,
        "name:xx": "El Paraíso"
      }
    },
    {
      "geometry": {
        "type": "Point",
        "coordinates": [
          -87.391667,
          20.279167
        ]
      },
      "type": "Feature",
      "properties": {
        "hierarchy": [
          "tgn:7402683",
          "tgn:1000001",
          "tgn:1001937",
          "tgn:7005560",
          "tgn:7029392"
        ],
        "placetype": [
          "aat:300008347"
        ],
        "id": 7402683,
        "name:xx": "Playa Aventura"
      }
    },
    {
      "geometry": {
        "type": "Point",
        "coordinates": [
          -87.354167,
          20.283333
        ]
      },
      "type": "Feature",
      "properties": {
        "hierarchy": [
          "tgn:7402684",
          "tgn:1000001",
          "tgn:1001937",
          "tgn:7005560",
          "tgn:7029392"
        ],
        "placetype": [
          "aat:300386846"
        ],
        "id": 7402684,
        "name:xx": "Ojo de Agua, Punta"
      }
    },
    {
      "geometry": {
        "type": "Point",
        "coordinates": [
          -87.483333,
          20.183333
        ]
      },
      "type": "Feature",
      "properties": {
        "hierarchy": [
          "tgn:7402685",
          "tgn:1000001",
          "tgn:1001937",
          "tgn:7005560",
          "tgn:7029392"
        ],
        "placetype": [
          "aat:300008187"
        ],
        "id": 7402685,
        "name:xx": "Parque Nacional Tulum"
      }
    },
    {
      "geometry": {
        "type": "Point",
        "coordinates": [
          -87.416667,
          20.233333
        ]
      },
      "type": "Feature",
      "properties": {
        "hierarchy": [
          "tgn:7402686",
          "tgn:1000001",
          "tgn:1001937",
          "tgn:7005560",
          "tgn:7029392"
        ],
        "placetype": [
          "aat:300008347"
        ],
        "id": 7402686,
        "name:xx": "Unidad Agrícola Tan Kah"
      }
    },
    {
      "geometry": {
        "type": "Point",
        "coordinates": [
          -87.375,
          20.291667
        ]
      },
      "type": "Feature",
      "properties": {
        "hierarchy": [
          "tgn:7402687",
          "tgn:1000001",
          "tgn:1001937",
          "tgn:7005560",
          "tgn:7029392"
        ],
        "placetype": [
          "aat:300008347"
        ],
        "id": 7402687,
        "name:xx": "San Pablo"
      }
    },
    {
      "geometry": {
        "type": "Point",
        "coordinates": [
          -87.354167,
          20.316667
        ]
      },
      "type": "Feature",
      "properties": {
        "hierarchy": [
          "tgn:7402688",
          "tgn:1000001",
          "tgn:1001937",
          "tgn:7005560",
          "tgn:7029392"
        ],
        "placetype": [
          "aat:300387007"
        ],
        "id": 7402688,
        "name:xx": "Xel-Há"
      }
    },
    {
      "geometry": {
        "type": "Point",
        "coordinates": [
          -87.354167,
          20.35
        ]
      },
      "type": "Feature",
      "properties": {
        "hierarchy": [
          "tgn:7402689",
          "tgn:1000001",
          "tgn:1001937",
          "tgn:7005560",
          "tgn:7029392"
        ],
        "placetype": [
          "aat:300008347"
        ],
        "id": 7402689,
        "name:xx": "La Esperanza"
      }
    }
  ]
}
