{
  "type": "FeatureCollection",
  "features": [
    {
      "geometry": {
        "type": "Point",
        "coordinates": [
          81.3167,
          29.6167
        ]
      },
      "type": "Feature",
      "properties": {
        "hierarchy": [
          "tgn:1083320",
          "tgn:7001433",
          "tgn:7001420",
          "tgn:1000004",
          "tgn:1000132",
          "tgn:7029392"
        ],
        "placetype": [
          "aat:300008347"
        ],
        "id": 1083320,
        "name:xx": "Tālkot"
      }
    },
    {
      "geometry": {
        "type": "Point",
        "coordinates": [
          83.55,
          27.8667
        ]
      },
      "type": "Feature",
      "properties": {
        "hierarchy": [
          "tgn:1083321",
          "tgn:7001428",
          "tgn:1000004",
          "tgn:7001418",
          "tgn:1000132",
          "tgn:7029392"
        ],
        "placetype": [
          "aat:300008347"
        ],
        "id": 1083321,
        "name:xx": "Tānsing"
      }
    },
    {
      "geometry": {
        "type": "Point",
        "coordinates": [
          87.6667,
          27.35
        ]
      },
      "type": "Feature",
      "properties": {
        "hierarchy": [
          "tgn:1083322",
          "tgn:7001421",
          "tgn:7001416",
          "tgn:1000004",
          "tgn:1000132",
          "tgn:7029392"
        ],
        "placetype": [
          "aat:300008347"
        ],
        "id": 1083322,
        "name:xx": "Tāplejung"
      }
    },
    {
      "geometry": {
        "type": "Point",
        "coordinates": [
          84.3333,
          28.0333
        ]
      },
      "type": "Feature",
      "properties": {
        "hierarchy": [
          "tgn:1083323",
          "tgn:7001429",
          "tgn:1000004",
          "tgn:7001418",
          "tgn:1000132",
          "tgn:7029392"
        ],
        "placetype": [
          "aat:300008347"
        ],
        "id": 1083323,
        "name:xx": "Tanhu"
      }
    },
    {
      "geometry": {
        "type": "Point",
        "coordinates": [
          83.05,
          27.55
        ]
      },
      "type": "Feature",
      "properties": {
        "hierarchy": [
          "tgn:1083324",
          "tgn:7001428",
          "tgn:1000004",
          "tgn:7001418",
          "tgn:1000132",
          "tgn:7029392"
        ],
        "placetype": [
          "aat:300008347"
        ],
        "id": 1083324,
        "name:xx": "Taulihawa"
      }
    },
    {
      "geometry": {
        "type": "Point",
        "coordinates": [
          87.5833,
          27.25
        ]
      },
      "type": "Feature",
      "properties": {
        "hierarchy": [
          "tgn:1083325",
          "tgn:7001422",
          "tgn:7001416",
          "tgn:1000004",
          "tgn:1000132",
          "tgn:7029392"
        ],
        "placetype": [
          "aat:300008347"
        ],
        "id": 1083325,
        "name:xx": "Tehrthum"
      }
    },
    {
      "geometry": {
        "type": "Point",
        "coordinates": [
          85.1833,
          27.6833
        ]
      },
      "type": "Feature",
      "properties": {
        "hierarchy": [
          "tgn:1083326",
          "tgn:7001426",
          "tgn:7001417",
          "tgn:1000004",
          "tgn:1000132",
          "tgn:7029392"
        ],
        "placetype": [
          "aat:300008347"
        ],
        "id": 1083326,
        "name:xx": "Thānkot"
      }
    },
    {
      "geometry": {
        "type": "Point",
        "coordinates": [
          86.6667,
          26.9167
        ]
      },
      "type": "Feature",
      "properties": {
        "hierarchy": [
          "tgn:1083327",
          "tgn:7001423",
          "tgn:7001416",
          "tgn:1000004",
          "tgn:1000132",
          "tgn:7029392"
        ],
        "placetype": [
          "aat:300008347"
        ],
        "id": 1083327,
        "name:xx": "Udaypur"
      }
    },
    {
      "geometry": {
        "type": "Point",
        "coordinates": [
          84.5667,
          27.7667
        ]
      },
      "type": "Feature",
      "properties": {
        "hierarchy": [
          "tgn:1083328",
          "tgn:7001426",
          "tgn:7001417",
          "tgn:1000004",
          "tgn:1000132",
          "tgn:7029392"
        ],
        "placetype": [
          "aat:300008347"
        ],
        "id": 1083328,
        "name:xx": "Upardāng Garhi"
      }
    },
    {
      "geometry": {
        "type": "Point",
        "coordinates": [
          73.0667,
          30.2833
        ]
      },
      "type": "Feature",
      "properties": {
        "hierarchy": [
          "tgn:1083329",
          "tgn:1000004",
          "tgn:1001490",
          "tgn:1000133",
          "tgn:7029392"
        ],
        "placetype": [
          "aat:300008347"
        ],
        "id": 1083329,
        "name:xx": "Arifwala"
      }
    }
  ]
}
