{
  "type": "FeatureCollection",
  "features": [
    {
      "geometry": {
        "type": "Point",
        "coordinates": [
          28.583333,
          30.583333
        ]
      },
      "type": "Feature",
      "properties": {
        "hierarchy": [
          "tgn:7520800",
          "tgn:7001242",
          "tgn:7016833",
          "tgn:1001418",
          "tgn:7029392"
        ],
        "placetype": [
          "aat:300008805"
        ],
        "name:en": "Al Kharīţah",
        "id": 7520800
      }
    },
    {
      "geometry": {
        "type": "Point",
        "coordinates": [
          31.916667,
          31.483333
        ]
      },
      "type": "Feature",
      "properties": {
        "hierarchy": [
          "tgn:7520801",
          "tgn:7001242",
          "tgn:7016833",
          "tgn:1001225",
          "tgn:7029392"
        ],
        "placetype": [
          "aat:300132316"
        ],
        "name:en": "Al Kharīţah",
        "id": 7520801
      }
    },
    {
      "geometry": {
        "type": "Point",
        "coordinates": [
          32.763388,
          25.890118
        ]
      },
      "type": "Feature",
      "properties": {
        "hierarchy": [
          "tgn:7520804",
          "tgn:7001242",
          "tgn:7016833",
          "tgn:7000123",
          "tgn:7029392"
        ],
        "placetype": [
          "aat:300008347"
        ],
        "name:en": "Al Kharāniqah",
        "id": 7520804
      }
    },
    {
      "geometry": {
        "type": "Point",
        "coordinates": [
          28.787942,
          25.904548
        ]
      },
      "type": "Feature",
      "properties": {
        "hierarchy": [
          "tgn:7520805",
          "tgn:7001242",
          "tgn:7016833",
          "tgn:7001334",
          "tgn:7029392"
        ],
        "placetype": [
          "aat:300055621"
        ],
        "name:en": "Al Kharāfīsh",
        "id": 7520805
      }
    },
    {
      "geometry": {
        "type": "Point",
        "coordinates": [
          31.366667,
          30.216667
        ]
      },
      "type": "Feature",
      "properties": {
        "hierarchy": [
          "tgn:7520806",
          "tgn:7001242",
          "tgn:7016833",
          "tgn:1001092",
          "tgn:7029392"
        ],
        "placetype": [
          "aat:300007783"
        ],
        "name:en": "El-Khânka",
        "id": 7520806
      }
    },
    {
      "geometry": {
        "type": "Point",
        "coordinates": [
          31.734376,
          26.42572
        ]
      },
      "type": "Feature",
      "properties": {
        "hierarchy": [
          "tgn:7520809",
          "tgn:7001242",
          "tgn:7016833",
          "tgn:7000124",
          "tgn:7029392"
        ],
        "placetype": [
          "aat:300008347"
        ],
        "name:en": "Al Khanānisah",
        "id": 7520809
      }
    }
  ]
}
