{
  "type": "FeatureCollection",
  "features": [
    {
      "geometry": {
        "type": "Point",
        "coordinates": [
          31.05,
          29.133333
        ]
      },
      "type": "Feature",
      "properties": {
        "hierarchy": [
          "tgn:1095410",
          "tgn:7001242",
          "tgn:7016833",
          "tgn:1001142",
          "tgn:7029392"
        ],
        "placetype": [
          "aat:300008347"
        ],
        "name:en": "Banī Mūsá",
        "id": 1095410
      }
    },
    {
      "geometry": {
        "type": "Point",
        "coordinates": [
          31.110017,
          30.041918
        ]
      },
      "type": "Feature",
      "properties": {
        "hierarchy": [
          "tgn:1095411",
          "tgn:7001242",
          "tgn:7016833",
          "tgn:1001083",
          "tgn:7029392"
        ],
        "placetype": [
          "aat:300008347"
        ],
        "id": 1095411,
        "name:xx": "Banī Majdūl"
      }
    },
    {
      "geometry": {
        "type": "Point",
        "coordinates": [
          30.800401,
          28.503599
        ]
      },
      "type": "Feature",
      "properties": {
        "hierarchy": [
          "tgn:1095412",
          "tgn:7001242",
          "tgn:7016833",
          "tgn:1001088",
          "tgn:7029392"
        ],
        "placetype": [
          "aat:300008347"
        ],
        "name:en": "Banī Mazār",
        "id": 1095412
      }
    },
    {
      "geometry": {
        "type": "Point",
        "coordinates": [
          31.071607,
          27.281545
        ]
      },
      "type": "Feature",
      "properties": {
        "hierarchy": [
          "tgn:1095413",
          "tgn:7001242",
          "tgn:7016833",
          "tgn:1001114",
          "tgn:7029392"
        ],
        "placetype": [
          "aat:300008347"
        ],
        "name:en": "Banī Muḩammadīyāt",
        "id": 1095413
      }
    },
    {
      "geometry": {
        "type": "Point",
        "coordinates": [
          30.892322,
          27.36036
        ]
      },
      "type": "Feature",
      "properties": {
        "hierarchy": [
          "tgn:1095414",
          "tgn:7001242",
          "tgn:7016833",
          "tgn:1001114",
          "tgn:7029392"
        ],
        "placetype": [
          "aat:300008347"
        ],
        "name:en": "Banī Rāfi'",
        "id": 1095414
      }
    },
    {
      "geometry": {
        "type": "Point",
        "coordinates": [
          30.848954,
          30.321194
        ]
      },
      "type": "Feature",
      "properties": {
        "hierarchy": [
          "tgn:1095415",
          "tgn:7001242",
          "tgn:1001075",
          "tgn:7016833",
          "tgn:7029392"
        ],
        "placetype": [
          "aat:300008347"
        ],
        "name:en": "Banī Salāmah",
        "id": 1095415
      }
    },
    {
      "geometry": {
        "type": "Point",
        "coordinates": [
          30.856401,
          27.319589
        ]
      },
      "type": "Feature",
      "properties": {
        "hierarchy": [
          "tgn:1095416",
          "tgn:7001242",
          "tgn:7016833",
          "tgn:1001114",
          "tgn:7029392"
        ],
        "placetype": [
          "aat:300008347"
        ],
        "name:en": "Banī Sha'rān",
        "id": 1095416
      }
    },
    {
      "geometry": {
        "type": "Point",
        "coordinates": [
          27.363,
          27.363
        ]
      },
      "type": "Feature",
      "properties": {
        "hierarchy": [
          "tgn:1095417",
          "tgn:7001242",
          "tgn:7016833",
          "tgn:1001114",
          "tgn:7029392"
        ],
        "placetype": [
          "aat:300008347"
        ],
        "name:en": "Banī Shuqayr",
        "id": 1095417
      }
    },
    {
      "geometry": {
        "type": "Point",
        "coordinates": [
          31.097848,
          29.074409
        ]
      },
      "type": "Feature",
      "properties": {
        "hierarchy": [
          "tgn:1095418",
          "tgn:7001242",
          "tgn:7016833",
          "tgn:1001142",
          "tgn:7029392"
        ],
        "placetype": [
          "aat:300008347",
          "aat:300008389",
          "aat:300387220",
          "aat:300387286"
        ],
        "id": 1095418,
        "name:xx": "Banī Suwayf"
      }
    },
    {
      "geometry": {
        "type": "Point",
        "coordinates": [
          31.15,
          27.216667
        ]
      },
      "type": "Feature",
      "properties": {
        "hierarchy": [
          "tgn:1095419",
          "tgn:7001242",
          "tgn:7016833",
          "tgn:1001114",
          "tgn:7029392"
        ],
        "placetype": [
          "aat:300008347"
        ],
        "name:en": "Banī Zayd",
        "id": 1095419
      }
    }
  ]
}
