{
  "type": "FeatureCollection",
  "features": [
    {
      "geometry": {
        "type": "Point",
        "coordinates": [
          79.833333,
          17.05
        ]
      },
      "type": "Feature",
      "properties": {
        "hierarchy": [
          "tgn:7553300",
          "tgn:1001828",
          "tgn:1000004",
          "tgn:7000198",
          "tgn:7029392"
        ],
        "placetype": [
          "aat:300008347"
        ],
        "name:en": "Munagala",
        "id": 7553300
      }
    },
    {
      "geometry": {
        "type": "Point",
        "coordinates": [
          82.116667,
          16.65
        ]
      },
      "type": "Feature",
      "properties": {
        "hierarchy": [
          "tgn:7553302",
          "tgn:1001828",
          "tgn:1000004",
          "tgn:7000198",
          "tgn:7029392"
        ],
        "placetype": [
          "aat:300008347"
        ],
        "name:en": "Mummidivaram",
        "id": 7553302
      }
    },
    {
      "geometry": {
        "type": "Point",
        "coordinates": [
          74.287849,
          28.209739
        ]
      },
      "type": "Feature",
      "properties": {
        "hierarchy": [
          "tgn:7553303",
          "tgn:1000004",
          "tgn:7000198",
          "tgn:7016788",
          "tgn:7029392"
        ],
        "placetype": [
          "aat:300008347"
        ],
        "name:en": "Mummāsar",
        "id": 7553303
      }
    },
    {
      "geometry": {
        "type": "Point",
        "coordinates": [
          93.485048,
          26.381392
        ]
      },
      "type": "Feature",
      "properties": {
        "hierarchy": [
          "tgn:7553304",
          "tgn:1000004",
          "tgn:1001832",
          "tgn:7000198",
          "tgn:7029392"
        ],
        "placetype": [
          "aat:300008347"
        ],
        "name:en": "Mumgāon",
        "id": 7553304
      }
    },
    {
      "geometry": {
        "type": "Point",
        "coordinates": [
          75.571379,
          33.800038
        ]
      },
      "type": "Feature",
      "properties": {
        "hierarchy": [
          "tgn:7553305",
          "tgn:1000004",
          "tgn:7000198",
          "tgn:7000799",
          "tgn:7029392"
        ],
        "placetype": [
          "aat:300008347"
        ],
        "name:en": "Mul Warwan",
        "id": 7553305
      }
    },
    {
      "geometry": {
        "type": "Point",
        "coordinates": [
          73.266667,
          21.883333
        ]
      },
      "type": "Feature",
      "properties": {
        "hierarchy": [
          "tgn:7553306",
          "tgn:1000004",
          "tgn:1001869",
          "tgn:7000198",
          "tgn:7029392"
        ],
        "placetype": [
          "aat:300008347"
        ],
        "name:en": "Pānetha",
        "id": 7553306
      }
    },
    {
      "geometry": {
        "type": "Point",
        "coordinates": [
          69.449167,
          22.356111
        ]
      },
      "type": "Feature",
      "properties": {
        "hierarchy": [
          "tgn:7553307",
          "tgn:1000004",
          "tgn:1001869",
          "tgn:7000198",
          "tgn:7029392"
        ],
        "placetype": [
          "aat:300008791"
        ],
        "name:en": "Pānero Tāpu",
        "id": 7553307
      }
    },
    {
      "geometry": {
        "type": "Point",
        "coordinates": [
          91.915698,
          26.726897
        ]
      },
      "type": "Feature",
      "properties": {
        "hierarchy": [
          "tgn:7553308",
          "tgn:1000004",
          "tgn:1001832",
          "tgn:7000198",
          "tgn:7029392"
        ],
        "placetype": [
          "aat:300008347"
        ],
        "name:en": "Paneri",
        "id": 7553308
      }
    },
    {
      "geometry": {
        "type": "Point",
        "coordinates": [
          83.466531,
          26.99811
        ]
      },
      "type": "Feature",
      "properties": {
        "hierarchy": [
          "tgn:7553309",
          "tgn:1000004",
          "tgn:7000198",
          "tgn:7016722",
          "tgn:7029392"
        ],
        "placetype": [
          "aat:300008347"
        ],
        "name:en": "Panīyara",
        "id": 7553309
      }
    }
  ]
}
