{
  "type": "FeatureCollection",
  "features": [
    {
      "geometry": {
        "type": "Point",
        "coordinates": [
          121.071667,
          23.788889
        ]
      },
      "type": "Feature",
      "properties": {
        "hierarchy": [
          "tgn:7473150",
          "tgn:7488858",
          "tgn:1000004",
          "tgn:1000141",
          "tgn:7029392"
        ],
        "placetype": [
          "aat:300008347"
        ],
        "id": 7473150,
        "name:xx": "Tongkuo"
      }
    },
    {
      "geometry": {
        "type": "Point",
        "coordinates": [
          120.740201,
          24.122737
        ]
      },
      "type": "Feature",
      "properties": {
        "hierarchy": [
          "tgn:7473151",
          "tgn:1000004",
          "tgn:7001009",
          "tgn:1000141",
          "tgn:7029392"
        ],
        "placetype": [
          "aat:300008777"
        ],
        "id": 7473151,
        "name:xx": "Donggua Shan"
      }
    },
    {
      "geometry": {
        "type": "Point",
        "coordinates": [
          121.023333,
          24.002778
        ]
      },
      "type": "Feature",
      "properties": {
        "hierarchy": [
          "tgn:7473152",
          "tgn:7488858",
          "tgn:1000004",
          "tgn:1000141",
          "tgn:7029392"
        ],
        "placetype": [
          "aat:300387002"
        ],
        "id": 7473152,
        "name:xx": "Dong Guandao Shan"
      }
    },
    {
      "geometry": {
        "type": "Point",
        "coordinates": [
          120.255961,
          23.37045
        ]
      },
      "type": "Feature",
      "properties": {
        "hierarchy": [
          "tgn:7473153",
          "tgn:7468018",
          "tgn:1000004",
          "tgn:1000141",
          "tgn:7029392"
        ],
        "placetype": [
          "aat:300387173"
        ],
        "id": 7473153,
        "name:xx": "Dongguang Cun"
      }
    },
    {
      "geometry": {
        "type": "Point",
        "coordinates": [
          120.966648,
          23.889969
        ]
      },
      "type": "Feature",
      "properties": {
        "hierarchy": [
          "tgn:7473154",
          "tgn:7488858",
          "tgn:1000004",
          "tgn:1000141",
          "tgn:7029392"
        ],
        "placetype": [
          "aat:300008347"
        ],
        "id": 7473154,
        "name:xx": "Dongguang"
      }
    },
    {
      "geometry": {
        "type": "Point",
        "coordinates": [
          121.716667,
          25.016667
        ]
      },
      "type": "Feature",
      "properties": {
        "hierarchy": [
          "tgn:7473156",
          "tgn:1000004",
          "tgn:1000454",
          "tgn:1000141",
          "tgn:7029392"
        ],
        "placetype": [
          "aat:300008347"
        ],
        "id": 7473156,
        "name:xx": "Donggualiao"
      }
    },
    {
      "geometry": {
        "type": "Point",
        "coordinates": [
          118.430865,
          24.521109
        ]
      },
      "type": "Feature",
      "properties": {
        "hierarchy": [
          "tgn:7473157",
          "tgn:7469009",
          "tgn:1000004",
          "tgn:1000141",
          "tgn:7029392"
        ],
        "placetype": [
          "aat:300387036"
        ],
        "id": 7473157,
        "name:xx": "Dongge"
      }
    },
    {
      "geometry": {
        "type": "Point",
        "coordinates": [
          120.916667,
          23.733333
        ]
      },
      "type": "Feature",
      "properties": {
        "hierarchy": [
          "tgn:7473158",
          "tgn:7488858",
          "tgn:1000004",
          "tgn:1000141",
          "tgn:7029392"
        ],
        "placetype": [
          "aat:300008347"
        ],
        "id": 7473158,
        "name:xx": "Tongge"
      }
    },
    {
      "geometry": {
        "type": "Point",
        "coordinates": [
          120.887003,
          24.214204
        ]
      },
      "type": "Feature",
      "properties": {
        "hierarchy": [
          "tgn:7473159",
          "tgn:1000004",
          "tgn:7001009",
          "tgn:1000141",
          "tgn:7029392"
        ],
        "placetype": [
          "aat:300008347"
        ],
        "id": 7473159,
        "name:xx": "Dongkengcun"
      }
    }
  ]
}
