{
  "type": "FeatureCollection",
  "features": [
    {
      "geometry": {
        "type": "Point",
        "coordinates": [
          79.288821,
          27.094423
        ]
      },
      "type": "Feature",
      "properties": {
        "hierarchy": [
          "tgn:7561810",
          "tgn:1000004",
          "tgn:7000198",
          "tgn:7016722",
          "tgn:7029392"
        ],
        "placetype": [
          "aat:300008347"
        ],
        "name:en": "Husainpur",
        "id": 7561810
      }
    },
    {
      "geometry": {
        "type": "Point",
        "coordinates": [
          79.294046,
          27.095716
        ]
      },
      "type": "Feature",
      "properties": {
        "hierarchy": [
          "tgn:7561811",
          "tgn:1000004",
          "tgn:7000198",
          "tgn:7016722",
          "tgn:7029392"
        ],
        "placetype": [
          "aat:300008347"
        ],
        "name:en": "Jawāpur",
        "id": 7561811
      }
    },
    {
      "geometry": {
        "type": "Point",
        "coordinates": [
          79.249052,
          27.994063
        ]
      },
      "type": "Feature",
      "properties": {
        "hierarchy": [
          "tgn:7561812",
          "tgn:1000004",
          "tgn:7000198",
          "tgn:7016722",
          "tgn:7029392"
        ],
        "placetype": [
          "aat:300008347"
        ],
        "name:en": "Nareli",
        "id": 7561812
      }
    },
    {
      "geometry": {
        "type": "Point",
        "coordinates": [
          79.192461,
          27.992316
        ]
      },
      "type": "Feature",
      "properties": {
        "hierarchy": [
          "tgn:7561813",
          "tgn:1000004",
          "tgn:7000198",
          "tgn:7016722",
          "tgn:7029392"
        ],
        "placetype": [
          "aat:300008347"
        ],
        "name:en": "Būncha Nagla",
        "id": 7561813
      }
    },
    {
      "geometry": {
        "type": "Point",
        "coordinates": [
          79.199995,
          28.000053
        ]
      },
      "type": "Feature",
      "properties": {
        "hierarchy": [
          "tgn:7561814",
          "tgn:1000004",
          "tgn:7000198",
          "tgn:7016722",
          "tgn:7029392"
        ],
        "placetype": [
          "aat:300008347"
        ],
        "name:en": "Bībīpur",
        "id": 7561814
      }
    },
    {
      "geometry": {
        "type": "Point",
        "coordinates": [
          79.161681,
          28.000438
        ]
      },
      "type": "Feature",
      "properties": {
        "hierarchy": [
          "tgn:7561815",
          "tgn:1000004",
          "tgn:7000198",
          "tgn:7016722",
          "tgn:7029392"
        ],
        "placetype": [
          "aat:300008347"
        ],
        "name:en": "Padhaua",
        "id": 7561815
      }
    },
    {
      "geometry": {
        "type": "Point",
        "coordinates": [
          79.168405,
          27.992603
        ]
      },
      "type": "Feature",
      "properties": {
        "hierarchy": [
          "tgn:7561816",
          "tgn:1000004",
          "tgn:7000198",
          "tgn:7016722",
          "tgn:7029392"
        ],
        "placetype": [
          "aat:300008347"
        ],
        "name:en": "Mānpur Kanchaura",
        "id": 7561816
      }
    },
    {
      "geometry": {
        "type": "Point",
        "coordinates": [
          79.15265,
          27.996329
        ]
      },
      "type": "Feature",
      "properties": {
        "hierarchy": [
          "tgn:7561817",
          "tgn:1000004",
          "tgn:7000198",
          "tgn:7016722",
          "tgn:7029392"
        ],
        "placetype": [
          "aat:300008347"
        ],
        "name:en": "Rasūlpur Bilāhri",
        "id": 7561817
      }
    },
    {
      "geometry": {
        "type": "Point",
        "coordinates": [
          79.0186,
          26.7931
        ]
      },
      "type": "Feature",
      "properties": {
        "hierarchy": [
          "tgn:7561818",
          "tgn:1000004",
          "tgn:7000198",
          "tgn:7016722",
          "tgn:7029392"
        ],
        "placetype": [
          "aat:300008347"
        ],
        "name:en": "Rāmnagar",
        "id": 7561818
      }
    },
    {
      "geometry": {
        "type": "Point",
        "coordinates": [
          79.038579,
          26.801866
        ]
      },
      "type": "Feature",
      "properties": {
        "hierarchy": [
          "tgn:7561819",
          "tgn:1000004",
          "tgn:7000198",
          "tgn:7016722",
          "tgn:7029392"
        ],
        "placetype": [
          "aat:300008347"
        ],
        "name:en": "Gaurāpur",
        "id": 7561819
      }
    }
  ]
}
