{
  "type": "FeatureCollection",
  "features": [
    {
      "geometry": {
        "type": "Point",
        "coordinates": [
          78.2975,
          17.708056
        ]
      },
      "type": "Feature",
      "properties": {
        "hierarchy": [
          "tgn:7567120",
          "tgn:1001828",
          "tgn:1000004",
          "tgn:7000198",
          "tgn:7029392"
        ],
        "placetype": [
          "aat:300008347"
        ],
        "name:en": "Kundāpur",
        "id": 7567120
      }
    },
    {
      "geometry": {
        "type": "Point",
        "coordinates": [
          78.859167,
          17.9725
        ]
      },
      "type": "Feature",
      "properties": {
        "hierarchy": [
          "tgn:7567121",
          "tgn:1001828",
          "tgn:1000004",
          "tgn:7000198",
          "tgn:7029392"
        ],
        "placetype": [
          "aat:300008347"
        ],
        "name:en": "Kundapāk",
        "id": 7567121
      }
    },
    {
      "geometry": {
        "type": "Point",
        "coordinates": [
          78.198889,
          17.955278
        ]
      },
      "type": "Feature",
      "properties": {
        "hierarchy": [
          "tgn:7567122",
          "tgn:1001828",
          "tgn:1000004",
          "tgn:7000198",
          "tgn:7029392"
        ],
        "placetype": [
          "aat:300008347"
        ],
        "name:en": "Kulsaram",
        "id": 7567122
      }
    },
    {
      "geometry": {
        "type": "Point",
        "coordinates": [
          78.295556,
          17.550833
        ]
      },
      "type": "Feature",
      "properties": {
        "hierarchy": [
          "tgn:7567123",
          "tgn:1001828",
          "tgn:1000004",
          "tgn:7000198",
          "tgn:7029392"
        ],
        "placetype": [
          "aat:300008347"
        ],
        "name:en": "Krishnareddipet",
        "id": 7567123
      }
    },
    {
      "geometry": {
        "type": "Point",
        "coordinates": [
          78.330833,
          17.823056
        ]
      },
      "type": "Feature",
      "properties": {
        "hierarchy": [
          "tgn:7567124",
          "tgn:1001828",
          "tgn:1000004",
          "tgn:7000198",
          "tgn:7029392"
        ],
        "placetype": [
          "aat:300008347"
        ],
        "name:en": "Kottapeta",
        "id": 7567124
      }
    },
    {
      "geometry": {
        "type": "Point",
        "coordinates": [
          78.702778,
          17.688333
        ]
      },
      "type": "Feature",
      "properties": {
        "hierarchy": [
          "tgn:7567125",
          "tgn:1001828",
          "tgn:1000004",
          "tgn:7000198",
          "tgn:7029392"
        ],
        "placetype": [
          "aat:300008347"
        ],
        "name:en": "Kottal",
        "id": 7567125
      }
    },
    {
      "geometry": {
        "type": "Point",
        "coordinates": [
          78.259167,
          17.653056
        ]
      },
      "type": "Feature",
      "properties": {
        "hierarchy": [
          "tgn:7567126",
          "tgn:1001828",
          "tgn:1000004",
          "tgn:7000198",
          "tgn:7029392"
        ],
        "placetype": [
          "aat:300008347"
        ],
        "name:en": "Kottaguda",
        "id": 7567126
      }
    },
    {
      "geometry": {
        "type": "Point",
        "coordinates": [
          78.929722,
          17.771944
        ]
      },
      "type": "Feature",
      "properties": {
        "hierarchy": [
          "tgn:7567127",
          "tgn:1001828",
          "tgn:1000004",
          "tgn:7000198",
          "tgn:7029392"
        ],
        "placetype": [
          "aat:300008347"
        ],
        "name:en": "Korwāram",
        "id": 7567127
      }
    },
    {
      "geometry": {
        "type": "Point",
        "coordinates": [
          78.121944,
          17.713611
        ]
      },
      "type": "Feature",
      "properties": {
        "hierarchy": [
          "tgn:7567128",
          "tgn:1001828",
          "tgn:1000004",
          "tgn:7000198",
          "tgn:7029392"
        ],
        "placetype": [
          "aat:300008347"
        ],
        "name:en": "Korpol",
        "id": 7567128
      }
    },
    {
      "geometry": {
        "type": "Point",
        "coordinates": [
          78.141389,
          17.977778
        ]
      },
      "type": "Feature",
      "properties": {
        "hierarchy": [
          "tgn:7567129",
          "tgn:1001828",
          "tgn:1000004",
          "tgn:7000198",
          "tgn:7029392"
        ],
        "placetype": [
          "aat:300008347"
        ],
        "name:en": "Korpak",
        "id": 7567129
      }
    }
  ]
}
