{
  "type": "FeatureCollection",
  "features": [
    {
      "geometry": {
        "type": "Point",
        "coordinates": [
          78.604266,
          29.965232
        ]
      },
      "type": "Feature",
      "properties": {
        "hierarchy": [
          "tgn:7569550",
          "tgn:1000004",
          "tgn:7000198",
          "tgn:7031786",
          "tgn:7029392"
        ],
        "placetype": [
          "aat:300008347"
        ],
        "name:en": "Jītugaon",
        "id": 7569550
      }
    },
    {
      "geometry": {
        "type": "Point",
        "coordinates": [
          78.59966,
          29.967582
        ]
      },
      "type": "Feature",
      "properties": {
        "hierarchy": [
          "tgn:7569551",
          "tgn:1000004",
          "tgn:7000198",
          "tgn:7031786",
          "tgn:7029392"
        ],
        "placetype": [
          "aat:300008347"
        ],
        "name:en": "Sīla",
        "id": 7569551
      }
    },
    {
      "geometry": {
        "type": "Point",
        "coordinates": [
          78.587464,
          29.960035
        ]
      },
      "type": "Feature",
      "properties": {
        "hierarchy": [
          "tgn:7569552",
          "tgn:1000004",
          "tgn:7000198",
          "tgn:7031786",
          "tgn:7029392"
        ],
        "placetype": [
          "aat:300008347"
        ],
        "name:en": "Pāli",
        "id": 7569552
      }
    },
    {
      "geometry": {
        "type": "Point",
        "coordinates": [
          78.578418,
          29.963345
        ]
      },
      "type": "Feature",
      "properties": {
        "hierarchy": [
          "tgn:7569553",
          "tgn:1000004",
          "tgn:7000198",
          "tgn:7031786",
          "tgn:7029392"
        ],
        "placetype": [
          "aat:300008347"
        ],
        "name:en": "Masht",
        "id": 7569553
      }
    },
    {
      "geometry": {
        "type": "Point",
        "coordinates": [
          78.564655,
          29.964418
        ]
      },
      "type": "Feature",
      "properties": {
        "hierarchy": [
          "tgn:7569554",
          "tgn:1000004",
          "tgn:7000198",
          "tgn:7031786",
          "tgn:7029392"
        ],
        "placetype": [
          "aat:300008347"
        ],
        "name:en": "Kuthār",
        "id": 7569554
      }
    },
    {
      "geometry": {
        "type": "Point",
        "coordinates": [
          78.535,
          29.968611
        ]
      },
      "type": "Feature",
      "properties": {
        "hierarchy": [
          "tgn:7569555",
          "tgn:1000004",
          "tgn:7000198",
          "tgn:7031786",
          "tgn:7029392"
        ],
        "placetype": [
          "aat:300008347"
        ],
        "name:en": "Garhkat",
        "id": 7569555
      }
    },
    {
      "geometry": {
        "type": "Point",
        "coordinates": [
          78.744669,
          29.975491
        ]
      },
      "type": "Feature",
      "properties": {
        "hierarchy": [
          "tgn:7569556",
          "tgn:1000004",
          "tgn:7000198",
          "tgn:7031786",
          "tgn:7029392"
        ],
        "placetype": [
          "aat:300008347"
        ],
        "name:en": "Balūnīgaon",
        "id": 7569556
      }
    },
    {
      "geometry": {
        "type": "Point",
        "coordinates": [
          78.738729,
          29.979616
        ]
      },
      "type": "Feature",
      "properties": {
        "hierarchy": [
          "tgn:7569557",
          "tgn:1000004",
          "tgn:7000198",
          "tgn:7031786",
          "tgn:7029392"
        ],
        "placetype": [
          "aat:300008347"
        ],
        "name:en": "Silun",
        "id": 7569557
      }
    },
    {
      "geometry": {
        "type": "Point",
        "coordinates": [
          78.734025,
          29.978822
        ]
      },
      "type": "Feature",
      "properties": {
        "hierarchy": [
          "tgn:7569558",
          "tgn:1000004",
          "tgn:7000198",
          "tgn:7031786",
          "tgn:7029392"
        ],
        "placetype": [
          "aat:300008347"
        ],
        "name:en": "Kingori",
        "id": 7569558
      }
    },
    {
      "geometry": {
        "type": "Point",
        "coordinates": [
          78.730593,
          29.975967
        ]
      },
      "type": "Feature",
      "properties": {
        "hierarchy": [
          "tgn:7569559",
          "tgn:1000004",
          "tgn:7000198",
          "tgn:7031786",
          "tgn:7029392"
        ],
        "placetype": [
          "aat:300008347"
        ],
        "name:en": "Khugsa",
        "id": 7569559
      }
    }
  ]
}
