{
  "type": "FeatureCollection",
  "features": [
    {
      "geometry": {
        "coordinates": [
          8.768611,
          50.698056
        ],
        "type": "Point"
      },
      "type": "Feature",
      "properties": {
        "hierarchy": [
          "tgn:7077070",
          "tgn:1000003",
          "tgn:7003678",
          "tgn:7000084",
          "tgn:7029392"
        ],
        "placetype": [
          "aat:300387145"
        ],
        "id": 7077070,
        "name:xx": "Regierungsbezirk Gießen"
      }
    },
    {
      "geometry": {
        "coordinates": [
          8.578056,
          53.561389
        ],
        "type": "Point"
      },
      "type": "Feature",
      "properties": {
        "hierarchy": [
          "tgn:7077071",
          "tgn:7003672",
          "tgn:1000003",
          "tgn:7000084",
          "tgn:7029392"
        ],
        "placetype": [
          "aat:300387198"
        ],
        "id": 7077071,
        "name:xx": "Kreisfreie Stadt Bremerhaven"
      }
    },
    {
      "geometry": {
        "coordinates": [
          8.7975,
          53.115278
        ],
        "type": "Point"
      },
      "type": "Feature",
      "properties": {
        "hierarchy": [
          "tgn:7077072",
          "tgn:7003672",
          "tgn:1000003",
          "tgn:7000084",
          "tgn:7029392"
        ],
        "placetype": [
          "aat:300387198"
        ],
        "id": 7077072,
        "name:xx": "Kreisfreie Stadt Bremen"
      }
    },
    {
      "geometry": {
        "coordinates": [
          9.954167,
          49.796389
        ],
        "type": "Point"
      },
      "type": "Feature",
      "properties": {
        "hierarchy": [
          "tgn:7077073",
          "tgn:7003669",
          "tgn:1000003",
          "tgn:7000084",
          "tgn:7029392"
        ],
        "placetype": [
          "aat:300387198"
        ],
        "id": 7077073,
        "name:xx": "Landkreis Würzburg"
      }
    },
    {
      "geometry": {
        "coordinates": [
          10.2325,
          50.046389
        ],
        "type": "Point"
      },
      "type": "Feature",
      "properties": {
        "hierarchy": [
          "tgn:7077075",
          "tgn:7003669",
          "tgn:1000003",
          "tgn:7000084",
          "tgn:7029392"
        ],
        "placetype": [
          "aat:300387198"
        ],
        "id": 7077075,
        "name:xx": "Landkreis Schweinfurt"
      }
    },
    {
      "geometry": {
        "coordinates": [
          9.228611,
          49.774167
        ],
        "type": "Point"
      },
      "type": "Feature",
      "properties": {
        "hierarchy": [
          "tgn:7077077",
          "tgn:7003669",
          "tgn:1000003",
          "tgn:7000084",
          "tgn:7029392"
        ],
        "placetype": [
          "aat:300387198"
        ],
        "id": 7077077,
        "name:xx": "Landkreis Miltenberg"
      }
    },
    {
      "geometry": {
        "coordinates": [
          9.693333,
          50.005556
        ],
        "type": "Point"
      },
      "type": "Feature",
      "properties": {
        "hierarchy": [
          "tgn:7077078",
          "tgn:7003669",
          "tgn:1000003",
          "tgn:7000084",
          "tgn:7029392"
        ],
        "placetype": [
          "aat:300387198"
        ],
        "id": 7077078,
        "name:xx": "Landkreis Main-Spessart"
      }
    },
    {
      "geometry": {
        "coordinates": [
          10.281111,
          49.769722
        ],
        "type": "Point"
      },
      "type": "Feature",
      "properties": {
        "hierarchy": [
          "tgn:7077079",
          "tgn:7003669",
          "tgn:1000003",
          "tgn:7000084",
          "tgn:7029392"
        ],
        "placetype": [
          "aat:300387198"
        ],
        "id": 7077079,
        "name:xx": "Landkreis Kitzingen"
      }
    }
  ]
}
