{
  "type": "FeatureCollection",
  "features": [
    {
      "geometry": {
        "type": "Point",
        "coordinates": [
          33.938379,
          28.670252
        ]
      },
      "type": "Feature",
      "properties": {
        "hierarchy": [
          "tgn:7525700",
          "tgn:7001242",
          "tgn:7016833",
          "tgn:7001336",
          "tgn:7029392"
        ],
        "placetype": [
          "aat:300008795"
        ],
        "name:en": "Banāt, Jabal al",
        "id": 7525700
      }
    },
    {
      "geometry": {
        "type": "Point",
        "coordinates": [
          30.075278,
          30.844167
        ]
      },
      "type": "Feature",
      "properties": {
        "hierarchy": [
          "tgn:7525701",
          "tgn:7001242",
          "tgn:1001075",
          "tgn:7016833",
          "tgn:7029392"
        ],
        "placetype": [
          "aat:300007558"
        ],
        "name:en": "Ḍarîḥ el-Banât",
        "id": 7525701
      }
    },
    {
      "geometry": {
        "type": "Point",
        "coordinates": [
          30.786389,
          28.754167
        ]
      },
      "type": "Feature",
      "properties": {
        "hierarchy": [
          "tgn:7525703",
          "tgn:7001242",
          "tgn:7016833",
          "tgn:1001088",
          "tgn:7029392"
        ],
        "placetype": [
          "aat:300008347"
        ],
        "name:en": "Bān al 'Alam",
        "id": 7525703
      }
    },
    {
      "geometry": {
        "type": "Point",
        "coordinates": [
          31.401731,
          30.566901
        ]
      },
      "type": "Feature",
      "properties": {
        "hierarchy": [
          "tgn:7525704",
          "tgn:7001242",
          "tgn:7016833",
          "tgn:1001113",
          "tgn:7029392"
        ],
        "placetype": [
          "aat:300008347"
        ],
        "id": 7525704,
        "name:xx": "Banadf"
      }
    },
    {
      "geometry": {
        "type": "Point",
        "coordinates": [
          31.234697,
          30.881647
        ]
      },
      "type": "Feature",
      "properties": {
        "hierarchy": [
          "tgn:7525705",
          "tgn:7001242",
          "tgn:7016833",
          "tgn:7001312",
          "tgn:7029392"
        ],
        "placetype": [
          "aat:300008347"
        ],
        "name:en": "Banā Abū Şīr",
        "id": 7525705
      }
    },
    {
      "geometry": {
        "type": "Point",
        "coordinates": [
          34.068889,
          30.369444
        ]
      },
      "type": "Feature",
      "properties": {
        "hierarchy": [
          "tgn:7525707",
          "tgn:7001242",
          "tgn:7016833",
          "tgn:7001335",
          "tgn:7029392"
        ],
        "placetype": [
          "aat:300379998"
        ],
        "id": 7525707,
        "name:xx": "Baluhi, Wâdi el-"
      }
    },
    {
      "geometry": {
        "type": "Point",
        "coordinates": [
          30.843179,
          27.370047
        ]
      },
      "type": "Feature",
      "properties": {
        "hierarchy": [
          "tgn:7525709",
          "tgn:7001242",
          "tgn:7016833",
          "tgn:1001114",
          "tgn:7029392"
        ],
        "placetype": [
          "aat:300008347"
        ],
        "name:en": "Ballūţ",
        "id": 7525709
      }
    }
  ]
}
