{
  "type": "FeatureCollection",
  "features": [
    {
      "geometry": {
        "type": "Point",
        "coordinates": [
          -101.576389,
          21.265556
        ]
      },
      "type": "Feature",
      "properties": {
        "hierarchy": [
          "tgn:7421390",
          "tgn:7005584",
          "tgn:1000001",
          "tgn:7005560",
          "tgn:7029392"
        ],
        "placetype": [
          "aat:300008347"
        ],
        "id": 7421390,
        "name:xx": "Buenos Aires"
      }
    },
    {
      "geometry": {
        "type": "Point",
        "coordinates": [
          -101.706944,
          21.181389
        ]
      },
      "type": "Feature",
      "properties": {
        "hierarchy": [
          "tgn:7421391",
          "tgn:7005584",
          "tgn:1000001",
          "tgn:7005560",
          "tgn:7029392"
        ],
        "placetype": [
          "aat:300008347"
        ],
        "id": 7421391,
        "name:xx": "Chichiguas"
      }
    },
    {
      "geometry": {
        "type": "Point",
        "coordinates": [
          -101.708889,
          21.217778
        ]
      },
      "type": "Feature",
      "properties": {
        "hierarchy": [
          "tgn:7421392",
          "tgn:7005584",
          "tgn:1000001",
          "tgn:7005560",
          "tgn:7029392"
        ],
        "placetype": [
          "aat:300008347"
        ],
        "id": 7421392,
        "name:xx": "Providencia"
      }
    },
    {
      "geometry": {
        "type": "Point",
        "coordinates": [
          -101.748889,
          21.248056
        ]
      },
      "type": "Feature",
      "properties": {
        "hierarchy": [
          "tgn:7421393",
          "tgn:7005584",
          "tgn:1000001",
          "tgn:7005560",
          "tgn:7029392"
        ],
        "placetype": [
          "aat:300008795"
        ],
        "id": 7421393,
        "name:xx": "Alto, Cerro"
      }
    },
    {
      "geometry": {
        "type": "Point",
        "coordinates": [
          -101.709167,
          21.231111
        ]
      },
      "type": "Feature",
      "properties": {
        "hierarchy": [
          "tgn:7421394",
          "tgn:7005584",
          "tgn:1000001",
          "tgn:7005560",
          "tgn:7029392"
        ],
        "placetype": [
          "aat:300008347"
        ],
        "id": 7421394,
        "name:xx": "Hacienda de Arriba"
      }
    },
    {
      "geometry": {
        "type": "Point",
        "coordinates": [
          -101.7525,
          21.191944
        ]
      },
      "type": "Feature",
      "properties": {
        "hierarchy": [
          "tgn:7421395",
          "tgn:7005584",
          "tgn:1000001",
          "tgn:7005560",
          "tgn:7029392"
        ],
        "placetype": [
          "aat:300008347"
        ],
        "id": 7421395,
        "name:xx": "Granjas"
      }
    },
    {
      "geometry": {
        "type": "Point",
        "coordinates": [
          -101.826389,
          21.016389
        ]
      },
      "type": "Feature",
      "properties": {
        "hierarchy": [
          "tgn:7421396",
          "tgn:7005584",
          "tgn:1000001",
          "tgn:7005560",
          "tgn:7029392"
        ],
        "placetype": [
          "aat:300008347"
        ],
        "id": 7421396,
        "name:xx": "Guadalupe"
      }
    },
    {
      "geometry": {
        "type": "Point",
        "coordinates": [
          -101.718611,
          21.03
        ]
      },
      "type": "Feature",
      "properties": {
        "hierarchy": [
          "tgn:7421397",
          "tgn:7005584",
          "tgn:1000001",
          "tgn:7005560",
          "tgn:7029392"
        ],
        "placetype": [
          "aat:300008347"
        ],
        "id": 7421397,
        "name:xx": "San Pedro del Monte"
      }
    },
    {
      "geometry": {
        "type": "Point",
        "coordinates": [
          -101.788889,
          21.000556
        ]
      },
      "type": "Feature",
      "properties": {
        "hierarchy": [
          "tgn:7421398",
          "tgn:7005584",
          "tgn:1000001",
          "tgn:7005560",
          "tgn:7029392"
        ],
        "placetype": [
          "aat:300008347"
        ],
        "id": 7421398,
        "name:xx": "Loma de San Rafael"
      }
    },
    {
      "geometry": {
        "type": "Point",
        "coordinates": [
          -101.749444,
          21.0175
        ]
      },
      "type": "Feature",
      "properties": {
        "hierarchy": [
          "tgn:7421399",
          "tgn:7005584",
          "tgn:1000001",
          "tgn:7005560",
          "tgn:7029392"
        ],
        "placetype": [
          "aat:300008347"
        ],
        "id": 7421399,
        "name:xx": "Los Sapos"
      }
    }
  ]
}
