{
  "type": "FeatureCollection",
  "features": [
    {
      "geometry": {
        "type": "Point",
        "coordinates": [
          79.504926,
          27.707043
        ]
      },
      "type": "Feature",
      "properties": {
        "hierarchy": [
          "tgn:7563120",
          "tgn:1000004",
          "tgn:7000198",
          "tgn:7016722",
          "tgn:7029392"
        ],
        "placetype": [
          "aat:300008347"
        ],
        "name:en": "Sherpur Kuria",
        "id": 7563120
      }
    },
    {
      "geometry": {
        "type": "Point",
        "coordinates": [
          79.539911,
          27.704042
        ]
      },
      "type": "Feature",
      "properties": {
        "hierarchy": [
          "tgn:7563121",
          "tgn:1000004",
          "tgn:7000198",
          "tgn:7016722",
          "tgn:7029392"
        ],
        "placetype": [
          "aat:300008347"
        ],
        "name:en": "Bhaunti",
        "id": 7563121
      }
    },
    {
      "geometry": {
        "type": "Point",
        "coordinates": [
          79.543181,
          27.707827
        ]
      },
      "type": "Feature",
      "properties": {
        "hierarchy": [
          "tgn:7563122",
          "tgn:1000004",
          "tgn:7000198",
          "tgn:7016722",
          "tgn:7029392"
        ],
        "placetype": [
          "aat:300008347"
        ],
        "name:en": "Tilha",
        "id": 7563122
      }
    },
    {
      "geometry": {
        "type": "Point",
        "coordinates": [
          79.558412,
          27.706896
        ]
      },
      "type": "Feature",
      "properties": {
        "hierarchy": [
          "tgn:7563123",
          "tgn:1000004",
          "tgn:7000198",
          "tgn:7016722",
          "tgn:7029392"
        ],
        "placetype": [
          "aat:300008347"
        ],
        "name:en": "Chatarpur",
        "id": 7563123
      }
    },
    {
      "geometry": {
        "type": "Point",
        "coordinates": [
          79.551949,
          27.708169
        ]
      },
      "type": "Feature",
      "properties": {
        "hierarchy": [
          "tgn:7563124",
          "tgn:1000004",
          "tgn:7000198",
          "tgn:7016722",
          "tgn:7029392"
        ],
        "placetype": [
          "aat:300008347"
        ],
        "name:en": "Madūra",
        "id": 7563124
      }
    },
    {
      "geometry": {
        "type": "Point",
        "coordinates": [
          79.56087,
          27.709662
        ]
      },
      "type": "Feature",
      "properties": {
        "hierarchy": [
          "tgn:7563125",
          "tgn:1000004",
          "tgn:7000198",
          "tgn:7016722",
          "tgn:7029392"
        ],
        "placetype": [
          "aat:300008347"
        ],
        "name:en": "Māhdopur",
        "id": 7563125
      }
    },
    {
      "geometry": {
        "type": "Point",
        "coordinates": [
          79.551535,
          27.715609
        ]
      },
      "type": "Feature",
      "properties": {
        "hierarchy": [
          "tgn:7563126",
          "tgn:1000004",
          "tgn:7000198",
          "tgn:7016722",
          "tgn:7029392"
        ],
        "placetype": [
          "aat:300008347"
        ],
        "name:en": "Kilāpur Kalān",
        "id": 7563126
      }
    },
    {
      "geometry": {
        "type": "Point",
        "coordinates": [
          79.544466,
          27.719132
        ]
      },
      "type": "Feature",
      "properties": {
        "hierarchy": [
          "tgn:7563127",
          "tgn:1000004",
          "tgn:7000198",
          "tgn:7016722",
          "tgn:7029392"
        ],
        "placetype": [
          "aat:300008347"
        ],
        "name:en": "Tāuspur",
        "id": 7563127
      }
    },
    {
      "geometry": {
        "type": "Point",
        "coordinates": [
          79.519823,
          27.713973
        ]
      },
      "type": "Feature",
      "properties": {
        "hierarchy": [
          "tgn:7563128",
          "tgn:1000004",
          "tgn:7000198",
          "tgn:7016722",
          "tgn:7029392"
        ],
        "placetype": [
          "aat:300008347"
        ],
        "name:en": "Sunhara",
        "id": 7563128
      }
    },
    {
      "geometry": {
        "type": "Point",
        "coordinates": [
          79.532798,
          27.717398
        ]
      },
      "type": "Feature",
      "properties": {
        "hierarchy": [
          "tgn:7563129",
          "tgn:1000004",
          "tgn:7000198",
          "tgn:7016722",
          "tgn:7029392"
        ],
        "placetype": [
          "aat:300008347"
        ],
        "name:en": "Hariharpur",
        "id": 7563129
      }
    }
  ]
}
