{
  "type": "FeatureCollection",
  "features": [
    {
      "geometry": {
        "type": "Point",
        "coordinates": [
          121.000556,
          22.683056
        ]
      },
      "type": "Feature",
      "properties": {
        "hierarchy": [
          "tgn:7503830",
          "tgn:1000004",
          "tgn:7491221",
          "tgn:1000141",
          "tgn:7029392"
        ],
        "placetype": [
          "aat:300008347"
        ],
        "id": 7503830,
        "name:xx": "Qianbancuo"
      }
    },
    {
      "geometry": {
        "type": "Point",
        "coordinates": [
          121.005833,
          22.684444
        ]
      },
      "type": "Feature",
      "properties": {
        "hierarchy": [
          "tgn:7503831",
          "tgn:1000004",
          "tgn:7491221",
          "tgn:1000141",
          "tgn:7029392"
        ],
        "placetype": [
          "aat:300006495"
        ],
        "id": 7503831,
        "name:xx": "Leshan Guoxiao"
      }
    },
    {
      "geometry": {
        "type": "Point",
        "coordinates": [
          121.006944,
          22.692778
        ]
      },
      "type": "Feature",
      "properties": {
        "hierarchy": [
          "tgn:7503832",
          "tgn:1000004",
          "tgn:7491221",
          "tgn:1000141",
          "tgn:7029392"
        ],
        "placetype": [
          "aat:300007595"
        ],
        "id": 7503832,
        "name:xx": "Qingjue Si"
      }
    },
    {
      "geometry": {
        "type": "Point",
        "coordinates": [
          120.991111,
          22.687778
        ]
      },
      "type": "Feature",
      "properties": {
        "hierarchy": [
          "tgn:7503833",
          "tgn:1000004",
          "tgn:7491221",
          "tgn:1000141",
          "tgn:7029392"
        ],
        "placetype": [
          "aat:300005567"
        ],
        "id": 7503833,
        "name:xx": "Zhiben Shanzhuang"
      }
    },
    {
      "geometry": {
        "type": "Point",
        "coordinates": [
          120.9925,
          22.689722
        ]
      },
      "type": "Feature",
      "properties": {
        "hierarchy": [
          "tgn:7503834",
          "tgn:1000004",
          "tgn:7491221",
          "tgn:1000141",
          "tgn:7029392"
        ],
        "placetype": [
          "aat:300007836"
        ],
        "id": 7503834,
        "name:xx": "Guanlin Diaoqiao"
      }
    },
    {
      "geometry": {
        "type": "Point",
        "coordinates": [
          120.989722,
          22.6925
        ]
      },
      "type": "Feature",
      "properties": {
        "hierarchy": [
          "tgn:7503835",
          "tgn:1000004",
          "tgn:7491221",
          "tgn:1000141",
          "tgn:7029392"
        ],
        "placetype": [
          "aat:300008187"
        ],
        "id": 7503835,
        "name:xx": "Zhiben Senlin Youlequ"
      }
    },
    {
      "geometry": {
        "type": "Point",
        "coordinates": [
          121.003889,
          22.726944
        ]
      },
      "type": "Feature",
      "properties": {
        "hierarchy": [
          "tgn:7503837",
          "tgn:1000004",
          "tgn:7491221",
          "tgn:1000141",
          "tgn:7029392"
        ],
        "placetype": [
          "aat:300008798"
        ],
        "id": 7503837,
        "name:xx": "Zhuifen Shan"
      }
    },
    {
      "geometry": {
        "type": "Point",
        "coordinates": [
          120.889167,
          22.712778
        ]
      },
      "type": "Feature",
      "properties": {
        "hierarchy": [
          "tgn:7503838",
          "tgn:1000004",
          "tgn:7491221",
          "tgn:1000141",
          "tgn:7029392"
        ],
        "placetype": [
          "aat:300008798"
        ],
        "id": 7503838,
        "name:xx": "Dou Shan"
      }
    }
  ]
}
