{
  "type": "FeatureCollection",
  "features": [
    {
      "geometry": {
        "type": "Point",
        "coordinates": [
          120.780503,
          24.447116
        ]
      },
      "type": "Feature",
      "properties": {
        "hierarchy": [
          "tgn:7496651",
          "tgn:7487020",
          "tgn:1000004",
          "tgn:1000141",
          "tgn:7029392"
        ],
        "placetype": [
          "aat:300008347"
        ],
        "id": 7496651,
        "name:xx": "Dongpian"
      }
    },
    {
      "geometry": {
        "type": "Point",
        "coordinates": [
          120.799808,
          24.296779
        ]
      },
      "type": "Feature",
      "properties": {
        "hierarchy": [
          "tgn:7496652",
          "tgn:7487020",
          "tgn:1000004",
          "tgn:1000141",
          "tgn:7029392"
        ],
        "placetype": [
          "aat:300008347"
        ],
        "id": 7496652,
        "name:xx": "Tianhuajing"
      }
    },
    {
      "geometry": {
        "type": "Point",
        "coordinates": [
          120.814589,
          24.262062
        ]
      },
      "type": "Feature",
      "properties": {
        "hierarchy": [
          "tgn:7496653",
          "tgn:1000004",
          "tgn:7001009",
          "tgn:1000141",
          "tgn:7029392"
        ],
        "placetype": [
          "aat:300008347"
        ],
        "id": 7496653,
        "name:xx": "Liancuo"
      }
    },
    {
      "geometry": {
        "type": "Point",
        "coordinates": [
          120.8619,
          24.34
        ]
      },
      "type": "Feature",
      "properties": {
        "hierarchy": [
          "tgn:7496654",
          "tgn:1000004",
          "tgn:7001009",
          "tgn:1000141",
          "tgn:7029392"
        ],
        "placetype": [
          "aat:300008347"
        ],
        "id": 7496654,
        "name:xx": "Guizhulin"
      }
    },
    {
      "geometry": {
        "type": "Point",
        "coordinates": [
          120.839999,
          24.417068
        ]
      },
      "type": "Feature",
      "properties": {
        "hierarchy": [
          "tgn:7496655",
          "tgn:7487020",
          "tgn:1000004",
          "tgn:1000141",
          "tgn:7029392"
        ],
        "placetype": [
          "aat:300008798"
        ],
        "id": 7496655,
        "name:xx": "Dajuedong Shan"
      }
    },
    {
      "geometry": {
        "type": "Point",
        "coordinates": [
          120.839143,
          24.410043
        ]
      },
      "type": "Feature",
      "properties": {
        "hierarchy": [
          "tgn:7496656",
          "tgn:7487020",
          "tgn:1000004",
          "tgn:1000141",
          "tgn:7029392"
        ],
        "placetype": [
          "aat:300008798"
        ],
        "id": 7496656,
        "name:xx": "Shifendong Shan"
      }
    },
    {
      "geometry": {
        "type": "Point",
        "coordinates": [
          120.842277,
          24.412567
        ]
      },
      "type": "Feature",
      "properties": {
        "hierarchy": [
          "tgn:7496657",
          "tgn:7487020",
          "tgn:1000004",
          "tgn:1000141",
          "tgn:7029392"
        ],
        "placetype": [
          "aat:300008347"
        ],
        "id": 7496657,
        "name:xx": "Shifendong"
      }
    },
    {
      "geometry": {
        "type": "Point",
        "coordinates": [
          120.837122,
          24.337601
        ]
      },
      "type": "Feature",
      "properties": {
        "hierarchy": [
          "tgn:7496658",
          "tgn:7487020",
          "tgn:1000004",
          "tgn:1000141",
          "tgn:7029392"
        ],
        "placetype": [
          "aat:300008347"
        ],
        "id": 7496658,
        "name:xx": "Hudikeng"
      }
    },
    {
      "geometry": {
        "type": "Point",
        "coordinates": [
          120.834276,
          24.338589
        ]
      },
      "type": "Feature",
      "properties": {
        "hierarchy": [
          "tgn:7496659",
          "tgn:7487020",
          "tgn:1000004",
          "tgn:1000141",
          "tgn:7029392"
        ],
        "placetype": [
          "aat:300008347"
        ],
        "id": 7496659,
        "name:xx": "Wenshuikeng"
      }
    }
  ]
}
