{
  "type": "FeatureCollection",
  "features": [
    {
      "geometry": {
        "type": "Point",
        "coordinates": [
          121.029722,
          24.0925
        ]
      },
      "type": "Feature",
      "properties": {
        "hierarchy": [
          "tgn:7485000",
          "tgn:7488858",
          "tgn:1000004",
          "tgn:1000141",
          "tgn:7029392"
        ],
        "placetype": [
          "aat:300008795"
        ],
        "id": 7485000,
        "name:xx": "Songfeng Shan"
      }
    },
    {
      "geometry": {
        "type": "Point",
        "coordinates": [
          121.026667,
          24.0975
        ]
      },
      "type": "Feature",
      "properties": {
        "hierarchy": [
          "tgn:7485001",
          "tgn:7488858",
          "tgn:1000004",
          "tgn:1000141",
          "tgn:7029392"
        ],
        "placetype": [
          "aat:300008347"
        ],
        "id": 7485001,
        "name:xx": "Fenglinping"
      }
    },
    {
      "geometry": {
        "type": "Point",
        "coordinates": [
          121.012778,
          24.132778
        ]
      },
      "type": "Feature",
      "properties": {
        "hierarchy": [
          "tgn:7485002",
          "tgn:7488858",
          "tgn:1000004",
          "tgn:1000141",
          "tgn:7029392"
        ],
        "placetype": [
          "aat:300387503"
        ],
        "id": 7485002,
        "name:xx": "Linwuju Meiyuan Huguansuo"
      }
    },
    {
      "geometry": {
        "type": "Point",
        "coordinates": [
          121.214167,
          24.042222
        ]
      },
      "type": "Feature",
      "properties": {
        "hierarchy": [
          "tgn:7485003",
          "tgn:7488858",
          "tgn:1000004",
          "tgn:1000141",
          "tgn:7029392"
        ],
        "placetype": [
          "aat:300008347"
        ],
        "id": 7485003,
        "name:xx": "Shisanwan"
      }
    },
    {
      "geometry": {
        "type": "Point",
        "coordinates": [
          121.071389,
          24.170278
        ]
      },
      "type": "Feature",
      "properties": {
        "hierarchy": [
          "tgn:7485004",
          "tgn:7488858",
          "tgn:1000004",
          "tgn:1000141",
          "tgn:7029392"
        ],
        "placetype": [
          "aat:300008798"
        ],
        "id": 7485004,
        "name:xx": "Jiuxian Shan"
      }
    },
    {
      "geometry": {
        "type": "Point",
        "coordinates": [
          121.192222,
          24.14
        ]
      },
      "type": "Feature",
      "properties": {
        "hierarchy": [
          "tgn:7485005",
          "tgn:7488858",
          "tgn:1000004",
          "tgn:1000141",
          "tgn:7029392"
        ],
        "placetype": [
          "aat:300007836"
        ],
        "id": 7485005,
        "name:xx": "Lixing Yihao Qiao"
      }
    },
    {
      "geometry": {
        "type": "Point",
        "coordinates": [
          121.228889,
          24.187778
        ]
      },
      "type": "Feature",
      "properties": {
        "hierarchy": [
          "tgn:7485006",
          "tgn:7488858",
          "tgn:1000004",
          "tgn:1000141",
          "tgn:7029392"
        ],
        "placetype": [
          "aat:300008347"
        ],
        "id": 7485006,
        "name:xx": "Huagang"
      }
    },
    {
      "geometry": {
        "type": "Point",
        "coordinates": [
          121.1775,
          24.143889
        ]
      },
      "type": "Feature",
      "properties": {
        "hierarchy": [
          "tgn:7485007",
          "tgn:7488858",
          "tgn:1000004",
          "tgn:1000141",
          "tgn:7029392"
        ],
        "placetype": [
          "aat:300007836"
        ],
        "id": 7485007,
        "name:xx": "Hongxiang Yihao Qiao"
      }
    },
    {
      "geometry": {
        "type": "Point",
        "coordinates": [
          121.214167,
          24.081389
        ]
      },
      "type": "Feature",
      "properties": {
        "hierarchy": [
          "tgn:7485008",
          "tgn:7488858",
          "tgn:1000004",
          "tgn:1000141",
          "tgn:7029392"
        ],
        "placetype": [
          "aat:300007836"
        ],
        "id": 7485008,
        "name:xx": "Jingguan Qiao"
      }
    },
    {
      "geometry": {
        "type": "Point",
        "coordinates": [
          121.18,
          24.151111
        ]
      },
      "type": "Feature",
      "properties": {
        "hierarchy": [
          "tgn:7485009",
          "tgn:7488858",
          "tgn:1000004",
          "tgn:1000141",
          "tgn:7029392"
        ],
        "placetype": [
          "aat:300008347"
        ],
        "id": 7485009,
        "name:xx": "Ximen"
      }
    }
  ]
}
