{
  "type": "FeatureCollection",
  "features": [
    {
      "geometry": {
        "type": "Point",
        "coordinates": [
          121.102184,
          25.058029
        ]
      },
      "type": "Feature",
      "properties": {
        "hierarchy": [
          "tgn:7467400",
          "tgn:1000004",
          "tgn:7001013",
          "tgn:1000141",
          "tgn:7029392"
        ],
        "placetype": [
          "aat:300008347"
        ],
        "id": 7467400,
        "name:xx": "Kantouzi"
      }
    },
    {
      "geometry": {
        "type": "Point",
        "coordinates": [
          121.592532,
          25.086108
        ]
      },
      "type": "Feature",
      "properties": {
        "hierarchy": [
          "tgn:7467401",
          "tgn:1000004",
          "tgn:1000959",
          "tgn:1000141",
          "tgn:7029392"
        ],
        "placetype": [
          "aat:300000745"
        ],
        "id": 7467401,
        "name:xx": "Jiantou"
      }
    },
    {
      "geometry": {
        "type": "Point",
        "coordinates": [
          121.151389,
          23.064722
        ]
      },
      "type": "Feature",
      "properties": {
        "hierarchy": [
          "tgn:7467402",
          "tgn:1000004",
          "tgn:7491221",
          "tgn:1000141",
          "tgn:7029392"
        ],
        "placetype": [
          "aat:300387173"
        ],
        "id": 7467402,
        "name:xx": "Kanding Cun"
      }
    },
    {
      "geometry": {
        "type": "Point",
        "coordinates": [
          120.445,
          23.264722
        ]
      },
      "type": "Feature",
      "properties": {
        "hierarchy": [
          "tgn:7467403",
          "tgn:1000004",
          "tgn:7490934",
          "tgn:1000141",
          "tgn:7029392"
        ],
        "placetype": [
          "aat:300008347"
        ],
        "id": 7467403,
        "name:xx": "Dongyuan"
      }
    },
    {
      "geometry": {
        "type": "Point",
        "coordinates": [
          121.529232,
          25.084249
        ]
      },
      "type": "Feature",
      "properties": {
        "hierarchy": [
          "tgn:7467404",
          "tgn:1000004",
          "tgn:1000959",
          "tgn:1000141",
          "tgn:7029392"
        ],
        "placetype": [
          "aat:300008777"
        ],
        "id": 7467404,
        "name:xx": "Jiantan Shan"
      }
    },
    {
      "geometry": {
        "type": "Point",
        "coordinates": [
          120.296667,
          23.443889
        ]
      },
      "type": "Feature",
      "properties": {
        "hierarchy": [
          "tgn:7467405",
          "tgn:7468018",
          "tgn:1000004",
          "tgn:1000141",
          "tgn:7029392"
        ],
        "placetype": [
          "aat:300008347"
        ],
        "id": 7467405,
        "name:xx": "Dinggangziqian"
      }
    },
    {
      "geometry": {
        "type": "Point",
        "coordinates": [
          120.252778,
          23.168889
        ]
      },
      "type": "Feature",
      "properties": {
        "hierarchy": [
          "tgn:7467406",
          "tgn:1000004",
          "tgn:7490934",
          "tgn:1000141",
          "tgn:7029392"
        ],
        "placetype": [
          "aat:300008347"
        ],
        "id": 7467406,
        "name:xx": "Qiantan"
      }
    },
    {
      "geometry": {
        "type": "Point",
        "coordinates": [
          121.1525,
          23.923333
        ]
      },
      "type": "Feature",
      "properties": {
        "hierarchy": [
          "tgn:7467407",
          "tgn:7488858",
          "tgn:1000004",
          "tgn:1000141",
          "tgn:7029392"
        ],
        "placetype": [
          "aat:300008798"
        ],
        "id": 7467407,
        "name:xx": "Jiantai Shan"
      }
    },
    {
      "geometry": {
        "type": "Point",
        "coordinates": [
          121.034167,
          22.703333
        ]
      },
      "type": "Feature",
      "properties": {
        "hierarchy": [
          "tgn:7467408",
          "tgn:1000004",
          "tgn:7491221",
          "tgn:1000141",
          "tgn:7029392"
        ],
        "placetype": [
          "aat:300007836"
        ],
        "id": 7467408,
        "name:xx": "Qiansui Qiao"
      }
    },
    {
      "geometry": {
        "type": "Point",
        "coordinates": [
          120.495,
          22.965
        ]
      },
      "type": "Feature",
      "properties": {
        "hierarchy": [
          "tgn:7467409",
          "tgn:7001004",
          "tgn:1000004",
          "tgn:1000141",
          "tgn:7029392"
        ],
        "placetype": [
          "aat:300008347"
        ],
        "id": 7467409,
        "name:xx": "Qianshuiliao"
      }
    }
  ]
}
