{
  "type": "FeatureCollection",
  "features": [
    {
      "geometry": {
        "type": "Point",
        "coordinates": [
          121.741351,
          25.140949
        ]
      },
      "type": "Feature",
      "properties": {
        "hierarchy": [
          "tgn:7486230",
          "tgn:1000957",
          "tgn:1000004",
          "tgn:1000141",
          "tgn:7029392"
        ],
        "placetype": [
          "aat:300008678"
        ],
        "id": 7486230,
        "name:xx": "Niuchou Gang"
      }
    },
    {
      "geometry": {
        "type": "Point",
        "coordinates": [
          120.871667,
          23.656667
        ]
      },
      "type": "Feature",
      "properties": {
        "hierarchy": [
          "tgn:7486231",
          "tgn:7488858",
          "tgn:1000004",
          "tgn:1000141",
          "tgn:7029392"
        ],
        "placetype": [
          "aat:300008699"
        ],
        "id": 7486231,
        "name:xx": "Niuchoukeng Xi"
      }
    },
    {
      "geometry": {
        "type": "Point",
        "coordinates": [
          120.4511,
          22.566477
        ]
      },
      "type": "Feature",
      "properties": {
        "hierarchy": [
          "tgn:7486232",
          "tgn:1000004",
          "tgn:7492971",
          "tgn:1000141",
          "tgn:7029392"
        ],
        "placetype": [
          "aat:300008699"
        ],
        "id": 7486232,
        "name:xx": "Niuchou Xi"
      }
    },
    {
      "geometry": {
        "type": "Point",
        "coordinates": [
          120.405053,
          23.884639
        ]
      },
      "type": "Feature",
      "properties": {
        "hierarchy": [
          "tgn:7486234",
          "tgn:1000004",
          "tgn:7467799",
          "tgn:1000141",
          "tgn:7029392"
        ],
        "placetype": [
          "aat:300008347"
        ],
        "id": 7486234,
        "name:xx": "Niuchouqiaotou"
      }
    },
    {
      "geometry": {
        "type": "Point",
        "coordinates": [
          120.37709,
          23.17442
        ]
      },
      "type": "Feature",
      "properties": {
        "hierarchy": [
          "tgn:7486235",
          "tgn:1000004",
          "tgn:7490934",
          "tgn:1000141",
          "tgn:7029392"
        ],
        "placetype": [
          "aat:300008347"
        ],
        "id": 7486235,
        "name:xx": "Niuchou"
      }
    },
    {
      "geometry": {
        "type": "Point",
        "coordinates": [
          120.49531,
          23.093
        ]
      },
      "type": "Feature",
      "properties": {
        "hierarchy": [
          "tgn:7486236",
          "tgn:1000004",
          "tgn:7490934",
          "tgn:1000141",
          "tgn:7029392"
        ],
        "placetype": [
          "aat:300008347"
        ],
        "id": 7486236,
        "name:xx": "Niubu"
      }
    },
    {
      "geometry": {
        "type": "Point",
        "coordinates": [
          120.216389,
          22.939167
        ]
      },
      "type": "Feature",
      "properties": {
        "hierarchy": [
          "tgn:7486237",
          "tgn:1000004",
          "tgn:7490934",
          "tgn:1000141",
          "tgn:7029392"
        ],
        "placetype": [
          "aat:300387173"
        ],
        "id": 7486237,
        "name:xx": "Chenggong Cun"
      }
    },
    {
      "geometry": {
        "type": "Point",
        "coordinates": [
          120.451389,
          22.948611
        ]
      },
      "type": "Feature",
      "properties": {
        "hierarchy": [
          "tgn:7486238",
          "tgn:7001004",
          "tgn:1000004",
          "tgn:1000141",
          "tgn:7029392"
        ],
        "placetype": [
          "aat:300008347"
        ],
        "id": 7486238,
        "name:xx": "Niuchoulun"
      }
    },
    {
      "geometry": {
        "type": "Point",
        "coordinates": [
          120.45,
          23.416667
        ]
      },
      "type": "Feature",
      "properties": {
        "hierarchy": [
          "tgn:7486239",
          "tgn:7468018",
          "tgn:1000004",
          "tgn:1000141",
          "tgn:7029392"
        ],
        "placetype": [
          "aat:300008347"
        ],
        "id": 7486239,
        "name:xx": "Niujiebu"
      }
    }
  ]
}
