{
  "type": "FeatureCollection",
  "features": [
    {
      "geometry": {
        "type": "Point",
        "coordinates": [
          170.65,
          -43.183333
        ]
      },
      "type": "Feature",
      "properties": {
        "hierarchy": [
          "tgn:7519590",
          "tgn:1009227",
          "tgn:1000226",
          "tgn:1000006",
          "tgn:7016850",
          "tgn:7029392"
        ],
        "placetype": [
          "aat:300008699"
        ],
        "name:en": "Adamson Creek",
        "id": 7519590
      }
    },
    {
      "geometry": {
        "type": "Point",
        "coordinates": [
          166.083333,
          -50.883333
        ]
      },
      "type": "Feature",
      "properties": {
        "hierarchy": [
          "tgn:7519591",
          "tgn:1009849",
          "tgn:1000226",
          "tgn:1000006",
          "tgn:7029392"
        ],
        "placetype": [
          "aat:300008791"
        ],
        "name:en": "Adams Island",
        "id": 7519591
      }
    },
    {
      "geometry": {
        "type": "Point",
        "coordinates": [
          169.133333,
          -45.116667
        ]
      },
      "type": "Feature",
      "properties": {
        "hierarchy": [
          "tgn:7519592",
          "tgn:1009227",
          "tgn:1000226",
          "tgn:7018437",
          "tgn:1000006",
          "tgn:7029392"
        ],
        "placetype": [
          "aat:300008767"
        ],
        "name:en": "Adams Gully",
        "id": 7519592
      }
    },
    {
      "geometry": {
        "type": "Point",
        "coordinates": [
          169.833333,
          -46.116667
        ]
      },
      "type": "Feature",
      "properties": {
        "hierarchy": [
          "tgn:7519593",
          "tgn:1009227",
          "tgn:1000226",
          "tgn:1000006",
          "tgn:7029392"
        ],
        "placetype": [
          "aat:300008347"
        ],
        "name:en": "Adams Flat",
        "id": 7519593
      }
    },
    {
      "geometry": {
        "type": "Point",
        "coordinates": [
          169.633333,
          -43.916667
        ]
      },
      "type": "Feature",
      "properties": {
        "hierarchy": [
          "tgn:7519594",
          "tgn:1009227",
          "tgn:1000226",
          "tgn:1000006",
          "tgn:7016850",
          "tgn:7029392"
        ],
        "placetype": [
          "aat:300008699"
        ],
        "name:en": "Adams Creek",
        "id": 7519594
      }
    },
    {
      "geometry": {
        "type": "Point",
        "coordinates": [
          170.516667,
          -43.266667
        ]
      },
      "type": "Feature",
      "properties": {
        "hierarchy": [
          "tgn:7519595",
          "tgn:1009227",
          "tgn:1000226",
          "tgn:1000006",
          "tgn:7016850",
          "tgn:7029392"
        ],
        "placetype": [
          "aat:300008795"
        ],
        "name:en": "Adams, Mount",
        "id": 7519595
      }
    },
    {
      "geometry": {
        "type": "Point",
        "coordinates": [
          167.866667,
          -44.716667
        ]
      },
      "type": "Feature",
      "properties": {
        "hierarchy": [
          "tgn:7519597",
          "tgn:1009227",
          "tgn:1000226",
          "tgn:7016822",
          "tgn:1000006",
          "tgn:7029392"
        ],
        "placetype": [
          "aat:300008680"
        ],
        "name:en": "Ada, Lake",
        "id": 7519597
      }
    },
    {
      "geometry": {
        "type": "Point",
        "coordinates": [
          168.416667,
          -45.666667
        ]
      },
      "type": "Feature",
      "properties": {
        "hierarchy": [
          "tgn:7519598",
          "tgn:1009227",
          "tgn:1000226",
          "tgn:7016822",
          "tgn:1000006",
          "tgn:7029392"
        ],
        "placetype": [
          "aat:300008699"
        ],
        "name:en": "Acton Stream",
        "id": 7519598
      }
    },
    {
      "geometry": {
        "type": "Point",
        "coordinates": [
          169.166667,
          -44.05
        ]
      },
      "type": "Feature",
      "properties": {
        "hierarchy": [
          "tgn:7519599",
          "tgn:1009227",
          "tgn:1000226",
          "tgn:1000006",
          "tgn:7016850",
          "tgn:7029392"
        ],
        "placetype": [
          "aat:300008795"
        ],
        "name:en": "Action, Mount",
        "id": 7519599
      }
    }
  ]
}
