{
  "type": "FeatureCollection",
  "features": [
    {
      "geometry": {
        "type": "Point",
        "coordinates": [
          79.907192,
          26.288368
        ]
      },
      "type": "Feature",
      "properties": {
        "hierarchy": [
          "tgn:7554390",
          "tgn:1000004",
          "tgn:7000198",
          "tgn:7016722",
          "tgn:7029392"
        ],
        "placetype": [
          "aat:300007783"
        ],
        "name:en": "Malāsa Railroad Station",
        "id": 7554390
      }
    },
    {
      "geometry": {
        "type": "Point",
        "coordinates": [
          79.940829,
          26.270068
        ]
      },
      "type": "Feature",
      "properties": {
        "hierarchy": [
          "tgn:7554391",
          "tgn:1000004",
          "tgn:7000198",
          "tgn:7016722",
          "tgn:7029392"
        ],
        "placetype": [
          "aat:300008347"
        ],
        "name:en": "Malāsa",
        "id": 7554391
      }
    },
    {
      "geometry": {
        "type": "Point",
        "coordinates": [
          76.472707,
          26.28903
        ]
      },
      "type": "Feature",
      "properties": {
        "hierarchy": [
          "tgn:7554392",
          "tgn:1000004",
          "tgn:7000198",
          "tgn:7016788",
          "tgn:7029392"
        ],
        "placetype": [
          "aat:300008347"
        ],
        "name:en": "Malārna Dūngar",
        "id": 7554392
      }
    },
    {
      "geometry": {
        "type": "Point",
        "coordinates": [
          76.53541,
          26.231394
        ]
      },
      "type": "Feature",
      "properties": {
        "hierarchy": [
          "tgn:7554393",
          "tgn:1000004",
          "tgn:7000198",
          "tgn:7016788",
          "tgn:7029392"
        ],
        "placetype": [
          "aat:300007783"
        ],
        "name:en": "Malārnā",
        "id": 7554393
      }
    },
    {
      "geometry": {
        "type": "Point",
        "coordinates": [
          76.045829,
          22.910654
        ]
      },
      "type": "Feature",
      "properties": {
        "hierarchy": [
          "tgn:7554395",
          "tgn:1000004",
          "tgn:7000198",
          "tgn:1001894",
          "tgn:7029392"
        ],
        "placetype": [
          "aat:300008347"
        ],
        "name:en": "Nāgda",
        "id": 7554395
      }
    },
    {
      "geometry": {
        "type": "Point",
        "coordinates": [
          75.278412,
          22.789453
        ]
      },
      "type": "Feature",
      "properties": {
        "hierarchy": [
          "tgn:7554396",
          "tgn:1000004",
          "tgn:7000198",
          "tgn:1001894",
          "tgn:7029392"
        ],
        "placetype": [
          "aat:300008347"
        ],
        "name:en": "Nāgda",
        "id": 7554396
      }
    },
    {
      "geometry": {
        "type": "Point",
        "coordinates": [
          79.666667,
          20.583333
        ]
      },
      "type": "Feature",
      "properties": {
        "hierarchy": [
          "tgn:7554397",
          "tgn:1000004",
          "tgn:7000198",
          "tgn:1001895",
          "tgn:7029392"
        ],
        "placetype": [
          "aat:300008347"
        ],
        "name:en": "Nāgbhīr",
        "id": 7554397
      }
    },
    {
      "geometry": {
        "type": "Point",
        "coordinates": [
          80.916667,
          15.95
        ]
      },
      "type": "Feature",
      "properties": {
        "hierarchy": [
          "tgn:7554398",
          "tgn:1001828",
          "tgn:1000004",
          "tgn:7000198",
          "tgn:7029392"
        ],
        "placetype": [
          "aat:300008347"
        ],
        "name:en": "Nāgāyalanka",
        "id": 7554398
      }
    },
    {
      "geometry": {
        "type": "Point",
        "coordinates": [
          79.633333,
          13.05
        ]
      },
      "type": "Feature",
      "properties": {
        "hierarchy": [
          "tgn:7554399",
          "tgn:1000004",
          "tgn:7000198",
          "tgn:7001797",
          "tgn:7029392"
        ],
        "placetype": [
          "aat:300008347"
        ],
        "name:en": "Nāgavedu",
        "id": 7554399
      }
    }
  ]
}
