{
  "type": "FeatureCollection",
  "features": [
    {
      "geometry": {
        "type": "Point",
        "coordinates": [
          121.351716,
          23.077741
        ]
      },
      "type": "Feature",
      "properties": {
        "hierarchy": [
          "tgn:7490850",
          "tgn:1000004",
          "tgn:7491221",
          "tgn:1000141",
          "tgn:7029392"
        ],
        "placetype": [
          "aat:300007836"
        ],
        "id": 7490850,
        "name:xx": "Babian Qiao"
      }
    },
    {
      "geometry": {
        "type": "Point",
        "coordinates": [
          121.353332,
          23.081866
        ]
      },
      "type": "Feature",
      "properties": {
        "hierarchy": [
          "tgn:7490851",
          "tgn:1000004",
          "tgn:7491221",
          "tgn:1000141",
          "tgn:7029392"
        ],
        "placetype": [
          "aat:300008347"
        ],
        "id": 7490851,
        "name:xx": "Babian"
      }
    },
    {
      "geometry": {
        "type": "Point",
        "coordinates": [
          120.657148,
          23.800036
        ]
      },
      "type": "Feature",
      "properties": {
        "hierarchy": [
          "tgn:7490853",
          "tgn:1000004",
          "tgn:7467799",
          "tgn:1000141",
          "tgn:7029392"
        ],
        "placetype": [
          "aat:300006075"
        ],
        "id": 7490853,
        "name:xx": "Babao Zhen"
      }
    },
    {
      "geometry": {
        "type": "Point",
        "coordinates": [
          120.566667,
          23.983333
        ]
      },
      "type": "Feature",
      "properties": {
        "hierarchy": [
          "tgn:7490854",
          "tgn:1000004",
          "tgn:7467799",
          "tgn:1000141",
          "tgn:7029392"
        ],
        "placetype": [
          "aat:300008347"
        ],
        "id": 7490854,
        "name:xx": "Bapaojun"
      }
    },
    {
      "geometry": {
        "type": "Point",
        "coordinates": [
          121.763304,
          24.644543
        ]
      },
      "type": "Feature",
      "properties": {
        "hierarchy": [
          "tgn:7490855",
          "tgn:1000004",
          "tgn:7489179",
          "tgn:1000141",
          "tgn:7029392"
        ],
        "placetype": [
          "aat:300008347"
        ],
        "id": 7490855,
        "name:xx": "Wanshan"
      }
    },
    {
      "geometry": {
        "type": "Point",
        "coordinates": [
          120.937035,
          24.61306
        ]
      },
      "type": "Feature",
      "properties": {
        "hierarchy": [
          "tgn:7490856",
          "tgn:7487020",
          "tgn:1000004",
          "tgn:1000141",
          "tgn:7029392"
        ],
        "placetype": [
          "aat:300008347"
        ],
        "id": 7490856,
        "name:xx": "Bagu"
      }
    },
    {
      "geometry": {
        "type": "Point",
        "coordinates": [
          120.831389,
          22.795
        ]
      },
      "type": "Feature",
      "properties": {
        "hierarchy": [
          "tgn:7490857",
          "tgn:1000004",
          "tgn:7492971",
          "tgn:1000141",
          "tgn:7029392"
        ],
        "placetype": [
          "aat:300008699"
        ],
        "id": 7490857,
        "name:xx": "Babanaban Xi"
      }
    },
    {
      "geometry": {
        "type": "Point",
        "coordinates": [
          121.045556,
          23.751667
        ]
      },
      "type": "Feature",
      "properties": {
        "hierarchy": [
          "tgn:7490858",
          "tgn:7488858",
          "tgn:1000004",
          "tgn:1000141",
          "tgn:7029392"
        ],
        "placetype": [
          "aat:300008347"
        ],
        "id": 7490858,
        "name:xx": "Babalong"
      }
    },
    {
      "geometry": {
        "type": "Point",
        "coordinates": [
          120.733333,
          21.933333
        ]
      },
      "type": "Feature",
      "properties": {
        "hierarchy": [
          "tgn:7490859",
          "tgn:1000004",
          "tgn:7492971",
          "tgn:1000141",
          "tgn:7029392"
        ],
        "placetype": [
          "aat:300132356"
        ],
        "id": 7490859,
        "name:xx": "Shitou Po"
      }
    }
  ]
}
