{
  "type": "FeatureCollection",
  "features": [
    {
      "geometry": {
        "type": "Point",
        "coordinates": [
          120.509464,
          23.657315
        ]
      },
      "type": "Feature",
      "properties": {
        "hierarchy": [
          "tgn:7475490",
          "tgn:1000004",
          "tgn:7001014",
          "tgn:1000141",
          "tgn:7029392"
        ],
        "placetype": [
          "aat:300008347"
        ],
        "id": 7475490,
        "name:xx": "Wencuojiao"
      }
    },
    {
      "geometry": {
        "type": "Point",
        "coordinates": [
          121.802778,
          24.805
        ]
      },
      "type": "Feature",
      "properties": {
        "hierarchy": [
          "tgn:7475491",
          "tgn:1000004",
          "tgn:7489179",
          "tgn:1000141",
          "tgn:7029392"
        ],
        "placetype": [
          "aat:300008347"
        ],
        "id": 7475491,
        "name:xx": "Wendi"
      }
    },
    {
      "geometry": {
        "type": "Point",
        "coordinates": [
          120.201389,
          23.516389
        ]
      },
      "type": "Feature",
      "properties": {
        "hierarchy": [
          "tgn:7475492",
          "tgn:1000004",
          "tgn:7001014",
          "tgn:1000141",
          "tgn:7029392"
        ],
        "placetype": [
          "aat:300008347"
        ],
        "id": 7475492,
        "name:xx": "Wendi"
      }
    },
    {
      "geometry": {
        "type": "Point",
        "coordinates": [
          120.541631,
          24.041991
        ]
      },
      "type": "Feature",
      "properties": {
        "hierarchy": [
          "tgn:7475493",
          "tgn:1000004",
          "tgn:7467799",
          "tgn:1000141",
          "tgn:7029392"
        ],
        "placetype": [
          "aat:300387200"
        ],
        "id": 7475493,
        "name:xx": "Wende Cun"
      }
    },
    {
      "geometry": {
        "type": "Point",
        "coordinates": [
          120.548085,
          24.040917
        ]
      },
      "type": "Feature",
      "properties": {
        "hierarchy": [
          "tgn:7475494",
          "tgn:1000004",
          "tgn:7467799",
          "tgn:1000141",
          "tgn:7029392"
        ],
        "placetype": [
          "aat:300007595"
        ],
        "id": 7475494,
        "name:xx": "Wende Gong"
      }
    },
    {
      "geometry": {
        "type": "Point",
        "coordinates": [
          119.620969,
          23.581971
        ]
      },
      "type": "Feature",
      "properties": {
        "hierarchy": [
          "tgn:7475495",
          "tgn:1000004",
          "tgn:7004300",
          "tgn:1000141",
          "tgn:7029392"
        ],
        "placetype": [
          "aat:300387173"
        ],
        "id": 7475495,
        "name:xx": "Gangdi Cun"
      }
    },
    {
      "geometry": {
        "type": "Point",
        "coordinates": [
          121.141944,
          24.874722
        ]
      },
      "type": "Feature",
      "properties": {
        "hierarchy": [
          "tgn:7475496",
          "tgn:1000004",
          "tgn:7001013",
          "tgn:1000141",
          "tgn:7029392"
        ],
        "placetype": [
          "aat:300008347"
        ],
        "id": 7475496,
        "name:xx": "Wenshuikeng"
      }
    },
    {
      "geometry": {
        "type": "Point",
        "coordinates": [
          120.757277,
          24.189987
        ]
      },
      "type": "Feature",
      "properties": {
        "hierarchy": [
          "tgn:7475497",
          "tgn:1000004",
          "tgn:7001009",
          "tgn:1000141",
          "tgn:7029392"
        ],
        "placetype": [
          "aat:300008347"
        ],
        "id": 7475497,
        "name:xx": "Wenshuikeng"
      }
    },
    {
      "geometry": {
        "type": "Point",
        "coordinates": [
          120.875831,
          24.455781
        ]
      },
      "type": "Feature",
      "properties": {
        "hierarchy": [
          "tgn:7475498",
          "tgn:7487020",
          "tgn:1000004",
          "tgn:1000141",
          "tgn:7029392"
        ],
        "placetype": [
          "aat:300008699"
        ],
        "id": 7475498,
        "name:xx": "Wenshui Xi"
      }
    },
    {
      "geometry": {
        "type": "Point",
        "coordinates": [
          121.829407,
          24.522121
        ]
      },
      "type": "Feature",
      "properties": {
        "hierarchy": [
          "tgn:7475499",
          "tgn:1000004",
          "tgn:7489179",
          "tgn:1000141",
          "tgn:7029392"
        ],
        "placetype": [
          "aat:300007899"
        ],
        "id": 7475499,
        "name:xx": "Dong'ao Suidao"
      }
    }
  ]
}
