{
  "type": "FeatureCollection",
  "features": [
    {
      "geometry": {
        "type": "Point",
        "coordinates": [
          74.88128,
          34.133179
        ]
      },
      "type": "Feature",
      "properties": {
        "hierarchy": [
          "tgn:7587480",
          "tgn:1000004",
          "tgn:7000198",
          "tgn:7000799",
          "tgn:7029392"
        ],
        "placetype": [
          "aat:300008347"
        ],
        "name:en": "Isherbari",
        "id": 7587480
      }
    },
    {
      "geometry": {
        "type": "Point",
        "coordinates": [
          74.88472,
          34.123184
        ]
      },
      "type": "Feature",
      "properties": {
        "hierarchy": [
          "tgn:7587481",
          "tgn:1000004",
          "tgn:7000198",
          "tgn:7000799",
          "tgn:7029392"
        ],
        "placetype": [
          "aat:300008347"
        ],
        "name:en": "Nishāt",
        "id": 7587481
      }
    },
    {
      "geometry": {
        "type": "Point",
        "coordinates": [
          74.887068,
          34.115134
        ]
      },
      "type": "Feature",
      "properties": {
        "hierarchy": [
          "tgn:7587482",
          "tgn:1000004",
          "tgn:7000198",
          "tgn:7000799",
          "tgn:7029392"
        ],
        "placetype": [
          "aat:300008347"
        ],
        "name:en": "Dānpura",
        "id": 7587482
      }
    },
    {
      "geometry": {
        "type": "Point",
        "coordinates": [
          70.901028,
          25.929594
        ]
      },
      "type": "Feature",
      "properties": {
        "hierarchy": [
          "tgn:7587483",
          "tgn:1000004",
          "tgn:7000198",
          "tgn:7016788",
          "tgn:7029392"
        ],
        "placetype": [
          "aat:300008347"
        ],
        "name:en": "Balewa",
        "id": 7587483
      }
    },
    {
      "geometry": {
        "type": "Point",
        "coordinates": [
          70.756451,
          25.526849
        ]
      },
      "type": "Feature",
      "properties": {
        "hierarchy": [
          "tgn:7587484",
          "tgn:1000004",
          "tgn:7000198",
          "tgn:7016788",
          "tgn:7029392"
        ],
        "placetype": [
          "aat:300006207"
        ],
        "name:en": "Bana ka Tala",
        "id": 7587484
      }
    },
    {
      "geometry": {
        "type": "Point",
        "coordinates": [
          70.992983,
          25.104258
        ]
      },
      "type": "Feature",
      "properties": {
        "hierarchy": [
          "tgn:7587485",
          "tgn:1000004",
          "tgn:7000198",
          "tgn:7016788",
          "tgn:7029392"
        ],
        "placetype": [
          "aat:300008347"
        ],
        "name:en": "Punjāsar",
        "id": 7587485
      }
    },
    {
      "geometry": {
        "type": "Point",
        "coordinates": [
          70.948622,
          26.057522
        ]
      },
      "type": "Feature",
      "properties": {
        "hierarchy": [
          "tgn:7587486",
          "tgn:1000004",
          "tgn:7000198",
          "tgn:7016788",
          "tgn:7029392"
        ],
        "placetype": [
          "aat:300008347"
        ],
        "name:en": "Serwa",
        "id": 7587486
      }
    },
    {
      "geometry": {
        "type": "Point",
        "coordinates": [
          69.713538,
          26.663885
        ]
      },
      "type": "Feature",
      "properties": {
        "hierarchy": [
          "tgn:7587487",
          "tgn:1000004",
          "tgn:7000198",
          "tgn:7016788",
          "tgn:7029392"
        ],
        "placetype": [
          "aat:300008347"
        ],
        "name:en": "Khara",
        "id": 7587487
      }
    },
    {
      "geometry": {
        "type": "Point",
        "coordinates": [
          69.798859,
          26.601799
        ]
      },
      "type": "Feature",
      "properties": {
        "hierarchy": [
          "tgn:7587488",
          "tgn:1000004",
          "tgn:7000198",
          "tgn:7016788",
          "tgn:7029392"
        ],
        "placetype": [
          "aat:300008347"
        ],
        "name:en": "Bhon",
        "id": 7587488
      }
    },
    {
      "geometry": {
        "type": "Point",
        "coordinates": [
          70.355231,
          27.193445
        ]
      },
      "type": "Feature",
      "properties": {
        "hierarchy": [
          "tgn:7587489",
          "tgn:1000004",
          "tgn:7000198",
          "tgn:7016788",
          "tgn:7029392"
        ],
        "placetype": [
          "aat:300008347"
        ],
        "name:en": "Bandha",
        "id": 7587489
      }
    }
  ]
}
