{
  "type": "FeatureCollection",
  "features": [
    {
      "geometry": {
        "type": "Point",
        "coordinates": [
          86.846745,
          24.584155
        ]
      },
      "type": "Feature",
      "properties": {
        "hierarchy": [
          "tgn:7571950",
          "tgn:1000004",
          "tgn:1001842",
          "tgn:7000198",
          "tgn:7029392"
        ],
        "placetype": [
          "aat:300008347"
        ],
        "name:en": "Jaypur",
        "id": 7571950
      }
    },
    {
      "geometry": {
        "type": "Point",
        "coordinates": [
          86.137438,
          26.587488
        ]
      },
      "type": "Feature",
      "properties": {
        "hierarchy": [
          "tgn:7571953",
          "tgn:1000004",
          "tgn:1001842",
          "tgn:7000198",
          "tgn:7029392"
        ],
        "placetype": [
          "aat:300008347"
        ],
        "name:en": "Jaynagar",
        "id": 7571953
      }
    },
    {
      "geometry": {
        "type": "Point",
        "coordinates": [
          74.606481,
          21.492918
        ]
      },
      "type": "Feature",
      "properties": {
        "hierarchy": [
          "tgn:7571955",
          "tgn:1000004",
          "tgn:7000198",
          "tgn:1001895",
          "tgn:7029392"
        ],
        "placetype": [
          "aat:300008347"
        ],
        "name:en": "Jaynagar",
        "id": 7571955
      }
    },
    {
      "geometry": {
        "type": "Point",
        "coordinates": [
          86.983333,
          23.683333
        ]
      },
      "type": "Feature",
      "properties": {
        "hierarchy": [
          "tgn:7571956",
          "tgn:1000004",
          "tgn:7000198",
          "tgn:1001977",
          "tgn:7029392"
        ],
        "placetype": [
          "aat:300008347"
        ],
        "name:en": "Jaykaynagar",
        "id": 7571956
      }
    },
    {
      "geometry": {
        "type": "Point",
        "coordinates": [
          87.429111,
          23.646659
        ]
      },
      "type": "Feature",
      "properties": {
        "hierarchy": [
          "tgn:7571957",
          "tgn:1000004",
          "tgn:7000198",
          "tgn:1001977",
          "tgn:7029392"
        ],
        "placetype": [
          "aat:300008347"
        ],
        "name:en": "Jaydeb Kenduli",
        "id": 7571957
      }
    },
    {
      "geometry": {
        "type": "Point",
        "coordinates": [
          82.816667,
          19.466667
        ]
      },
      "type": "Feature",
      "properties": {
        "hierarchy": [
          "tgn:7571958",
          "tgn:1000004",
          "tgn:7000198",
          "tgn:7016694",
          "tgn:7029392"
        ],
        "placetype": [
          "aat:300008347"
        ],
        "name:en": "Jayapatna",
        "id": 7571958
      }
    },
    {
      "geometry": {
        "type": "Point",
        "coordinates": [
          84.616667,
          19.083333
        ]
      },
      "type": "Feature",
      "properties": {
        "hierarchy": [
          "tgn:7571959",
          "tgn:1001828",
          "tgn:1000004",
          "tgn:7000198",
          "tgn:7029392"
        ],
        "placetype": [
          "aat:300008347"
        ],
        "name:en": "Jayantipur",
        "id": 7571959
      }
    }
  ]
}
