{
  "type": "FeatureCollection",
  "features": [
    {
      "geometry": {
        "type": "Point",
        "coordinates": [
          79.688486,
          27.732205
        ]
      },
      "type": "Feature",
      "properties": {
        "hierarchy": [
          "tgn:7559800",
          "tgn:1000004",
          "tgn:7000198",
          "tgn:7016722",
          "tgn:7029392"
        ],
        "placetype": [
          "aat:300008347"
        ],
        "name:en": "Korābonda",
        "id": 7559800
      }
    },
    {
      "geometry": {
        "type": "Point",
        "coordinates": [
          79.668509,
          27.73439
        ]
      },
      "type": "Feature",
      "properties": {
        "hierarchy": [
          "tgn:7559801",
          "tgn:1000004",
          "tgn:7000198",
          "tgn:7016722",
          "tgn:7029392"
        ],
        "placetype": [
          "aat:300008347"
        ],
        "name:en": "Sujāwalpur",
        "id": 7559801
      }
    },
    {
      "geometry": {
        "type": "Point",
        "coordinates": [
          79.70553,
          27.747505
        ]
      },
      "type": "Feature",
      "properties": {
        "hierarchy": [
          "tgn:7559802",
          "tgn:1000004",
          "tgn:7000198",
          "tgn:7016722",
          "tgn:7029392"
        ],
        "placetype": [
          "aat:300008347"
        ],
        "name:en": "Purena",
        "id": 7559802
      }
    },
    {
      "geometry": {
        "type": "Point",
        "coordinates": [
          79.691226,
          27.744382
        ]
      },
      "type": "Feature",
      "properties": {
        "hierarchy": [
          "tgn:7559803",
          "tgn:1000004",
          "tgn:7000198",
          "tgn:7016722",
          "tgn:7029392"
        ],
        "placetype": [
          "aat:300008347"
        ],
        "name:en": "Aobaira",
        "id": 7559803
      }
    },
    {
      "geometry": {
        "type": "Point",
        "coordinates": [
          79.682623,
          27.741408
        ]
      },
      "type": "Feature",
      "properties": {
        "hierarchy": [
          "tgn:7559804",
          "tgn:1000004",
          "tgn:7000198",
          "tgn:7016722",
          "tgn:7029392"
        ],
        "placetype": [
          "aat:300008347"
        ],
        "name:en": "Nayāgaon",
        "id": 7559804
      }
    },
    {
      "geometry": {
        "type": "Point",
        "coordinates": [
          79.677038,
          27.744481
        ]
      },
      "type": "Feature",
      "properties": {
        "hierarchy": [
          "tgn:7559805",
          "tgn:1000004",
          "tgn:7000198",
          "tgn:7016722",
          "tgn:7029392"
        ],
        "placetype": [
          "aat:300008347"
        ],
        "name:en": "Gularia",
        "id": 7559805
      }
    },
    {
      "geometry": {
        "type": "Point",
        "coordinates": [
          79.682671,
          27.748766
        ]
      },
      "type": "Feature",
      "properties": {
        "hierarchy": [
          "tgn:7559806",
          "tgn:1000004",
          "tgn:7000198",
          "tgn:7016722",
          "tgn:7029392"
        ],
        "placetype": [
          "aat:300008347"
        ],
        "name:en": "Dhaka Tāluk Ujera",
        "id": 7559806
      }
    },
    {
      "geometry": {
        "type": "Point",
        "coordinates": [
          79.5927,
          27.669438
        ]
      },
      "type": "Feature",
      "properties": {
        "hierarchy": [
          "tgn:7559807",
          "tgn:1000004",
          "tgn:7000198",
          "tgn:7016722",
          "tgn:7029392"
        ],
        "placetype": [
          "aat:300008347"
        ],
        "name:en": "Rāmnagar",
        "id": 7559807
      }
    },
    {
      "geometry": {
        "type": "Point",
        "coordinates": [
          79.59062,
          27.670844
        ]
      },
      "type": "Feature",
      "properties": {
        "hierarchy": [
          "tgn:7559808",
          "tgn:1000004",
          "tgn:7000198",
          "tgn:7016722",
          "tgn:7029392"
        ],
        "placetype": [
          "aat:300008347"
        ],
        "name:en": "Dewānagar",
        "id": 7559808
      }
    },
    {
      "geometry": {
        "type": "Point",
        "coordinates": [
          79.598732,
          27.67901
        ]
      },
      "type": "Feature",
      "properties": {
        "hierarchy": [
          "tgn:7559809",
          "tgn:1000004",
          "tgn:7000198",
          "tgn:7016722",
          "tgn:7029392"
        ],
        "placetype": [
          "aat:300008347"
        ],
        "name:en": "Sathauli",
        "id": 7559809
      }
    }
  ]
}
