{
  "type": "FeatureCollection",
  "features": [
    {
      "geometry": {
        "type": "Point",
        "coordinates": [
          71.116524,
          27.57993
        ]
      },
      "type": "Feature",
      "properties": {
        "hierarchy": [
          "tgn:7565160",
          "tgn:1000004",
          "tgn:7000198",
          "tgn:7016788",
          "tgn:7029392"
        ],
        "placetype": [
          "aat:300008347"
        ],
        "name:en": "Sutārwāla Tibba",
        "id": 7565160
      }
    },
    {
      "geometry": {
        "type": "Point",
        "coordinates": [
          71.01861,
          27.608163
        ]
      },
      "type": "Feature",
      "properties": {
        "hierarchy": [
          "tgn:7565161",
          "tgn:1000004",
          "tgn:7000198",
          "tgn:7016788",
          "tgn:7029392"
        ],
        "placetype": [
          "aat:300008347"
        ],
        "name:en": "Mona Tibba",
        "id": 7565161
      }
    },
    {
      "geometry": {
        "type": "Point",
        "coordinates": [
          71.065713,
          27.641811
        ]
      },
      "type": "Feature",
      "properties": {
        "hierarchy": [
          "tgn:7565162",
          "tgn:1000004",
          "tgn:7000198",
          "tgn:7016788",
          "tgn:7029392"
        ],
        "placetype": [
          "aat:300008347"
        ],
        "name:en": "Brāhmanwāla Tibba",
        "id": 7565162
      }
    },
    {
      "geometry": {
        "type": "Point",
        "coordinates": [
          71.08078,
          27.711591
        ]
      },
      "type": "Feature",
      "properties": {
        "hierarchy": [
          "tgn:7565163",
          "tgn:1000004",
          "tgn:7000198",
          "tgn:7016788",
          "tgn:7029392"
        ],
        "placetype": [
          "aat:300008347"
        ],
        "name:en": "Phogalia Tibba",
        "id": 7565163
      }
    },
    {
      "geometry": {
        "type": "Point",
        "coordinates": [
          71.006695,
          27.745798
        ]
      },
      "type": "Feature",
      "properties": {
        "hierarchy": [
          "tgn:7565164",
          "tgn:1000004",
          "tgn:7000198",
          "tgn:7016788",
          "tgn:7029392"
        ],
        "placetype": [
          "aat:300008347"
        ],
        "name:en": "Pathānīwāla",
        "id": 7565164
      }
    },
    {
      "geometry": {
        "type": "Point",
        "coordinates": [
          74.753167,
          32.494858
        ]
      },
      "type": "Feature",
      "properties": {
        "hierarchy": [
          "tgn:7565165",
          "tgn:1000004",
          "tgn:7000198",
          "tgn:7000799",
          "tgn:7029392"
        ],
        "placetype": [
          "aat:300008347"
        ],
        "name:en": "Kotli Arayān",
        "id": 7565165
      }
    },
    {
      "geometry": {
        "type": "Point",
        "coordinates": [
          74.752837,
          32.496964
        ]
      },
      "type": "Feature",
      "properties": {
        "hierarchy": [
          "tgn:7565166",
          "tgn:1000004",
          "tgn:7000198",
          "tgn:7000799",
          "tgn:7029392"
        ],
        "placetype": [
          "aat:300008347"
        ],
        "name:en": "Jandrān",
        "id": 7565166
      }
    },
    {
      "geometry": {
        "type": "Point",
        "coordinates": [
          74.757206,
          32.490549
        ]
      },
      "type": "Feature",
      "properties": {
        "hierarchy": [
          "tgn:7565167",
          "tgn:1000004",
          "tgn:7000198",
          "tgn:7000799",
          "tgn:7029392"
        ],
        "placetype": [
          "aat:300008347"
        ],
        "name:en": "Aājpur",
        "id": 7565167
      }
    },
    {
      "geometry": {
        "type": "Point",
        "coordinates": [
          74.764056,
          32.496507
        ]
      },
      "type": "Feature",
      "properties": {
        "hierarchy": [
          "tgn:7565168",
          "tgn:1000004",
          "tgn:7000198",
          "tgn:7000799",
          "tgn:7029392"
        ],
        "placetype": [
          "aat:300008347"
        ],
        "name:en": "Tārāpur",
        "id": 7565168
      }
    },
    {
      "geometry": {
        "type": "Point",
        "coordinates": [
          74.764406,
          32.490869
        ]
      },
      "type": "Feature",
      "properties": {
        "hierarchy": [
          "tgn:7565169",
          "tgn:1000004",
          "tgn:7000198",
          "tgn:7000799",
          "tgn:7029392"
        ],
        "placetype": [
          "aat:300008347"
        ],
        "name:en": "Bhatte",
        "id": 7565169
      }
    }
  ]
}
