{
  "type": "FeatureCollection",
  "features": [
    {
      "geometry": {
        "type": "Point",
        "coordinates": [
          -101.528333,
          20.441389
        ]
      },
      "type": "Feature",
      "properties": {
        "hierarchy": [
          "tgn:7414690",
          "tgn:7005584",
          "tgn:1000001",
          "tgn:7005560",
          "tgn:7029392"
        ],
        "placetype": [
          "aat:300008347"
        ],
        "id": 7414690,
        "name:xx": "Agua Blanca"
      }
    },
    {
      "geometry": {
        "type": "Point",
        "coordinates": [
          -101.570278,
          20.493333
        ]
      },
      "type": "Feature",
      "properties": {
        "hierarchy": [
          "tgn:7414691",
          "tgn:7005584",
          "tgn:1000001",
          "tgn:7005560",
          "tgn:7029392"
        ],
        "placetype": [
          "aat:300008347"
        ],
        "id": 7414691,
        "name:xx": "Huitzatarito"
      }
    },
    {
      "geometry": {
        "type": "Point",
        "coordinates": [
          -101.634167,
          20.460833
        ]
      },
      "type": "Feature",
      "properties": {
        "hierarchy": [
          "tgn:7414692",
          "tgn:7005584",
          "tgn:1000001",
          "tgn:7005560",
          "tgn:7029392"
        ],
        "placetype": [
          "aat:300006191"
        ],
        "id": 7414692,
        "name:xx": "Presa El Carmen"
      }
    },
    {
      "geometry": {
        "type": "Point",
        "coordinates": [
          -101.738056,
          20.454167
        ]
      },
      "type": "Feature",
      "properties": {
        "hierarchy": [
          "tgn:7414693",
          "tgn:7005584",
          "tgn:1000001",
          "tgn:7005560",
          "tgn:7029392"
        ],
        "placetype": [
          "aat:300008347"
        ],
        "id": 7414693,
        "name:xx": "Las Letras"
      }
    },
    {
      "geometry": {
        "type": "Point",
        "coordinates": [
          -101.773889,
          20.477222
        ]
      },
      "type": "Feature",
      "properties": {
        "hierarchy": [
          "tgn:7414694",
          "tgn:7005584",
          "tgn:1000001",
          "tgn:7005560",
          "tgn:7029392"
        ],
        "placetype": [
          "aat:300008347"
        ],
        "id": 7414694,
        "name:xx": "Mesa de Méndez"
      }
    },
    {
      "geometry": {
        "type": "Point",
        "coordinates": [
          -101.745,
          20.493611
        ]
      },
      "type": "Feature",
      "properties": {
        "hierarchy": [
          "tgn:7414695",
          "tgn:7005584",
          "tgn:1000001",
          "tgn:7005560",
          "tgn:7029392"
        ],
        "placetype": [
          "aat:300008347"
        ],
        "id": 7414695,
        "name:xx": "Tierras Negras"
      }
    },
    {
      "geometry": {
        "type": "Point",
        "coordinates": [
          -101.765556,
          20.439722
        ]
      },
      "type": "Feature",
      "properties": {
        "hierarchy": [
          "tgn:7414696",
          "tgn:7005584",
          "tgn:1000001",
          "tgn:7005560",
          "tgn:7029392"
        ],
        "placetype": [
          "aat:300008347"
        ],
        "id": 7414696,
        "name:xx": "Guanguítiro"
      }
    },
    {
      "geometry": {
        "type": "Point",
        "coordinates": [
          -101.776389,
          20.493611
        ]
      },
      "type": "Feature",
      "properties": {
        "hierarchy": [
          "tgn:7414697",
          "tgn:7005584",
          "tgn:1000001",
          "tgn:7005560",
          "tgn:7029392"
        ],
        "placetype": [
          "aat:300008347"
        ],
        "id": 7414697,
        "name:xx": "El Gallo"
      }
    },
    {
      "geometry": {
        "type": "Point",
        "coordinates": [
          -101.820278,
          20.468611
        ]
      },
      "type": "Feature",
      "properties": {
        "hierarchy": [
          "tgn:7414698",
          "tgn:7005584",
          "tgn:1000001",
          "tgn:7005560",
          "tgn:7029392"
        ],
        "placetype": [
          "aat:300008347"
        ],
        "id": 7414698,
        "name:xx": "La Aceituna"
      }
    },
    {
      "geometry": {
        "type": "Point",
        "coordinates": [
          -101.875833,
          20.468611
        ]
      },
      "type": "Feature",
      "properties": {
        "hierarchy": [
          "tgn:7414699",
          "tgn:7005584",
          "tgn:1000001",
          "tgn:7005560",
          "tgn:7029392"
        ],
        "placetype": [
          "aat:300008347"
        ],
        "id": 7414699,
        "name:xx": "Las Sardinas"
      }
    }
  ]
}
