{
  "type": "FeatureCollection",
  "features": [
    {
      "geometry": {
        "type": "Point",
        "coordinates": [
          1.186,
          49.166
        ]
      },
      "type": "Feature",
      "properties": {
        "hierarchy": [
          "tgn:7031770",
          "tgn:1000003",
          "tgn:7002882",
          "tgn:1000070",
          "tgn:7029392"
        ],
        "placetype": [
          "aat:300008347"
        ],
        "id": 7031770,
        "name:xx": "Acquigny"
      }
    },
    {
      "geometry": {
        "type": "Point",
        "coordinates": [
          78.15,
          15.883333
        ]
      },
      "type": "Feature",
      "properties": {
        "hierarchy": [
          "tgn:7031771",
          "tgn:1001828",
          "tgn:1000004",
          "tgn:7000198",
          "tgn:7029392"
        ],
        "placetype": [
          "aat:300008347"
        ],
        "name:en": "Ālampur",
        "id": 7031771
      }
    },
    {
      "geometry": {
        "type": "Point",
        "coordinates": [
          -8.03,
          37.086
        ]
      },
      "type": "Feature",
      "properties": {
        "hierarchy": [
          "tgn:7031773",
          "tgn:1000852",
          "tgn:1000003",
          "tgn:1000090",
          "tgn:7029392"
        ],
        "placetype": [
          "aat:300008347"
        ],
        "id": 7031773,
        "name:xx": "Almancil"
      }
    },
    {
      "geometry": {
        "type": "Point",
        "coordinates": [
          80.366667,
          16.583333
        ]
      },
      "type": "Feature",
      "properties": {
        "hierarchy": [
          "tgn:7031774",
          "tgn:1001828",
          "tgn:1000004",
          "tgn:7000198",
          "tgn:7029392"
        ],
        "placetype": [
          "aat:300008347"
        ],
        "name:en": "Amarāvati",
        "id": 7031774
      }
    },
    {
      "geometry": {
        "type": "Point",
        "coordinates": [
          81.677,
          7.283
        ]
      },
      "type": "Feature",
      "properties": {
        "hierarchy": [
          "tgn:7031775",
          "tgn:7000409",
          "tgn:1000004",
          "tgn:1000110",
          "tgn:7029392"
        ],
        "placetype": [
          "aat:300008347"
        ],
        "id": 7031775,
        "name:xx": "Ampara"
      }
    },
    {
      "geometry": {
        "type": "Point",
        "coordinates": [
          25.516667,
          37.066667
        ]
      },
      "type": "Feature",
      "properties": {
        "hierarchy": [
          "tgn:7031777",
          "tgn:7011270",
          "tgn:7002674",
          "tgn:1000003",
          "tgn:1000074",
          "tgn:7012053",
          "tgn:7029392"
        ],
        "placetype": [
          "aat:300008347"
        ],
        "id": 7031777,
        "name:xx": "Apérathos"
      }
    },
    {
      "geometry": {
        "type": "Point",
        "coordinates": [
          129.915,
          33.183
        ]
      },
      "type": "Feature",
      "properties": {
        "hierarchy": [
          "tgn:7031778",
          "tgn:1001024",
          "tgn:1000004",
          "tgn:7000901",
          "tgn:1000120",
          "tgn:7029392"
        ],
        "placetype": [
          "aat:300008347"
        ],
        "id": 7031778,
        "name:xx": "Arita"
      }
    },
    {
      "geometry": {
        "type": "Point",
        "coordinates": [
          -8.244,
          40.93
        ]
      },
      "type": "Feature",
      "properties": {
        "hierarchy": [
          "tgn:7031779",
          "tgn:7010608",
          "tgn:1000003",
          "tgn:1000090",
          "tgn:7029392"
        ],
        "placetype": [
          "aat:300008347",
          "aat:300387218"
        ],
        "id": 7031779,
        "name:xx": "Arouca"
      }
    }
  ]
}
