{
  "type": "FeatureCollection",
  "features": [
    {
      "geometry": {
        "type": "Point",
        "coordinates": [
          120.285546,
          23.534857
        ]
      },
      "type": "Feature",
      "properties": {
        "hierarchy": [
          "tgn:7473530",
          "tgn:7468018",
          "tgn:1000004",
          "tgn:1000141",
          "tgn:7029392"
        ],
        "placetype": [
          "aat:300008347"
        ],
        "id": 7473530,
        "name:xx": "Dingliao"
      }
    },
    {
      "geometry": {
        "type": "Point",
        "coordinates": [
          120.1514,
          23.4622
        ]
      },
      "type": "Feature",
      "properties": {
        "hierarchy": [
          "tgn:7473531",
          "tgn:7468018",
          "tgn:1000004",
          "tgn:1000141",
          "tgn:7029392"
        ],
        "placetype": [
          "aat:300008347"
        ],
        "id": 7473531,
        "name:xx": "Dingliao"
      }
    },
    {
      "geometry": {
        "type": "Point",
        "coordinates": [
          120.413611,
          23.458333
        ]
      },
      "type": "Feature",
      "properties": {
        "hierarchy": [
          "tgn:7473532",
          "tgn:7468018",
          "tgn:1000004",
          "tgn:1000141",
          "tgn:7029392"
        ],
        "placetype": [
          "aat:300008347"
        ],
        "id": 7473532,
        "name:xx": "Dingliao"
      }
    },
    {
      "geometry": {
        "type": "Point",
        "coordinates": [
          120.239145,
          23.280453
        ]
      },
      "type": "Feature",
      "properties": {
        "hierarchy": [
          "tgn:7473533",
          "tgn:1000004",
          "tgn:7490934",
          "tgn:1000141",
          "tgn:7029392"
        ],
        "placetype": [
          "aat:300008347"
        ],
        "id": 7473533,
        "name:xx": "Dingliao"
      }
    },
    {
      "geometry": {
        "type": "Point",
        "coordinates": [
          120.224722,
          22.861389
        ]
      },
      "type": "Feature",
      "properties": {
        "hierarchy": [
          "tgn:7473534",
          "tgn:7001004",
          "tgn:1000004",
          "tgn:1000141",
          "tgn:7029392"
        ],
        "placetype": [
          "aat:300008347"
        ],
        "id": 7473534,
        "name:xx": "Dingliao"
      }
    },
    {
      "geometry": {
        "type": "Point",
        "coordinates": [
          120.536944,
          22.402778
        ]
      },
      "type": "Feature",
      "properties": {
        "hierarchy": [
          "tgn:7473535",
          "tgn:1000004",
          "tgn:7492971",
          "tgn:1000141",
          "tgn:7029392"
        ],
        "placetype": [
          "aat:300008347"
        ],
        "id": 7473535,
        "name:xx": "Dingliao"
      }
    },
    {
      "geometry": {
        "type": "Point",
        "coordinates": [
          120.479444,
          24.125
        ]
      },
      "type": "Feature",
      "properties": {
        "hierarchy": [
          "tgn:7473536",
          "tgn:1000004",
          "tgn:7467799",
          "tgn:1000141",
          "tgn:7029392"
        ],
        "placetype": [
          "aat:300008347"
        ],
        "id": 7473536,
        "name:xx": "Dingli"
      }
    },
    {
      "geometry": {
        "type": "Point",
        "coordinates": [
          120.606542,
          24.119442
        ]
      },
      "type": "Feature",
      "properties": {
        "hierarchy": [
          "tgn:7473537",
          "tgn:1000004",
          "tgn:7001009",
          "tgn:1000141",
          "tgn:7029392"
        ],
        "placetype": [
          "aat:300008347"
        ],
        "id": 7473537,
        "name:xx": "Dinglaoxu"
      }
    },
    {
      "geometry": {
        "type": "Point",
        "coordinates": [
          121.873277,
          25.023967
        ]
      },
      "type": "Feature",
      "properties": {
        "hierarchy": [
          "tgn:7473538",
          "tgn:1000004",
          "tgn:1000454",
          "tgn:1000141",
          "tgn:7029392"
        ],
        "placetype": [
          "aat:300008347"
        ],
        "id": 7473538,
        "name:xx": "Dingzilankengkou"
      }
    },
    {
      "geometry": {
        "type": "Point",
        "coordinates": [
          121.401,
          25.154
        ]
      },
      "type": "Feature",
      "properties": {
        "hierarchy": [
          "tgn:7473539",
          "tgn:1000004",
          "tgn:1000454",
          "tgn:1000141",
          "tgn:7029392"
        ],
        "placetype": [
          "aat:300387173"
        ],
        "id": 7473539,
        "name:xx": "Dinggu Cun"
      }
    }
  ]
}
