{
  "type": "FeatureCollection",
  "features": [
    {
      "geometry": {
        "type": "Point",
        "coordinates": [
          121.126513,
          25.062647
        ]
      },
      "type": "Feature",
      "properties": {
        "hierarchy": [
          "tgn:7477310",
          "tgn:1000004",
          "tgn:7001013",
          "tgn:1000141",
          "tgn:7029392"
        ],
        "placetype": [
          "aat:300000498"
        ],
        "id": 7477310,
        "name:xx": "Shulin Xincun"
      }
    },
    {
      "geometry": {
        "type": "Point",
        "coordinates": [
          121.116171,
          25.05735
        ]
      },
      "type": "Feature",
      "properties": {
        "hierarchy": [
          "tgn:7477311",
          "tgn:1000004",
          "tgn:7001013",
          "tgn:1000141",
          "tgn:7029392"
        ],
        "placetype": [
          "aat:300387302"
        ],
        "id": 7477311,
        "name:xx": "Guanyin Gongyequ"
      }
    },
    {
      "geometry": {
        "type": "Point",
        "coordinates": [
          121.126873,
          25.03962
        ]
      },
      "type": "Feature",
      "properties": {
        "hierarchy": [
          "tgn:7477312",
          "tgn:1000004",
          "tgn:7001013",
          "tgn:1000141",
          "tgn:7029392"
        ],
        "placetype": [
          "aat:300007836"
        ],
        "id": 7477312,
        "name:xx": "Fulin Qiao"
      }
    },
    {
      "geometry": {
        "type": "Point",
        "coordinates": [
          121.122246,
          25.023873
        ]
      },
      "type": "Feature",
      "properties": {
        "hierarchy": [
          "tgn:7477313",
          "tgn:1000004",
          "tgn:7001013",
          "tgn:1000141",
          "tgn:7029392"
        ],
        "placetype": [
          "aat:300008347"
        ],
        "id": 7477313,
        "name:xx": "Shangshuiwei"
      }
    },
    {
      "geometry": {
        "type": "Point",
        "coordinates": [
          121.122864,
          25.013747
        ]
      },
      "type": "Feature",
      "properties": {
        "hierarchy": [
          "tgn:7477314",
          "tgn:1000004",
          "tgn:7001013",
          "tgn:1000141",
          "tgn:7029392"
        ],
        "placetype": [
          "aat:300007836"
        ],
        "id": 7477314,
        "name:xx": "Shipai Qiao"
      }
    },
    {
      "geometry": {
        "type": "Point",
        "coordinates": [
          121.124895,
          25.002228
        ]
      },
      "type": "Feature",
      "properties": {
        "hierarchy": [
          "tgn:7477315",
          "tgn:1000004",
          "tgn:7001013",
          "tgn:1000141",
          "tgn:7029392"
        ],
        "placetype": [
          "aat:300007836"
        ],
        "id": 7477315,
        "name:xx": "Daku Erhao Qiao"
      }
    },
    {
      "geometry": {
        "type": "Point",
        "coordinates": [
          121.121277,
          25.020394
        ]
      },
      "type": "Feature",
      "properties": {
        "hierarchy": [
          "tgn:7477316",
          "tgn:1000004",
          "tgn:7001013",
          "tgn:1000141",
          "tgn:7029392"
        ],
        "placetype": [
          "aat:300007836"
        ],
        "id": 7477316,
        "name:xx": "Daku Qiao"
      }
    },
    {
      "geometry": {
        "type": "Point",
        "coordinates": [
          121.137391,
          25.003248
        ]
      },
      "type": "Feature",
      "properties": {
        "hierarchy": [
          "tgn:7477317",
          "tgn:1000004",
          "tgn:7001013",
          "tgn:1000141",
          "tgn:7029392"
        ],
        "placetype": [
          "aat:300007836"
        ],
        "id": 7477317,
        "name:xx": "Datong Qiao"
      }
    },
    {
      "geometry": {
        "type": "Point",
        "coordinates": [
          121.131156,
          25.016472
        ]
      },
      "type": "Feature",
      "properties": {
        "hierarchy": [
          "tgn:7477318",
          "tgn:1000004",
          "tgn:7001013",
          "tgn:1000141",
          "tgn:7029392"
        ],
        "placetype": [
          "aat:300006495"
        ],
        "id": 7477318,
        "name:xx": "Xinpo Guozhong"
      }
    },
    {
      "geometry": {
        "type": "Point",
        "coordinates": [
          121.133585,
          25.029075
        ]
      },
      "type": "Feature",
      "properties": {
        "hierarchy": [
          "tgn:7477319",
          "tgn:1000004",
          "tgn:7001013",
          "tgn:1000141",
          "tgn:7029392"
        ],
        "placetype": [
          "aat:300008347"
        ],
        "id": 7477319,
        "name:xx": "Dacaocuo"
      }
    }
  ]
}
