{
  "type": "FeatureCollection",
  "features": [
    {
      "geometry": {
        "type": "Point",
        "coordinates": [
          120.671668,
          24.230214
        ]
      },
      "type": "Feature",
      "properties": {
        "hierarchy": [
          "tgn:7497890",
          "tgn:1000004",
          "tgn:7001009",
          "tgn:1000141",
          "tgn:7029392"
        ],
        "placetype": [
          "aat:300266755"
        ],
        "id": 7497890,
        "name:xx": "Diqi Gongmu"
      }
    },
    {
      "geometry": {
        "type": "Point",
        "coordinates": [
          120.742678,
          24.246758
        ]
      },
      "type": "Feature",
      "properties": {
        "hierarchy": [
          "tgn:7497891",
          "tgn:1000004",
          "tgn:7001009",
          "tgn:1000141",
          "tgn:7029392"
        ],
        "placetype": [
          "aat:300266755"
        ],
        "id": 7497891,
        "name:xx": "Diba Gongmu"
      }
    },
    {
      "geometry": {
        "type": "Point",
        "coordinates": [
          120.6541,
          24.001
        ]
      },
      "type": "Feature",
      "properties": {
        "hierarchy": [
          "tgn:7497892",
          "tgn:7488858",
          "tgn:1000004",
          "tgn:1000141",
          "tgn:7029392"
        ],
        "placetype": [
          "aat:300007836"
        ],
        "id": 7497892,
        "name:xx": "Qieshi Qiao"
      }
    },
    {
      "geometry": {
        "type": "Point",
        "coordinates": [
          120.643548,
          24.008243
        ]
      },
      "type": "Feature",
      "properties": {
        "hierarchy": [
          "tgn:7497893",
          "tgn:7488858",
          "tgn:1000004",
          "tgn:1000141",
          "tgn:7029392"
        ],
        "placetype": [
          "aat:300007836"
        ],
        "id": 7497893,
        "name:xx": "Jiaxing Qiao"
      }
    },
    {
      "geometry": {
        "type": "Point",
        "coordinates": [
          120.642,
          24.0135
        ]
      },
      "type": "Feature",
      "properties": {
        "hierarchy": [
          "tgn:7497894",
          "tgn:7488858",
          "tgn:1000004",
          "tgn:1000141",
          "tgn:7029392"
        ],
        "placetype": [
          "aat:300007836"
        ],
        "id": 7497894,
        "name:xx": "Qielao Qiao"
      }
    },
    {
      "geometry": {
        "type": "Point",
        "coordinates": [
          120.726537,
          24.015348
        ]
      },
      "type": "Feature",
      "properties": {
        "hierarchy": [
          "tgn:7497895",
          "tgn:1000004",
          "tgn:7001009",
          "tgn:1000141",
          "tgn:7029392"
        ],
        "placetype": [
          "aat:300007836"
        ],
        "id": 7497895,
        "name:xx": "Xiangbi Sanhao Qiao"
      }
    },
    {
      "geometry": {
        "type": "Point",
        "coordinates": [
          120.715419,
          24.01526
        ]
      },
      "type": "Feature",
      "properties": {
        "hierarchy": [
          "tgn:7497896",
          "tgn:1000004",
          "tgn:7001009",
          "tgn:1000141",
          "tgn:7029392"
        ],
        "placetype": [
          "aat:300007836"
        ],
        "id": 7497896,
        "name:xx": "Xiangbi Erhao Qiao"
      }
    },
    {
      "geometry": {
        "type": "Point",
        "coordinates": [
          120.726004,
          24.023883
        ]
      },
      "type": "Feature",
      "properties": {
        "hierarchy": [
          "tgn:7497897",
          "tgn:1000004",
          "tgn:7001009",
          "tgn:1000141",
          "tgn:7029392"
        ],
        "placetype": [
          "aat:300007836"
        ],
        "id": 7497897,
        "name:xx": "Jinxing Qiao"
      }
    },
    {
      "geometry": {
        "type": "Point",
        "coordinates": [
          120.752,
          24.0372
        ]
      },
      "type": "Feature",
      "properties": {
        "hierarchy": [
          "tgn:7497898",
          "tgn:1000004",
          "tgn:7001009",
          "tgn:1000141",
          "tgn:7029392"
        ],
        "placetype": [
          "aat:300007836"
        ],
        "id": 7497898,
        "name:xx": "Gufeng Erhao Qiao"
      }
    },
    {
      "geometry": {
        "type": "Point",
        "coordinates": [
          121.688555,
          25.111224
        ]
      },
      "type": "Feature",
      "properties": {
        "hierarchy": [
          "tgn:7497899",
          "tgn:1000957",
          "tgn:1000004",
          "tgn:1000141",
          "tgn:7029392"
        ],
        "placetype": [
          "aat:300007836"
        ],
        "id": 7497899,
        "name:xx": "Changlan Qiao"
      }
    }
  ]
}
