{
  "type": "FeatureCollection",
  "features": [
    {
      "geometry": {
        "type": "Point",
        "coordinates": [
          -93.166667,
          16.916667
        ]
      },
      "type": "Feature",
      "properties": {
        "hierarchy": [
          "tgn:7413510",
          "tgn:7005580",
          "tgn:1000001",
          "tgn:7005560",
          "tgn:7029392"
        ],
        "placetype": [
          "aat:300008795"
        ],
        "id": 7413510,
        "name:xx": "La Montaña, Cordón"
      }
    },
    {
      "geometry": {
        "type": "Point",
        "coordinates": [
          -93.066667,
          16.866667
        ]
      },
      "type": "Feature",
      "properties": {
        "hierarchy": [
          "tgn:7413511",
          "tgn:7005580",
          "tgn:1000001",
          "tgn:7005560",
          "tgn:7029392"
        ],
        "placetype": [
          "aat:300008795"
        ],
        "id": 7413511,
        "name:xx": "San Gabriel, Cordón"
      }
    },
    {
      "geometry": {
        "type": "Point",
        "coordinates": [
          -93.008333,
          16.899444
        ]
      },
      "type": "Feature",
      "properties": {
        "hierarchy": [
          "tgn:7413512",
          "tgn:7005580",
          "tgn:1000001",
          "tgn:7005560",
          "tgn:7029392"
        ],
        "placetype": [
          "aat:300008347"
        ],
        "id": 7413512,
        "name:xx": "Venustiano Carranza"
      }
    },
    {
      "geometry": {
        "type": "Point",
        "coordinates": [
          -98.233333,
          19.475
        ]
      },
      "type": "Feature",
      "properties": {
        "hierarchy": [
          "tgn:7413513",
          "tgn:1000001",
          "tgn:7005598",
          "tgn:7005560",
          "tgn:7029392"
        ],
        "placetype": [
          "aat:300008699"
        ],
        "id": 7413513,
        "name:xx": "Zahuapan, Río"
      }
    },
    {
      "geometry": {
        "type": "Point",
        "coordinates": [
          -98.208333,
          19.475
        ]
      },
      "type": "Feature",
      "properties": {
        "hierarchy": [
          "tgn:7413514",
          "tgn:1000001",
          "tgn:7005598",
          "tgn:7005560",
          "tgn:7029392"
        ],
        "placetype": [
          "aat:300008347"
        ],
        "id": 7413514,
        "name:xx": "Muñoz"
      }
    },
    {
      "geometry": {
        "type": "Point",
        "coordinates": [
          -98.234722,
          19.469444
        ]
      },
      "type": "Feature",
      "properties": {
        "hierarchy": [
          "tgn:7413515",
          "tgn:1000001",
          "tgn:7005598",
          "tgn:7005560",
          "tgn:7029392"
        ],
        "placetype": [
          "aat:300008347"
        ],
        "id": 7413515,
        "name:xx": "San José Techopa"
      }
    },
    {
      "geometry": {
        "type": "Point",
        "coordinates": [
          -98.268056,
          19.475
        ]
      },
      "type": "Feature",
      "properties": {
        "hierarchy": [
          "tgn:7413516",
          "tgn:1000001",
          "tgn:7005598",
          "tgn:7005560",
          "tgn:7029392"
        ],
        "placetype": [
          "aat:300008347"
        ],
        "id": 7413516,
        "name:xx": "Las Mesas"
      }
    },
    {
      "geometry": {
        "type": "Point",
        "coordinates": [
          -98.25,
          19.466667
        ]
      },
      "type": "Feature",
      "properties": {
        "hierarchy": [
          "tgn:7413517",
          "tgn:1000001",
          "tgn:7005598",
          "tgn:7005560",
          "tgn:7029392"
        ],
        "placetype": [
          "aat:300008347"
        ],
        "id": 7413517,
        "name:xx": "Tlaxcantitla"
      }
    },
    {
      "geometry": {
        "type": "Point",
        "coordinates": [
          -98.256944,
          19.45
        ]
      },
      "type": "Feature",
      "properties": {
        "hierarchy": [
          "tgn:7413518",
          "tgn:1000001",
          "tgn:7005598",
          "tgn:7005560",
          "tgn:7029392"
        ],
        "placetype": [
          "aat:300008347"
        ],
        "id": 7413518,
        "name:xx": "La Reforma"
      }
    },
    {
      "geometry": {
        "type": "Point",
        "coordinates": [
          -98.229167,
          19.422222
        ]
      },
      "type": "Feature",
      "properties": {
        "hierarchy": [
          "tgn:7413519",
          "tgn:1000001",
          "tgn:7005598",
          "tgn:7005560",
          "tgn:7029392"
        ],
        "placetype": [
          "aat:300008347"
        ],
        "id": 7413519,
        "name:xx": "San Diego Tenango"
      }
    }
  ]
}
