{
  "type": "FeatureCollection",
  "features": [
    {
      "geometry": {
        "type": "Point",
        "coordinates": [
          89.752323,
          26.367671
        ]
      },
      "type": "Feature",
      "properties": {
        "hierarchy": [
          "tgn:7566150",
          "tgn:1000004",
          "tgn:7000198",
          "tgn:1001977",
          "tgn:7029392"
        ],
        "placetype": [
          "aat:300008899"
        ],
        "name:en": "Atra Bīl",
        "id": 7566150
      }
    },
    {
      "geometry": {
        "type": "Point",
        "coordinates": [
          89.781296,
          26.375935
        ]
      },
      "type": "Feature",
      "properties": {
        "hierarchy": [
          "tgn:7566151",
          "tgn:1000004",
          "tgn:7000198",
          "tgn:1001977",
          "tgn:7029392"
        ],
        "placetype": [
          "aat:300008347"
        ],
        "name:en": "Fersabāri",
        "id": 7566151
      }
    },
    {
      "geometry": {
        "type": "Point",
        "coordinates": [
          89.753188,
          26.385112
        ]
      },
      "type": "Feature",
      "properties": {
        "hierarchy": [
          "tgn:7566152",
          "tgn:1000004",
          "tgn:7000198",
          "tgn:1001977",
          "tgn:7029392"
        ],
        "placetype": [
          "aat:300008347"
        ],
        "name:en": "Tāterkuti",
        "id": 7566152
      }
    },
    {
      "geometry": {
        "type": "Point",
        "coordinates": [
          89.759434,
          26.388427
        ]
      },
      "type": "Feature",
      "properties": {
        "hierarchy": [
          "tgn:7566153",
          "tgn:1000004",
          "tgn:7000198",
          "tgn:1001977",
          "tgn:7029392"
        ],
        "placetype": [
          "aat:300008347"
        ],
        "name:en": "Bākla",
        "id": 7566153
      }
    },
    {
      "geometry": {
        "type": "Point",
        "coordinates": [
          89.785332,
          26.4014
        ]
      },
      "type": "Feature",
      "properties": {
        "hierarchy": [
          "tgn:7566154",
          "tgn:1000004",
          "tgn:7000198",
          "tgn:1001977",
          "tgn:7029392"
        ],
        "placetype": [
          "aat:300008347"
        ],
        "name:en": "Jāldhoa",
        "id": 7566154
      }
    },
    {
      "geometry": {
        "type": "Point",
        "coordinates": [
          89.751699,
          26.42134
        ]
      },
      "type": "Feature",
      "properties": {
        "hierarchy": [
          "tgn:7566155",
          "tgn:1000004",
          "tgn:7000198",
          "tgn:1001977",
          "tgn:7029392"
        ],
        "placetype": [
          "aat:300008347"
        ],
        "name:en": "Rasikbīl",
        "id": 7566155
      }
    },
    {
      "geometry": {
        "type": "Point",
        "coordinates": [
          89.75294,
          26.421006
        ]
      },
      "type": "Feature",
      "properties": {
        "hierarchy": [
          "tgn:7566156",
          "tgn:1000004",
          "tgn:7000198",
          "tgn:1001977",
          "tgn:7029392"
        ],
        "placetype": [
          "aat:300008347"
        ],
        "name:en": "Takwamāri",
        "id": 7566156
      }
    },
    {
      "geometry": {
        "type": "Point",
        "coordinates": [
          89.760828,
          26.429412
        ]
      },
      "type": "Feature",
      "properties": {
        "hierarchy": [
          "tgn:7566157",
          "tgn:1000004",
          "tgn:7000198",
          "tgn:1001977",
          "tgn:7029392"
        ],
        "placetype": [
          "aat:300008699"
        ],
        "name:en": "Ghoramara Nadi",
        "id": 7566157
      }
    },
    {
      "geometry": {
        "type": "Point",
        "coordinates": [
          89.784227,
          26.433304
        ]
      },
      "type": "Feature",
      "properties": {
        "hierarchy": [
          "tgn:7566158",
          "tgn:1000004",
          "tgn:7000198",
          "tgn:1001977",
          "tgn:7029392"
        ],
        "placetype": [
          "aat:300008347"
        ],
        "name:en": "Madhurbhāsha",
        "id": 7566158
      }
    },
    {
      "geometry": {
        "type": "Point",
        "coordinates": [
          89.786053,
          26.423166
        ]
      },
      "type": "Feature",
      "properties": {
        "hierarchy": [
          "tgn:7566159",
          "tgn:1000004",
          "tgn:7000198",
          "tgn:1001977",
          "tgn:7029392"
        ],
        "placetype": [
          "aat:300008347"
        ],
        "name:en": "Shingimāri",
        "id": 7566159
      }
    }
  ]
}
