{
  "type": "FeatureCollection",
  "features": [
    {
      "geometry": {
        "type": "Point",
        "coordinates": [
          79.803377,
          28.630981
        ]
      },
      "type": "Feature",
      "properties": {
        "hierarchy": [
          "tgn:1076500",
          "tgn:1000004",
          "tgn:7000198",
          "tgn:7016722",
          "tgn:7029392"
        ],
        "placetype": [
          "aat:300008347"
        ],
        "name:en": "Pīlībhīt",
        "id": 1076500
      }
    },
    {
      "geometry": {
        "type": "Point",
        "coordinates": [
          73.53998,
          26.384886
        ]
      },
      "type": "Feature",
      "properties": {
        "hierarchy": [
          "tgn:1076501",
          "tgn:1000004",
          "tgn:7000198",
          "tgn:7016788",
          "tgn:7029392"
        ],
        "placetype": [
          "aat:300008347"
        ],
        "id": 1076501,
        "name:xx": "Pipar"
      }
    },
    {
      "geometry": {
        "type": "Point",
        "coordinates": [
          73.446,
          26.452
        ]
      },
      "type": "Feature",
      "properties": {
        "hierarchy": [
          "tgn:1076502",
          "tgn:1000004",
          "tgn:7000198",
          "tgn:7016788",
          "tgn:7029392"
        ],
        "placetype": [
          "aat:300008347"
        ],
        "name:en": "Pīpār Road",
        "id": 1076502
      }
    },
    {
      "geometry": {
        "type": "Point",
        "coordinates": [
          74.092118,
          33.769694
        ]
      },
      "type": "Feature",
      "properties": {
        "hierarchy": [
          "tgn:1076503",
          "tgn:1000004",
          "tgn:7000198",
          "tgn:7000799",
          "tgn:7029392"
        ],
        "placetype": [
          "aat:300008347"
        ],
        "id": 1076503,
        "name:xx": "Punch"
      }
    },
    {
      "geometry": {
        "type": "Point",
        "coordinates": [
          76.558492,
          29.761422
        ]
      },
      "type": "Feature",
      "properties": {
        "hierarchy": [
          "tgn:1076504",
          "tgn:1000004",
          "tgn:1001871",
          "tgn:7000198",
          "tgn:7029392"
        ],
        "placetype": [
          "aat:300008347"
        ],
        "id": 1076504,
        "name:xx": "Pundri"
      }
    },
    {
      "geometry": {
        "type": "Point",
        "coordinates": [
          80.14829,
          28.512827
        ]
      },
      "type": "Feature",
      "properties": {
        "hierarchy": [
          "tgn:1076505",
          "tgn:1000004",
          "tgn:7000198",
          "tgn:7016722",
          "tgn:7029392"
        ],
        "placetype": [
          "aat:300008347"
        ],
        "name:en": "Pūranpur",
        "id": 1076505
      }
    },
    {
      "geometry": {
        "type": "Point",
        "coordinates": [
          86.265124,
          24.205223
        ]
      },
      "type": "Feature",
      "properties": {
        "hierarchy": [
          "tgn:1076506",
          "tgn:1000004",
          "tgn:7000198",
          "tgn:7031783",
          "tgn:7029392"
        ],
        "placetype": [
          "aat:300008347"
        ],
        "name:en": "Pachamba",
        "id": 1076506
      }
    },
    {
      "geometry": {
        "type": "Point",
        "coordinates": [
          78.433702,
          22.470446
        ]
      },
      "type": "Feature",
      "properties": {
        "hierarchy": [
          "tgn:1076507",
          "tgn:1000004",
          "tgn:7000198",
          "tgn:1001894",
          "tgn:7029392"
        ],
        "placetype": [
          "aat:300008347"
        ],
        "name:en": "Pachmarhī",
        "id": 1076507
      }
    },
    {
      "geometry": {
        "type": "Point",
        "coordinates": [
          76.734367,
          23.709236
        ]
      },
      "type": "Feature",
      "properties": {
        "hierarchy": [
          "tgn:1076508",
          "tgn:1000004",
          "tgn:7000198",
          "tgn:1001894",
          "tgn:7029392"
        ],
        "placetype": [
          "aat:300008347"
        ],
        "name:en": "Pachor",
        "id": 1076508
      }
    },
    {
      "geometry": {
        "type": "Point",
        "coordinates": [
          76.884882,
          33.466585
        ]
      },
      "type": "Feature",
      "properties": {
        "hierarchy": [
          "tgn:1076509",
          "tgn:1000004",
          "tgn:7000198",
          "tgn:7000799",
          "tgn:7029392"
        ],
        "placetype": [
          "aat:300008347"
        ],
        "name:en": "Padam",
        "id": 1076509
      }
    }
  ]
}
