{
  "type": "FeatureCollection",
  "features": [
    {
      "geometry": {
        "type": "Point",
        "coordinates": [
          74.107574,
          33.821769
        ]
      },
      "type": "Feature",
      "properties": {
        "hierarchy": [
          "tgn:7588660",
          "tgn:1000004",
          "tgn:7000198",
          "tgn:7000799",
          "tgn:7029392"
        ],
        "placetype": [
          "aat:300008347"
        ],
        "name:en": "Sakar",
        "id": 7588660
      }
    },
    {
      "geometry": {
        "type": "Point",
        "coordinates": [
          74.213889,
          33.775
        ]
      },
      "type": "Feature",
      "properties": {
        "hierarchy": [
          "tgn:7588661",
          "tgn:1000004",
          "tgn:7000198",
          "tgn:7000799",
          "tgn:7029392"
        ],
        "placetype": [
          "aat:300008347"
        ],
        "name:en": "Safra",
        "id": 7588661
      }
    },
    {
      "geometry": {
        "type": "Point",
        "coordinates": [
          74.05,
          33.801389
        ]
      },
      "type": "Feature",
      "properties": {
        "hierarchy": [
          "tgn:7588662",
          "tgn:1000004",
          "tgn:7000198",
          "tgn:7000799",
          "tgn:7029392"
        ],
        "placetype": [
          "aat:300008347"
        ],
        "name:en": "Rābatānwāli",
        "id": 7588662
      }
    },
    {
      "geometry": {
        "type": "Point",
        "coordinates": [
          74.058333,
          33.805556
        ]
      },
      "type": "Feature",
      "properties": {
        "hierarchy": [
          "tgn:7588663",
          "tgn:1000004",
          "tgn:7000198",
          "tgn:7000799",
          "tgn:7029392"
        ],
        "placetype": [
          "aat:300008347"
        ],
        "name:en": "Potri",
        "id": 7588663
      }
    },
    {
      "geometry": {
        "type": "Point",
        "coordinates": [
          74.187571,
          33.76369
        ]
      },
      "type": "Feature",
      "properties": {
        "hierarchy": [
          "tgn:7588664",
          "tgn:1000004",
          "tgn:7000198",
          "tgn:7000799",
          "tgn:7029392"
        ],
        "placetype": [
          "aat:300008347"
        ],
        "name:en": "Poti",
        "id": 7588664
      }
    },
    {
      "geometry": {
        "type": "Point",
        "coordinates": [
          74.227778,
          33.827778
        ]
      },
      "type": "Feature",
      "properties": {
        "hierarchy": [
          "tgn:7588665",
          "tgn:1000004",
          "tgn:7000198",
          "tgn:7000799",
          "tgn:7029392"
        ],
        "placetype": [
          "aat:300008347"
        ],
        "name:en": "Pol Padar",
        "id": 7588665
      }
    },
    {
      "geometry": {
        "type": "Point",
        "coordinates": [
          74.168288,
          33.785585
        ]
      },
      "type": "Feature",
      "properties": {
        "hierarchy": [
          "tgn:7588666",
          "tgn:1000004",
          "tgn:7000198",
          "tgn:7000799",
          "tgn:7029392"
        ],
        "placetype": [
          "aat:300008347"
        ],
        "name:en": "Nuna Bandi",
        "id": 7588666
      }
    },
    {
      "geometry": {
        "type": "Point",
        "coordinates": [
          74.215462,
          33.812421
        ]
      },
      "type": "Feature",
      "properties": {
        "hierarchy": [
          "tgn:7588667",
          "tgn:1000004",
          "tgn:7000198",
          "tgn:7000799",
          "tgn:7029392"
        ],
        "placetype": [
          "aat:300008347"
        ],
        "name:en": "Nūrpur",
        "id": 7588667
      }
    },
    {
      "geometry": {
        "type": "Point",
        "coordinates": [
          74.05904,
          33.80867
        ]
      },
      "type": "Feature",
      "properties": {
        "hierarchy": [
          "tgn:7588668",
          "tgn:1000004",
          "tgn:7000198",
          "tgn:7000799",
          "tgn:7029392"
        ],
        "placetype": [
          "aat:300008347"
        ],
        "name:en": "Nūrkot",
        "id": 7588668
      }
    },
    {
      "geometry": {
        "type": "Point",
        "coordinates": [
          74.177199,
          33.761131
        ]
      },
      "type": "Feature",
      "properties": {
        "hierarchy": [
          "tgn:7588669",
          "tgn:1000004",
          "tgn:7000198",
          "tgn:7000799",
          "tgn:7029392"
        ],
        "placetype": [
          "aat:300008347"
        ],
        "name:en": "Nirhad",
        "id": 7588669
      }
    }
  ]
}
