{
  "type": "FeatureCollection",
  "features": [
    {
      "geometry": {
        "type": "Point",
        "coordinates": [
          73.66329,
          25.533938
        ]
      },
      "type": "Feature",
      "properties": {
        "hierarchy": [
          "tgn:7549600",
          "tgn:1000004",
          "tgn:7000198",
          "tgn:7016788",
          "tgn:7029392"
        ],
        "placetype": [
          "aat:300008347"
        ],
        "name:en": "Dhānla",
        "id": 7549600
      }
    },
    {
      "geometry": {
        "type": "Point",
        "coordinates": [
          86.762946,
          24.980387
        ]
      },
      "type": "Feature",
      "properties": {
        "hierarchy": [
          "tgn:7549601",
          "tgn:1000004",
          "tgn:1001842",
          "tgn:7000198",
          "tgn:7029392"
        ],
        "placetype": [
          "aat:300008347"
        ],
        "name:en": "Dhankundia",
        "id": 7549601
      }
    },
    {
      "geometry": {
        "type": "Point",
        "coordinates": [
          76.957528,
          28.473694
        ]
      },
      "type": "Feature",
      "properties": {
        "hierarchy": [
          "tgn:7549602",
          "tgn:1000004",
          "tgn:1001871",
          "tgn:7000198",
          "tgn:7029392"
        ],
        "placetype": [
          "aat:300008347"
        ],
        "name:en": "Dhankot",
        "id": 7549602
      }
    },
    {
      "geometry": {
        "type": "Point",
        "coordinates": [
          74.814839,
          27.330222
        ]
      },
      "type": "Feature",
      "properties": {
        "hierarchy": [
          "tgn:7549603",
          "tgn:1000004",
          "tgn:7000198",
          "tgn:7016788",
          "tgn:7029392"
        ],
        "placetype": [
          "aat:300008347"
        ],
        "name:en": "Dhankoli",
        "id": 7549603
      }
    },
    {
      "geometry": {
        "type": "Point",
        "coordinates": [
          75.6071,
          26.918
        ]
      },
      "type": "Feature",
      "properties": {
        "hierarchy": [
          "tgn:7549604",
          "tgn:1000004",
          "tgn:7000198",
          "tgn:7016788",
          "tgn:7029392"
        ],
        "placetype": [
          "aat:300007783"
        ],
        "name:en": "Dhānakya Railroad Station",
        "id": 7549604
      }
    },
    {
      "geometry": {
        "type": "Point",
        "coordinates": [
          77.85,
          19.566667
        ]
      },
      "type": "Feature",
      "properties": {
        "hierarchy": [
          "tgn:7549605",
          "tgn:1000004",
          "tgn:7000198",
          "tgn:1001895",
          "tgn:7029392"
        ],
        "placetype": [
          "aat:300008347"
        ],
        "name:en": "Dhānki",
        "id": 7549605
      }
    },
    {
      "geometry": {
        "type": "Point",
        "coordinates": [
          72.821389,
          18.888333
        ]
      },
      "type": "Feature",
      "properties": {
        "hierarchy": [
          "tgn:7549606",
          "tgn:1000004",
          "tgn:7000198",
          "tgn:1001895",
          "tgn:7029392"
        ],
        "placetype": [
          "aat:300387036"
        ],
        "name:en": "Colāba Shoals",
        "id": 7549606
      }
    },
    {
      "geometry": {
        "type": "Point",
        "coordinates": [
          72.832222,
          18.911389
        ]
      },
      "type": "Feature",
      "properties": {
        "hierarchy": [
          "tgn:7549607",
          "tgn:1000004",
          "tgn:7000198",
          "tgn:1001895",
          "tgn:7029392"
        ],
        "placetype": [
          "aat:300008808"
        ],
        "name:en": "Colāba Reef",
        "id": 7549607
      }
    }
  ]
}
