{
  "type": "FeatureCollection",
  "features": [
    {
      "geometry": {
        "type": "Point",
        "coordinates": [
          74.358333,
          33.791667
        ]
      },
      "type": "Feature",
      "properties": {
        "hierarchy": [
          "tgn:7590600",
          "tgn:1000004",
          "tgn:7000198",
          "tgn:7000799",
          "tgn:7029392"
        ],
        "placetype": [
          "aat:300008863"
        ],
        "name:en": "Bela Forest",
        "id": 7590600
      }
    },
    {
      "geometry": {
        "type": "Point",
        "coordinates": [
          74.347339,
          33.799044
        ]
      },
      "type": "Feature",
      "properties": {
        "hierarchy": [
          "tgn:7590601",
          "tgn:1000004",
          "tgn:7000198",
          "tgn:7000799",
          "tgn:7029392"
        ],
        "placetype": [
          "aat:300008347"
        ],
        "name:en": "Bela",
        "id": 7590601
      }
    },
    {
      "geometry": {
        "type": "Point",
        "coordinates": [
          74.333333,
          33.794444
        ]
      },
      "type": "Feature",
      "properties": {
        "hierarchy": [
          "tgn:7590602",
          "tgn:1000004",
          "tgn:7000198",
          "tgn:7000799",
          "tgn:7029392"
        ],
        "placetype": [
          "aat:300008347"
        ],
        "name:en": "Katanwāli",
        "id": 7590602
      }
    },
    {
      "geometry": {
        "type": "Point",
        "coordinates": [
          74.336672,
          33.786265
        ]
      },
      "type": "Feature",
      "properties": {
        "hierarchy": [
          "tgn:7590603",
          "tgn:1000004",
          "tgn:7000198",
          "tgn:7000799",
          "tgn:7029392"
        ],
        "placetype": [
          "aat:300008347"
        ],
        "name:en": "Tūngawāli",
        "id": 7590603
      }
    },
    {
      "geometry": {
        "type": "Point",
        "coordinates": [
          74.333333,
          33.783333
        ]
      },
      "type": "Feature",
      "properties": {
        "hierarchy": [
          "tgn:7590604",
          "tgn:1000004",
          "tgn:7000198",
          "tgn:7000799",
          "tgn:7029392"
        ],
        "placetype": [
          "aat:300008347"
        ],
        "name:en": "Tirkana",
        "id": 7590604
      }
    },
    {
      "geometry": {
        "type": "Point",
        "coordinates": [
          74.332403,
          33.773449
        ]
      },
      "type": "Feature",
      "properties": {
        "hierarchy": [
          "tgn:7590605",
          "tgn:1000004",
          "tgn:7000198",
          "tgn:7000799",
          "tgn:7029392"
        ],
        "placetype": [
          "aat:300008347"
        ],
        "name:en": "Bari Baihk",
        "id": 7590605
      }
    },
    {
      "geometry": {
        "type": "Point",
        "coordinates": [
          77.421385,
          29.646589
        ]
      },
      "type": "Feature",
      "properties": {
        "hierarchy": [
          "tgn:7590606",
          "tgn:1000004",
          "tgn:7000198",
          "tgn:7016722",
          "tgn:7029392"
        ],
        "placetype": [
          "aat:300008347"
        ],
        "name:en": "Ampahta Uākūbpur",
        "id": 7590606
      }
    },
    {
      "geometry": {
        "type": "Point",
        "coordinates": [
          77.458328,
          29.660771
        ]
      },
      "type": "Feature",
      "properties": {
        "hierarchy": [
          "tgn:7590607",
          "tgn:1000004",
          "tgn:7000198",
          "tgn:7016722",
          "tgn:7029392"
        ],
        "placetype": [
          "aat:300008699"
        ],
        "name:en": "Tilfra Aīnābād Nāla",
        "id": 7590607
      }
    },
    {
      "geometry": {
        "type": "Point",
        "coordinates": [
          77.454791,
          29.657027
        ]
      },
      "type": "Feature",
      "properties": {
        "hierarchy": [
          "tgn:7590608",
          "tgn:1000004",
          "tgn:7000198",
          "tgn:7016722",
          "tgn:7029392"
        ],
        "placetype": [
          "aat:300008347"
        ],
        "name:en": "Chandenāmāl",
        "id": 7590608
      }
    },
    {
      "geometry": {
        "type": "Point",
        "coordinates": [
          77.433555,
          29.664938
        ]
      },
      "type": "Feature",
      "properties": {
        "hierarchy": [
          "tgn:7590609",
          "tgn:1000004",
          "tgn:7000198",
          "tgn:7016722",
          "tgn:7029392"
        ],
        "placetype": [
          "aat:300008347"
        ],
        "name:en": "Jandheri",
        "id": 7590609
      }
    }
  ]
}
