{
  "type": "FeatureCollection",
  "features": [
    {
      "geometry": {
        "type": "Point",
        "coordinates": [
          31.249173,
          30.063323
        ]
      },
      "type": "Feature",
      "properties": {
        "hierarchy": [
          "tgn:7531910",
          "tgn:7001242",
          "tgn:7016833",
          "tgn:1001091",
          "tgn:7029392"
        ],
        "placetype": [
          "aat:300005768"
        ],
        "id": 7531910,
        "name:xx": "Mutḩaf as Sikkat al Ḩadīd"
      }
    },
    {
      "geometry": {
        "type": "Point",
        "coordinates": [
          31.249414,
          30.067991
        ]
      },
      "type": "Feature",
      "properties": {
        "hierarchy": [
          "tgn:7531911",
          "tgn:7001242",
          "tgn:7016833",
          "tgn:1001091",
          "tgn:7029392"
        ],
        "placetype": [
          "aat:300006036"
        ],
        "id": 7531911,
        "name:xx": "Maktab Barīd Aḩmad Badawī"
      }
    },
    {
      "geometry": {
        "type": "Point",
        "coordinates": [
          31.252152,
          30.066633
        ]
      },
      "type": "Feature",
      "properties": {
        "hierarchy": [
          "tgn:7531912",
          "tgn:7001242",
          "tgn:7016833",
          "tgn:1001091",
          "tgn:7029392"
        ],
        "placetype": [
          "aat:300007899"
        ],
        "id": 7531912,
        "name:xx": "Nafaq Aḩmad Badawī"
      }
    },
    {
      "geometry": {
        "type": "Point",
        "coordinates": [
          31.247793,
          30.067937
        ]
      },
      "type": "Feature",
      "properties": {
        "hierarchy": [
          "tgn:7531913",
          "tgn:7001242",
          "tgn:7016833",
          "tgn:1001091",
          "tgn:7029392"
        ],
        "placetype": [
          "aat:300006676"
        ],
        "id": 7531913,
        "name:xx": "Mustashfá aţ Ţibb al Islāmī"
      }
    },
    {
      "geometry": {
        "type": "Point",
        "coordinates": [
          31.252851,
          30.069577
        ]
      },
      "type": "Feature",
      "properties": {
        "hierarchy": [
          "tgn:7531914",
          "tgn:7001242",
          "tgn:7016833",
          "tgn:1001091",
          "tgn:7029392"
        ],
        "placetype": [
          "aat:300007544"
        ],
        "id": 7531914,
        "name:xx": "Masjid Jam'īyat aş Şafā"
      }
    },
    {
      "geometry": {
        "type": "Point",
        "coordinates": [
          31.251712,
          30.071692
        ]
      },
      "type": "Feature",
      "properties": {
        "hierarchy": [
          "tgn:7531915",
          "tgn:7001242",
          "tgn:7016833",
          "tgn:1001091",
          "tgn:7029392"
        ],
        "placetype": [
          "aat:300007544"
        ],
        "id": 7531915,
        "name:xx": "Masjid an Naşr"
      }
    },
    {
      "geometry": {
        "type": "Point",
        "coordinates": [
          31.252573,
          30.073029
        ]
      },
      "type": "Feature",
      "properties": {
        "hierarchy": [
          "tgn:7531916",
          "tgn:7001242",
          "tgn:7016833",
          "tgn:1001091",
          "tgn:7029392"
        ],
        "placetype": [
          "aat:300006676"
        ],
        "id": 7531916,
        "name:xx": "Mustashfá Shubrā al 'Āmm"
      }
    },
    {
      "geometry": {
        "type": "Point",
        "coordinates": [
          31.245464,
          30.071935
        ]
      },
      "type": "Feature",
      "properties": {
        "hierarchy": [
          "tgn:7531917",
          "tgn:7001242",
          "tgn:7016833",
          "tgn:1001091",
          "tgn:7029392"
        ],
        "placetype": [
          "aat:300006036"
        ],
        "id": 7531917,
        "name:xx": "Barīd Shubrā"
      }
    },
    {
      "geometry": {
        "type": "Point",
        "coordinates": [
          31.245969,
          30.072096
        ]
      },
      "type": "Feature",
      "properties": {
        "hierarchy": [
          "tgn:7531918",
          "tgn:7001242",
          "tgn:7016833",
          "tgn:1001091",
          "tgn:7029392"
        ],
        "placetype": [
          "aat:300007544"
        ],
        "id": 7531918,
        "name:xx": "Masjid an Naşr"
      }
    },
    {
      "geometry": {
        "type": "Point",
        "coordinates": [
          31.244702,
          30.071989
        ]
      },
      "type": "Feature",
      "properties": {
        "hierarchy": [
          "tgn:7531919",
          "tgn:7001242",
          "tgn:7016833",
          "tgn:1001091",
          "tgn:7029392"
        ],
        "placetype": [
          "aat:300007783"
        ],
        "id": 7531919,
        "name:xx": "Masarrah"
      }
    }
  ]
}
