{
  "type": "FeatureCollection",
  "features": [
    {
      "geometry": {
        "type": "Point",
        "coordinates": [
          32.120477,
          30.569122
        ]
      },
      "type": "Feature",
      "properties": {
        "hierarchy": [
          "tgn:1095170",
          "tgn:7001242",
          "tgn:7016833",
          "tgn:1001080",
          "tgn:7029392"
        ],
        "placetype": [
          "aat:300008347"
        ],
        "name:en": "Abu Suweir",
        "id": 1095170
      }
    },
    {
      "geometry": {
        "type": "Point",
        "coordinates": [
          31.577838,
          30.912304
        ]
      },
      "type": "Feature",
      "properties": {
        "hierarchy": [
          "tgn:1095171",
          "tgn:7001242",
          "tgn:1001059",
          "tgn:7016833",
          "tgn:7029392"
        ],
        "placetype": [
          "aat:300008347"
        ],
        "name:en": "Abū Dāwūd as Sibākh",
        "id": 1095171
      }
    },
    {
      "geometry": {
        "type": "Point",
        "coordinates": [
          30.939011,
          30.271167
        ]
      },
      "type": "Feature",
      "properties": {
        "hierarchy": [
          "tgn:1095172",
          "tgn:7001242",
          "tgn:1001075",
          "tgn:7016833",
          "tgn:7029392"
        ],
        "placetype": [
          "aat:300008347"
        ],
        "name:en": "Abū Ghālib",
        "id": 1095172
      }
    },
    {
      "geometry": {
        "type": "Point",
        "coordinates": [
          30.68215,
          29.239521
        ]
      },
      "type": "Feature",
      "properties": {
        "hierarchy": [
          "tgn:1095173",
          "tgn:7001242",
          "tgn:7001105",
          "tgn:7016833",
          "tgn:7029392"
        ],
        "placetype": [
          "aat:300008347"
        ],
        "id": 1095173,
        "name:xx": "Abu Gandîr"
      }
    },
    {
      "geometry": {
        "type": "Point",
        "coordinates": [
          30.79012,
          28.534865
        ]
      },
      "type": "Feature",
      "properties": {
        "hierarchy": [
          "tgn:1095174",
          "tgn:7001242",
          "tgn:7016833",
          "tgn:1001088",
          "tgn:7029392"
        ],
        "placetype": [
          "aat:300008347"
        ],
        "name:en": "Abū Jirj",
        "id": 1095174
      }
    },
    {
      "geometry": {
        "type": "Point",
        "coordinates": [
          31.671483,
          30.72508
        ]
      },
      "type": "Feature",
      "properties": {
        "hierarchy": [
          "tgn:1095175",
          "tgn:7001242",
          "tgn:7016833",
          "tgn:1001113",
          "tgn:7029392"
        ],
        "placetype": [
          "aat:300008347"
        ],
        "id": 1095175,
        "name:xx": "Abū Kabīr"
      }
    },
    {
      "geometry": {
        "type": "Point",
        "coordinates": [
          30.838414,
          27.931205
        ]
      },
      "type": "Feature",
      "properties": {
        "hierarchy": [
          "tgn:1095176",
          "tgn:7001242",
          "tgn:7016833",
          "tgn:1001088",
          "tgn:7029392"
        ],
        "placetype": [
          "aat:300008347"
        ],
        "name:en": "Abū Qurqāş",
        "id": 1095176
      }
    },
    {
      "geometry": {
        "type": "Point",
        "coordinates": [
          32.303731,
          30.410289
        ]
      },
      "type": "Feature",
      "properties": {
        "hierarchy": [
          "tgn:1095177",
          "tgn:7001242",
          "tgn:7016833",
          "tgn:1001080",
          "tgn:7029392"
        ],
        "placetype": [
          "aat:300008347"
        ],
        "id": 1095177,
        "name:xx": "Abū Sulṭān"
      }
    },
    {
      "geometry": {
        "type": "Point",
        "coordinates": [
          31.318967,
          27.044109
        ]
      },
      "type": "Feature",
      "properties": {
        "hierarchy": [
          "tgn:1095178",
          "tgn:7001242",
          "tgn:7016833",
          "tgn:1001114",
          "tgn:7029392"
        ],
        "placetype": [
          "aat:300008347"
        ],
        "name:en": "Abū Tīj",
        "id": 1095178
      }
    },
    {
      "geometry": {
        "type": "Point",
        "coordinates": [
          31.354499,
          30.249496
        ]
      },
      "type": "Feature",
      "properties": {
        "hierarchy": [
          "tgn:1095179",
          "tgn:7001242",
          "tgn:7016833",
          "tgn:1001092",
          "tgn:7029392"
        ],
        "placetype": [
          "aat:300008347"
        ],
        "name:en": "Abū Za'bal",
        "id": 1095179
      }
    }
  ]
}
