{
  "type": "FeatureCollection",
  "features": [
    {
      "geometry": {
        "type": "Point",
        "coordinates": [
          79.048861,
          24.058941
        ]
      },
      "type": "Feature",
      "properties": {
        "hierarchy": [
          "tgn:7563370",
          "tgn:1000004",
          "tgn:7000198",
          "tgn:1001894",
          "tgn:7029392"
        ],
        "placetype": [
          "aat:300008347"
        ],
        "name:en": "Orāho",
        "id": 7563370
      }
    },
    {
      "geometry": {
        "type": "Point",
        "coordinates": [
          79.04589,
          24.066648
        ]
      },
      "type": "Feature",
      "properties": {
        "hierarchy": [
          "tgn:7563371",
          "tgn:1000004",
          "tgn:7000198",
          "tgn:1001894",
          "tgn:7029392"
        ],
        "placetype": [
          "aat:300008347"
        ],
        "name:en": "Sandāgir",
        "id": 7563371
      }
    },
    {
      "geometry": {
        "type": "Point",
        "coordinates": [
          79.003066,
          24.071459
        ]
      },
      "type": "Feature",
      "properties": {
        "hierarchy": [
          "tgn:7563372",
          "tgn:1000004",
          "tgn:7000198",
          "tgn:1001894",
          "tgn:7029392"
        ],
        "placetype": [
          "aat:300008347"
        ],
        "name:en": "Rāmpur",
        "id": 7563372
      }
    },
    {
      "geometry": {
        "type": "Point",
        "coordinates": [
          79.045644,
          24.107336
        ]
      },
      "type": "Feature",
      "properties": {
        "hierarchy": [
          "tgn:7563373",
          "tgn:1000004",
          "tgn:7000198",
          "tgn:1001894",
          "tgn:7029392"
        ],
        "placetype": [
          "aat:300008865"
        ],
        "name:en": "Pātrīkota Reserved Forest",
        "id": 7563373
      }
    },
    {
      "geometry": {
        "type": "Point",
        "coordinates": [
          79.039229,
          24.090917
        ]
      },
      "type": "Feature",
      "properties": {
        "hierarchy": [
          "tgn:7563374",
          "tgn:1000004",
          "tgn:7000198",
          "tgn:1001894",
          "tgn:7029392"
        ],
        "placetype": [
          "aat:300008347"
        ],
        "name:en": "Nihāni",
        "id": 7563374
      }
    },
    {
      "geometry": {
        "type": "Point",
        "coordinates": [
          79.086781,
          24.094085
        ]
      },
      "type": "Feature",
      "properties": {
        "hierarchy": [
          "tgn:7563375",
          "tgn:1000004",
          "tgn:7000198",
          "tgn:1001894",
          "tgn:7029392"
        ],
        "placetype": [
          "aat:300008699"
        ],
        "name:en": "Nihāni Nāla",
        "id": 7563375
      }
    },
    {
      "geometry": {
        "type": "Point",
        "coordinates": [
          79.096958,
          24.095069
        ]
      },
      "type": "Feature",
      "properties": {
        "hierarchy": [
          "tgn:7563376",
          "tgn:1000004",
          "tgn:7000198",
          "tgn:1001894",
          "tgn:7029392"
        ],
        "placetype": [
          "aat:300008347"
        ],
        "name:en": "Pātrīkota",
        "id": 7563376
      }
    },
    {
      "geometry": {
        "type": "Point",
        "coordinates": [
          79.104906,
          24.09087
        ]
      },
      "type": "Feature",
      "properties": {
        "hierarchy": [
          "tgn:7563377",
          "tgn:1000004",
          "tgn:7000198",
          "tgn:1001894",
          "tgn:7029392"
        ],
        "placetype": [
          "aat:300008347"
        ],
        "name:en": "Bamanora",
        "id": 7563377
      }
    },
    {
      "geometry": {
        "type": "Point",
        "coordinates": [
          79.126908,
          24.087729
        ]
      },
      "type": "Feature",
      "properties": {
        "hierarchy": [
          "tgn:7563378",
          "tgn:1000004",
          "tgn:7000198",
          "tgn:1001894",
          "tgn:7029392"
        ],
        "placetype": [
          "aat:300008347"
        ],
        "name:en": "Binnai",
        "id": 7563378
      }
    },
    {
      "geometry": {
        "type": "Point",
        "coordinates": [
          79.135854,
          24.107828
        ]
      },
      "type": "Feature",
      "properties": {
        "hierarchy": [
          "tgn:7563379",
          "tgn:1000004",
          "tgn:7000198",
          "tgn:1001894",
          "tgn:7029392"
        ],
        "placetype": [
          "aat:300167671"
        ],
        "name:en": "Patori",
        "id": 7563379
      }
    }
  ]
}
