{
  "type": "FeatureCollection",
  "features": [
    {
      "geometry": {
        "type": "Point",
        "coordinates": [
          79.099468,
          26.914919
        ]
      },
      "type": "Feature",
      "properties": {
        "hierarchy": [
          "tgn:7561180",
          "tgn:1000004",
          "tgn:7000198",
          "tgn:7016722",
          "tgn:7029392"
        ],
        "placetype": [
          "aat:300008347"
        ],
        "name:en": "Kalyānpur Rāhan",
        "id": 7561180
      }
    },
    {
      "geometry": {
        "type": "Point",
        "coordinates": [
          79.114829,
          26.913743
        ]
      },
      "type": "Feature",
      "properties": {
        "hierarchy": [
          "tgn:7561181",
          "tgn:1000004",
          "tgn:7000198",
          "tgn:7016722",
          "tgn:7029392"
        ],
        "placetype": [
          "aat:300008347"
        ],
        "name:en": "Bhadaiyāpur",
        "id": 7561181
      }
    },
    {
      "geometry": {
        "type": "Point",
        "coordinates": [
          79.118623,
          26.919296
        ]
      },
      "type": "Feature",
      "properties": {
        "hierarchy": [
          "tgn:7561182",
          "tgn:1000004",
          "tgn:7000198",
          "tgn:7016722",
          "tgn:7029392"
        ],
        "placetype": [
          "aat:300008347"
        ],
        "name:en": "Tisuwādev",
        "id": 7561182
      }
    },
    {
      "geometry": {
        "type": "Point",
        "coordinates": [
          79.138752,
          26.901881
        ]
      },
      "type": "Feature",
      "properties": {
        "hierarchy": [
          "tgn:7561183",
          "tgn:1000004",
          "tgn:7000198",
          "tgn:7016722",
          "tgn:7029392"
        ],
        "placetype": [
          "aat:300008347"
        ],
        "name:en": "Repura",
        "id": 7561183
      }
    },
    {
      "geometry": {
        "type": "Point",
        "coordinates": [
          79.142896,
          26.920274
        ]
      },
      "type": "Feature",
      "properties": {
        "hierarchy": [
          "tgn:7561184",
          "tgn:1000004",
          "tgn:7000198",
          "tgn:7016722",
          "tgn:7029392"
        ],
        "placetype": [
          "aat:300008347"
        ],
        "name:en": "Chak Gubriha",
        "id": 7561184
      }
    },
    {
      "geometry": {
        "type": "Point",
        "coordinates": [
          79.152271,
          26.915098
        ]
      },
      "type": "Feature",
      "properties": {
        "hierarchy": [
          "tgn:7561185",
          "tgn:1000004",
          "tgn:7000198",
          "tgn:7016722",
          "tgn:7029392"
        ],
        "placetype": [
          "aat:300008347"
        ],
        "name:en": "Chhadāmi ka Nagla",
        "id": 7561185
      }
    },
    {
      "geometry": {
        "type": "Point",
        "coordinates": [
          79.131528,
          26.912944
        ]
      },
      "type": "Feature",
      "properties": {
        "hierarchy": [
          "tgn:7561186",
          "tgn:1000004",
          "tgn:7000198",
          "tgn:7016722",
          "tgn:7029392"
        ],
        "placetype": [
          "aat:300008347"
        ],
        "name:en": "Lachchhu ka Nagla",
        "id": 7561186
      }
    },
    {
      "geometry": {
        "type": "Point",
        "coordinates": [
          79.145422,
          26.908081
        ]
      },
      "type": "Feature",
      "properties": {
        "hierarchy": [
          "tgn:7561187",
          "tgn:1000004",
          "tgn:7000198",
          "tgn:7016722",
          "tgn:7029392"
        ],
        "placetype": [
          "aat:300008347"
        ],
        "name:en": "Kabūli",
        "id": 7561187
      }
    },
    {
      "geometry": {
        "type": "Point",
        "coordinates": [
          79.1608,
          26.911055
        ]
      },
      "type": "Feature",
      "properties": {
        "hierarchy": [
          "tgn:7561188",
          "tgn:1000004",
          "tgn:7000198",
          "tgn:7016722",
          "tgn:7029392"
        ],
        "placetype": [
          "aat:300008347"
        ],
        "name:en": "Chaupula",
        "id": 7561188
      }
    },
    {
      "geometry": {
        "type": "Point",
        "coordinates": [
          79.161433,
          26.912541
        ]
      },
      "type": "Feature",
      "properties": {
        "hierarchy": [
          "tgn:7561189",
          "tgn:1000004",
          "tgn:7000198",
          "tgn:7016722",
          "tgn:7029392"
        ],
        "placetype": [
          "aat:300008347"
        ],
        "name:en": "Nawalpur",
        "id": 7561189
      }
    }
  ]
}
