{
  "type": "FeatureCollection",
  "features": [
    {
      "geometry": {
        "type": "Point",
        "coordinates": [
          78.251944,
          17.4425
        ]
      },
      "type": "Feature",
      "properties": {
        "hierarchy": [
          "tgn:7569070",
          "tgn:1001828",
          "tgn:1000004",
          "tgn:7000198",
          "tgn:7029392"
        ],
        "placetype": [
          "aat:300008347"
        ],
        "name:en": "Kollūr",
        "id": 7569070
      }
    },
    {
      "geometry": {
        "type": "Point",
        "coordinates": [
          78.341389,
          17.465
        ]
      },
      "type": "Feature",
      "properties": {
        "hierarchy": [
          "tgn:7569071",
          "tgn:1001828",
          "tgn:1000004",
          "tgn:7000198",
          "tgn:7029392"
        ],
        "placetype": [
          "aat:300008347"
        ],
        "name:en": "Masjidpur",
        "id": 7569071
      }
    },
    {
      "geometry": {
        "type": "Point",
        "coordinates": [
          78.365,
          17.458056
        ]
      },
      "type": "Feature",
      "properties": {
        "hierarchy": [
          "tgn:7569072",
          "tgn:1001828",
          "tgn:1000004",
          "tgn:7000198",
          "tgn:7029392"
        ],
        "placetype": [
          "aat:300008347"
        ],
        "name:en": "Kothaguda",
        "id": 7569072
      }
    },
    {
      "geometry": {
        "type": "Point",
        "coordinates": [
          78.337778,
          17.446111
        ]
      },
      "type": "Feature",
      "properties": {
        "hierarchy": [
          "tgn:7569073",
          "tgn:1001828",
          "tgn:1000004",
          "tgn:7000198",
          "tgn:7029392"
        ],
        "placetype": [
          "aat:300008347"
        ],
        "name:en": "Kumbarchalka",
        "id": 7569073
      }
    },
    {
      "geometry": {
        "type": "Point",
        "coordinates": [
          78.388333,
          17.441944
        ]
      },
      "type": "Feature",
      "properties": {
        "hierarchy": [
          "tgn:7569074",
          "tgn:1001828",
          "tgn:1000004",
          "tgn:7000198",
          "tgn:7029392"
        ],
        "placetype": [
          "aat:300008347"
        ],
        "name:en": "Madhāpur",
        "id": 7569074
      }
    },
    {
      "geometry": {
        "type": "Point",
        "coordinates": [
          78.492778,
          17.431667
        ]
      },
      "type": "Feature",
      "properties": {
        "hierarchy": [
          "tgn:7569075",
          "tgn:1001828",
          "tgn:1000004",
          "tgn:7000198",
          "tgn:7029392"
        ],
        "placetype": [
          "aat:300007783"
        ],
        "name:en": "Secunderābād Railroad Station",
        "id": 7569075
      }
    },
    {
      "geometry": {
        "type": "Point",
        "coordinates": [
          78.4925,
          17.364722
        ]
      },
      "type": "Feature",
      "properties": {
        "hierarchy": [
          "tgn:7569076",
          "tgn:1001828",
          "tgn:1000004",
          "tgn:7000198",
          "tgn:7029392"
        ],
        "placetype": [
          "aat:300007783"
        ],
        "name:en": "Dabirpura Railroad Station",
        "id": 7569076
      }
    },
    {
      "geometry": {
        "type": "Point",
        "coordinates": [
          78.390278,
          17.4125
        ]
      },
      "type": "Feature",
      "properties": {
        "hierarchy": [
          "tgn:7569077",
          "tgn:1001828",
          "tgn:1000004",
          "tgn:7000198",
          "tgn:7029392"
        ],
        "placetype": [
          "aat:300008347"
        ],
        "name:en": "Husain Sawāli Dargāh",
        "id": 7569077
      }
    },
    {
      "geometry": {
        "type": "Point",
        "coordinates": [
          78.351389,
          17.419167
        ]
      },
      "type": "Feature",
      "properties": {
        "hierarchy": [
          "tgn:7569078",
          "tgn:1001828",
          "tgn:1000004",
          "tgn:7000198",
          "tgn:7029392"
        ],
        "placetype": [
          "aat:300008347"
        ],
        "name:en": "Nānakrāmguda",
        "id": 7569078
      }
    },
    {
      "geometry": {
        "type": "Point",
        "coordinates": [
          78.324444,
          17.4275
        ]
      },
      "type": "Feature",
      "properties": {
        "hierarchy": [
          "tgn:7569079",
          "tgn:1001828",
          "tgn:1000004",
          "tgn:7000198",
          "tgn:7029392"
        ],
        "placetype": [
          "aat:300008347"
        ],
        "name:en": "Gauliguda",
        "id": 7569079
      }
    }
  ]
}
