{
  "type": "FeatureCollection",
  "features": [
    {
      "geometry": {
        "type": "Point",
        "coordinates": [
          120.836851,
          24.24854
        ]
      },
      "type": "Feature",
      "properties": {
        "hierarchy": [
          "tgn:7503501",
          "tgn:1000004",
          "tgn:7001009",
          "tgn:1000141",
          "tgn:7029392"
        ],
        "placetype": [
          "aat:300006495"
        ],
        "id": 7503501,
        "name:xx": "Dongshi Gaogong"
      }
    },
    {
      "geometry": {
        "type": "Point",
        "coordinates": [
          120.825658,
          24.267671
        ]
      },
      "type": "Feature",
      "properties": {
        "hierarchy": [
          "tgn:7503502",
          "tgn:1000004",
          "tgn:7001009",
          "tgn:1000141",
          "tgn:7029392"
        ],
        "placetype": [
          "aat:300000745"
        ],
        "id": 7503502,
        "name:xx": "Xiaxin"
      }
    },
    {
      "geometry": {
        "type": "Point",
        "coordinates": [
          120.833035,
          24.266718
        ]
      },
      "type": "Feature",
      "properties": {
        "hierarchy": [
          "tgn:7503503",
          "tgn:1000004",
          "tgn:7001009",
          "tgn:1000141",
          "tgn:7029392"
        ],
        "placetype": [
          "aat:300008347"
        ],
        "id": 7503503,
        "name:xx": "Bogonglong"
      }
    },
    {
      "geometry": {
        "type": "Point",
        "coordinates": [
          120.84215,
          24.25445
        ]
      },
      "type": "Feature",
      "properties": {
        "hierarchy": [
          "tgn:7503504",
          "tgn:1000004",
          "tgn:7001009",
          "tgn:1000141",
          "tgn:7029392"
        ],
        "placetype": [
          "aat:300008347"
        ],
        "id": 7503504,
        "name:xx": "Dengcuo"
      }
    },
    {
      "geometry": {
        "type": "Point",
        "coordinates": [
          120.837434,
          24.256749
        ]
      },
      "type": "Feature",
      "properties": {
        "hierarchy": [
          "tgn:7503505",
          "tgn:1000004",
          "tgn:7001009",
          "tgn:1000141",
          "tgn:7029392"
        ],
        "placetype": [
          "aat:300008347"
        ],
        "id": 7503505,
        "name:xx": "Xiaozhongke"
      }
    },
    {
      "geometry": {
        "type": "Point",
        "coordinates": [
          120.855825,
          24.263246
        ]
      },
      "type": "Feature",
      "properties": {
        "hierarchy": [
          "tgn:7503507",
          "tgn:1000004",
          "tgn:7001009",
          "tgn:1000141",
          "tgn:7029392"
        ],
        "placetype": [
          "aat:300008347"
        ],
        "id": 7503507,
        "name:xx": "Jiucaibu"
      }
    },
    {
      "geometry": {
        "type": "Point",
        "coordinates": [
          120.855018,
          24.260513
        ]
      },
      "type": "Feature",
      "properties": {
        "hierarchy": [
          "tgn:7503508",
          "tgn:1000004",
          "tgn:7001009",
          "tgn:1000141",
          "tgn:7029392"
        ],
        "placetype": [
          "aat:300008347"
        ],
        "id": 7503508,
        "name:xx": "Dingzhongke"
      }
    },
    {
      "geometry": {
        "type": "Point",
        "coordinates": [
          120.871201,
          24.260966
        ]
      },
      "type": "Feature",
      "properties": {
        "hierarchy": [
          "tgn:7503509",
          "tgn:1000004",
          "tgn:7001009",
          "tgn:1000141",
          "tgn:7029392"
        ],
        "placetype": [
          "aat:300008347"
        ],
        "id": 7503509,
        "name:xx": "Dawan"
      }
    }
  ]
}
