{
  "type": "FeatureCollection",
  "features": [
    {
      "geometry": {
        "type": "Point",
        "coordinates": [
          79.13073,
          26.413204
        ]
      },
      "type": "Feature",
      "properties": {
        "hierarchy": [
          "tgn:7562790",
          "tgn:1000004",
          "tgn:7000198",
          "tgn:7016722",
          "tgn:7029392"
        ],
        "placetype": [
          "aat:300008347"
        ],
        "name:en": "Sultānpura",
        "id": 7562790
      }
    },
    {
      "geometry": {
        "type": "Point",
        "coordinates": [
          79.131544,
          26.423982
        ]
      },
      "type": "Feature",
      "properties": {
        "hierarchy": [
          "tgn:7562791",
          "tgn:1000004",
          "tgn:7000198",
          "tgn:7016722",
          "tgn:7029392"
        ],
        "placetype": [
          "aat:300008865"
        ],
        "name:en": "Sultānpura Reserved Forest",
        "id": 7562791
      }
    },
    {
      "geometry": {
        "type": "Point",
        "coordinates": [
          79.157341,
          26.423823
        ]
      },
      "type": "Feature",
      "properties": {
        "hierarchy": [
          "tgn:7562792",
          "tgn:1000004",
          "tgn:7000198",
          "tgn:7016722",
          "tgn:7029392"
        ],
        "placetype": [
          "aat:300008347"
        ],
        "name:en": "Billaur",
        "id": 7562792
      }
    },
    {
      "geometry": {
        "type": "Point",
        "coordinates": [
          79.150781,
          26.434657
        ]
      },
      "type": "Feature",
      "properties": {
        "hierarchy": [
          "tgn:7562793",
          "tgn:1000004",
          "tgn:7000198",
          "tgn:7016722",
          "tgn:7029392"
        ],
        "placetype": [
          "aat:300008865"
        ],
        "name:en": "Billaur Protected Forest",
        "id": 7562793
      }
    },
    {
      "geometry": {
        "type": "Point",
        "coordinates": [
          79.171131,
          26.433391
        ]
      },
      "type": "Feature",
      "properties": {
        "hierarchy": [
          "tgn:7562794",
          "tgn:1000004",
          "tgn:7000198",
          "tgn:7016722",
          "tgn:7029392"
        ],
        "placetype": [
          "aat:300008347"
        ],
        "name:en": "Jakheta",
        "id": 7562794
      }
    },
    {
      "geometry": {
        "type": "Point",
        "coordinates": [
          79.241794,
          26.449597
        ]
      },
      "type": "Feature",
      "properties": {
        "hierarchy": [
          "tgn:7562795",
          "tgn:1000004",
          "tgn:7000198",
          "tgn:7016722",
          "tgn:7029392"
        ],
        "placetype": [
          "aat:300008347"
        ],
        "name:en": "Bardauli",
        "id": 7562795
      }
    },
    {
      "geometry": {
        "type": "Point",
        "coordinates": [
          79.247112,
          26.432818
        ]
      },
      "type": "Feature",
      "properties": {
        "hierarchy": [
          "tgn:7562796",
          "tgn:1000004",
          "tgn:7000198",
          "tgn:7016722",
          "tgn:7029392"
        ],
        "placetype": [
          "aat:300008347"
        ],
        "name:en": "Juhīkha",
        "id": 7562796
      }
    },
    {
      "geometry": {
        "type": "Point",
        "coordinates": [
          79.229972,
          26.433387
        ]
      },
      "type": "Feature",
      "properties": {
        "hierarchy": [
          "tgn:7562797",
          "tgn:1000004",
          "tgn:7000198",
          "tgn:7016722",
          "tgn:7029392"
        ],
        "placetype": [
          "aat:300008347"
        ],
        "name:en": "Gūnj Kalān",
        "id": 7562797
      }
    },
    {
      "geometry": {
        "type": "Point",
        "coordinates": [
          79.234953,
          26.439606
        ]
      },
      "type": "Feature",
      "properties": {
        "hierarchy": [
          "tgn:7562798",
          "tgn:1000004",
          "tgn:7000198",
          "tgn:7016722",
          "tgn:7029392"
        ],
        "placetype": [
          "aat:300008347"
        ],
        "name:en": "Gūnj Khurd",
        "id": 7562798
      }
    },
    {
      "geometry": {
        "type": "Point",
        "coordinates": [
          79.230534,
          26.443425
        ]
      },
      "type": "Feature",
      "properties": {
        "hierarchy": [
          "tgn:7562799",
          "tgn:1000004",
          "tgn:7000198",
          "tgn:7016722",
          "tgn:7029392"
        ],
        "placetype": [
          "aat:300008347"
        ],
        "name:en": "Tatārpur",
        "id": 7562799
      }
    }
  ]
}
