{
  "type": "FeatureCollection",
  "features": [
    {
      "geometry": {
        "type": "Point",
        "coordinates": [
          3.117809,
          42.139543
        ]
      },
      "type": "Feature",
      "properties": {
        "hierarchy": [
          "tgn:1100522",
          "tgn:7002820",
          "tgn:7030216",
          "tgn:1000003",
          "tgn:1000095",
          "tgn:7029392"
        ],
        "placetype": [
          "aat:300008347",
          "aat:300000810",
          "aat:300008372"
        ],
        "id": 1100522,
        "name:xx": "Ampurias"
      }
    },
    {
      "geometry": {
        "type": "Point",
        "coordinates": [
          9.4167,
          39.6667
        ]
      },
      "type": "Feature",
      "properties": {
        "hierarchy": [
          "tgn:1100523",
          "tgn:1001724",
          "tgn:1000003",
          "tgn:7003121",
          "tgn:1000080",
          "tgn:7029392"
        ],
        "placetype": [
          "aat:300000833"
        ],
        "id": 1100523,
        "name:xx": "Arras, Nuraghe"
      }
    },
    {
      "geometry": {
        "type": "Point",
        "coordinates": [
          -2.6333,
          53.65
        ]
      },
      "type": "Feature",
      "properties": {
        "hierarchy": [
          "tgn:1100524",
          "tgn:7002445",
          "tgn:1000003",
          "tgn:7008154",
          "tgn:7008591",
          "tgn:7029392"
        ],
        "placetype": [
          "aat:300000238"
        ],
        "id": 1100524,
        "name:xx": "Astley Hall"
      }
    },
    {
      "geometry": {
        "type": "Point",
        "coordinates": [
          5.2667,
          61.5333
        ]
      },
      "type": "Feature",
      "properties": {
        "hierarchy": [
          "tgn:1100525",
          "tgn:7003653",
          "tgn:1000003",
          "tgn:1000088",
          "tgn:7029392"
        ],
        "placetype": [
          "aat:300000833"
        ],
        "id": 1100525,
        "name:xx": "Ausevik"
      }
    },
    {
      "geometry": {
        "type": "Point",
        "coordinates": [
          20.5833,
          44.75
        ]
      },
      "type": "Feature",
      "properties": {
        "hierarchy": [
          "tgn:1100526",
          "tgn:1000003",
          "tgn:7006669",
          "tgn:7029392"
        ],
        "placetype": [
          "aat:300006888",
          "aat:300006958"
        ],
        "id": 1100526,
        "name:xx": "Avala"
      }
    },
    {
      "geometry": {
        "type": "Point",
        "coordinates": [
          10.1667,
          35.7167
        ]
      },
      "type": "Feature",
      "properties": {
        "hierarchy": [
          "tgn:1100528",
          "tgn:1002088",
          "tgn:7001242",
          "tgn:1000205",
          "tgn:7029392"
        ],
        "placetype": [
          "aat:300000833"
        ],
        "id": 1100528,
        "name:xx": "Bassin des Aghlabites"
      }
    }
  ]
}
