{
  "type": "FeatureCollection",
  "features": [
    {
      "geometry": {
        "type": "Point",
        "coordinates": [
          121.454608,
          24.971876
        ]
      },
      "type": "Feature",
      "properties": {
        "hierarchy": [
          "tgn:7495980",
          "tgn:1000004",
          "tgn:1000454",
          "tgn:1000141",
          "tgn:7029392"
        ],
        "placetype": [
          "aat:300006610"
        ],
        "id": 7495980,
        "name:xx": "Sihai Gongzhuan"
      }
    },
    {
      "geometry": {
        "type": "Point",
        "coordinates": [
          121.428978,
          24.962277
        ]
      },
      "type": "Feature",
      "properties": {
        "hierarchy": [
          "tgn:7495981",
          "tgn:1000004",
          "tgn:1000454",
          "tgn:1000141",
          "tgn:7029392"
        ],
        "placetype": [
          "aat:300006495"
        ],
        "id": 7495981,
        "name:xx": "Tucheng Guozhong"
      }
    },
    {
      "geometry": {
        "type": "Point",
        "coordinates": [
          121.458042,
          24.961252
        ]
      },
      "type": "Feature",
      "properties": {
        "hierarchy": [
          "tgn:7495982",
          "tgn:1000004",
          "tgn:1000454",
          "tgn:1000141",
          "tgn:7029392"
        ],
        "placetype": [
          "aat:300007595"
        ],
        "id": 7495982,
        "name:xx": "Jingming Daoyuan"
      }
    },
    {
      "geometry": {
        "type": "Point",
        "coordinates": [
          121.448324,
          24.956582
        ]
      },
      "type": "Feature",
      "properties": {
        "hierarchy": [
          "tgn:7495983",
          "tgn:1000004",
          "tgn:1000454",
          "tgn:1000141",
          "tgn:7029392"
        ],
        "placetype": [
          "aat:300008187"
        ],
        "id": 7495983,
        "name:xx": "Nantianmu Senlin Leyuan"
      }
    },
    {
      "geometry": {
        "type": "Point",
        "coordinates": [
          121.445825,
          24.952185
        ]
      },
      "type": "Feature",
      "properties": {
        "hierarchy": [
          "tgn:7495984",
          "tgn:1000004",
          "tgn:1000454",
          "tgn:1000141",
          "tgn:7029392"
        ],
        "placetype": [
          "aat:300007595"
        ],
        "id": 7495984,
        "name:xx": "Chengtian Chansi"
      }
    },
    {
      "geometry": {
        "type": "Point",
        "coordinates": [
          121.456136,
          24.946239
        ]
      },
      "type": "Feature",
      "properties": {
        "hierarchy": [
          "tgn:7495985",
          "tgn:1000004",
          "tgn:1000454",
          "tgn:1000141",
          "tgn:7029392"
        ],
        "placetype": [
          "aat:300008795"
        ],
        "id": 7495985,
        "name:xx": "Neipo Shan"
      }
    },
    {
      "geometry": {
        "type": "Point",
        "coordinates": [
          121.456803,
          24.943821
        ]
      },
      "type": "Feature",
      "properties": {
        "hierarchy": [
          "tgn:7495986",
          "tgn:1000004",
          "tgn:1000454",
          "tgn:1000141",
          "tgn:7029392"
        ],
        "placetype": [
          "aat:300007595"
        ],
        "id": 7495986,
        "name:xx": "Riyue Dong"
      }
    },
    {
      "geometry": {
        "type": "Point",
        "coordinates": [
          121.444381,
          24.926661
        ]
      },
      "type": "Feature",
      "properties": {
        "hierarchy": [
          "tgn:7495988",
          "tgn:1000004",
          "tgn:1000454",
          "tgn:1000141",
          "tgn:7029392"
        ],
        "placetype": [
          "aat:300008699"
        ],
        "id": 7495988,
        "name:xx": "Zhulun Xi"
      }
    },
    {
      "geometry": {
        "type": "Point",
        "coordinates": [
          121.430597,
          24.922899
        ]
      },
      "type": "Feature",
      "properties": {
        "hierarchy": [
          "tgn:7495989",
          "tgn:1000004",
          "tgn:1000454",
          "tgn:1000141",
          "tgn:7029392"
        ],
        "placetype": [
          "aat:300008699"
        ],
        "id": 7495989,
        "name:xx": "Zhukeng Xi"
      }
    }
  ]
}
