{
  "type": "FeatureCollection",
  "features": [
    {
      "geometry": {
        "type": "Point",
        "coordinates": [
          79.101035,
          24.70175
        ]
      },
      "type": "Feature",
      "properties": {
        "hierarchy": [
          "tgn:7565630",
          "tgn:1000004",
          "tgn:7000198",
          "tgn:1001894",
          "tgn:7029392"
        ],
        "placetype": [
          "aat:300008347"
        ],
        "name:en": "Gukhrai",
        "id": 7565630
      }
    },
    {
      "geometry": {
        "type": "Point",
        "coordinates": [
          79.129415,
          24.702926
        ]
      },
      "type": "Feature",
      "properties": {
        "hierarchy": [
          "tgn:7565631",
          "tgn:1000004",
          "tgn:7000198",
          "tgn:1001894",
          "tgn:7029392"
        ],
        "placetype": [
          "aat:300008795"
        ],
        "name:en": "Chiraiya Pahār",
        "id": 7565631
      }
    },
    {
      "geometry": {
        "type": "Point",
        "coordinates": [
          79.16531,
          24.701388
        ]
      },
      "type": "Feature",
      "properties": {
        "hierarchy": [
          "tgn:7565632",
          "tgn:1000004",
          "tgn:7000198",
          "tgn:1001894",
          "tgn:7029392"
        ],
        "placetype": [
          "aat:300008347"
        ],
        "name:en": "Lachhmanpura",
        "id": 7565632
      }
    },
    {
      "geometry": {
        "type": "Point",
        "coordinates": [
          79.167836,
          24.700985
        ]
      },
      "type": "Feature",
      "properties": {
        "hierarchy": [
          "tgn:7565633",
          "tgn:1000004",
          "tgn:7000198",
          "tgn:1001894",
          "tgn:7029392"
        ],
        "placetype": [
          "aat:300008347"
        ],
        "name:en": "Dhonga",
        "id": 7565633
      }
    },
    {
      "geometry": {
        "type": "Point",
        "coordinates": [
          79.20631,
          24.705707
        ]
      },
      "type": "Feature",
      "properties": {
        "hierarchy": [
          "tgn:7565634",
          "tgn:1000004",
          "tgn:7000198",
          "tgn:1001894",
          "tgn:7029392"
        ],
        "placetype": [
          "aat:300008347"
        ],
        "name:en": "Chaudhronkhera",
        "id": 7565634
      }
    },
    {
      "geometry": {
        "type": "Point",
        "coordinates": [
          79.211832,
          24.700857
        ]
      },
      "type": "Feature",
      "properties": {
        "hierarchy": [
          "tgn:7565635",
          "tgn:1000004",
          "tgn:7000198",
          "tgn:1001894",
          "tgn:7029392"
        ],
        "placetype": [
          "aat:300008347"
        ],
        "name:en": "Karmauriyākhera",
        "id": 7565635
      }
    },
    {
      "geometry": {
        "type": "Point",
        "coordinates": [
          79.212333,
          24.70623
        ]
      },
      "type": "Feature",
      "properties": {
        "hierarchy": [
          "tgn:7565636",
          "tgn:1000004",
          "tgn:7000198",
          "tgn:1001894",
          "tgn:7029392"
        ],
        "placetype": [
          "aat:300008680"
        ],
        "name:en": "Chandel Tāl",
        "id": 7565636
      }
    },
    {
      "geometry": {
        "type": "Point",
        "coordinates": [
          79.216324,
          24.707051
        ]
      },
      "type": "Feature",
      "properties": {
        "hierarchy": [
          "tgn:7565637",
          "tgn:1000004",
          "tgn:7000198",
          "tgn:1001894",
          "tgn:7029392"
        ],
        "placetype": [
          "aat:300008347"
        ],
        "name:en": "Kuriyāla",
        "id": 7565637
      }
    },
    {
      "geometry": {
        "type": "Point",
        "coordinates": [
          79.239738,
          24.705737
        ]
      },
      "type": "Feature",
      "properties": {
        "hierarchy": [
          "tgn:7565638",
          "tgn:1000004",
          "tgn:7000198",
          "tgn:1001894",
          "tgn:7029392"
        ],
        "placetype": [
          "aat:300008865"
        ],
        "name:en": "Imliya Reserved Forest",
        "id": 7565638
      }
    },
    {
      "geometry": {
        "type": "Point",
        "coordinates": [
          79.247561,
          24.713095
        ]
      },
      "type": "Feature",
      "properties": {
        "hierarchy": [
          "tgn:7565639",
          "tgn:1000004",
          "tgn:7000198",
          "tgn:1001894",
          "tgn:7029392"
        ],
        "placetype": [
          "aat:300008795"
        ],
        "name:en": "Siddha Pahār",
        "id": 7565639
      }
    }
  ]
}
