{
  "type": "FeatureCollection",
  "features": [
    {
      "geometry": {
        "type": "Point",
        "coordinates": [
          120.397778,
          23.274444
        ]
      },
      "type": "Feature",
      "properties": {
        "hierarchy": [
          "tgn:7470921",
          "tgn:1000004",
          "tgn:7490934",
          "tgn:1000141",
          "tgn:7029392"
        ],
        "placetype": [
          "aat:300008347"
        ],
        "id": 7470921,
        "name:xx": "Erchongxi"
      }
    },
    {
      "geometry": {
        "type": "Point",
        "coordinates": [
          120.388188,
          23.119857
        ]
      },
      "type": "Feature",
      "properties": {
        "hierarchy": [
          "tgn:7470922",
          "tgn:1000004",
          "tgn:7490934",
          "tgn:1000141",
          "tgn:7029392"
        ],
        "placetype": [
          "aat:300008347"
        ],
        "id": 7470922,
        "name:xx": "Erchongxi"
      }
    },
    {
      "geometry": {
        "type": "Point",
        "coordinates": [
          121.484445,
          25.068691
        ]
      },
      "type": "Feature",
      "properties": {
        "hierarchy": [
          "tgn:7470923",
          "tgn:1000004",
          "tgn:1000454",
          "tgn:1000141",
          "tgn:7029392"
        ],
        "placetype": [
          "aat:300000745"
        ],
        "id": 7470923,
        "name:xx": "Erchongbu"
      }
    },
    {
      "geometry": {
        "type": "Point",
        "coordinates": [
          120.251,
          23.3239
        ]
      },
      "type": "Feature",
      "properties": {
        "hierarchy": [
          "tgn:7470925",
          "tgn:1000004",
          "tgn:7490934",
          "tgn:1000141",
          "tgn:7029392"
        ],
        "placetype": [
          "aat:300008347"
        ],
        "id": 7470925,
        "name:xx": "Erzhuang"
      }
    },
    {
      "geometry": {
        "type": "Point",
        "coordinates": [
          121.354136,
          24.903899
        ]
      },
      "type": "Feature",
      "properties": {
        "hierarchy": [
          "tgn:7470926",
          "tgn:1000004",
          "tgn:1000454",
          "tgn:1000141",
          "tgn:7029392"
        ],
        "placetype": [
          "aat:300008347"
        ],
        "id": 7470926,
        "name:xx": "Erjiu"
      }
    },
    {
      "geometry": {
        "type": "Point",
        "coordinates": [
          121.06796,
          25.011205
        ]
      },
      "type": "Feature",
      "properties": {
        "hierarchy": [
          "tgn:7470927",
          "tgn:1000004",
          "tgn:7001013",
          "tgn:1000141",
          "tgn:7029392"
        ],
        "placetype": [
          "aat:300008347"
        ],
        "id": 7470927,
        "name:xx": "Liangzuowu"
      }
    },
    {
      "geometry": {
        "type": "Point",
        "coordinates": [
          120.823138,
          23.867243
        ]
      },
      "type": "Feature",
      "properties": {
        "hierarchy": [
          "tgn:7470928",
          "tgn:7488858",
          "tgn:1000004",
          "tgn:1000141",
          "tgn:7029392"
        ],
        "placetype": [
          "aat:300008798"
        ],
        "id": 7470928,
        "name:xx": "Erkan Shan"
      }
    }
  ]
}
