{
  "type": "FeatureCollection",
  "features": [
    {
      "geometry": {
        "type": "Point",
        "coordinates": [
          78.943362,
          24.638679
        ]
      },
      "type": "Feature",
      "properties": {
        "hierarchy": [
          "tgn:7585080",
          "tgn:1000004",
          "tgn:7000198",
          "tgn:1001894",
          "tgn:7029392"
        ],
        "placetype": [
          "aat:300008347"
        ],
        "name:en": "Kusmariākhera",
        "id": 7585080
      }
    },
    {
      "geometry": {
        "type": "Point",
        "coordinates": [
          78.956231,
          24.651973
        ]
      },
      "type": "Feature",
      "properties": {
        "hierarchy": [
          "tgn:7585081",
          "tgn:1000004",
          "tgn:7000198",
          "tgn:1001894",
          "tgn:7029392"
        ],
        "placetype": [
          "aat:300167671"
        ],
        "name:en": "Chhipariākhera",
        "id": 7585081
      }
    },
    {
      "geometry": {
        "type": "Point",
        "coordinates": [
          78.952834,
          24.660228
        ]
      },
      "type": "Feature",
      "properties": {
        "hierarchy": [
          "tgn:7585082",
          "tgn:1000004",
          "tgn:7000198",
          "tgn:1001894",
          "tgn:7029392"
        ],
        "placetype": [
          "aat:300008347"
        ],
        "name:en": "Rādhāpur",
        "id": 7585082
      }
    },
    {
      "geometry": {
        "type": "Point",
        "coordinates": [
          78.931383,
          24.658813
        ]
      },
      "type": "Feature",
      "properties": {
        "hierarchy": [
          "tgn:7585083",
          "tgn:1000004",
          "tgn:7000198",
          "tgn:1001894",
          "tgn:7029392"
        ],
        "placetype": [
          "aat:300008347"
        ],
        "name:en": "Salāmatīkhera",
        "id": 7585083
      }
    },
    {
      "geometry": {
        "type": "Point",
        "coordinates": [
          78.93685,
          24.656601
        ]
      },
      "type": "Feature",
      "properties": {
        "hierarchy": [
          "tgn:7585084",
          "tgn:1000004",
          "tgn:7000198",
          "tgn:1001894",
          "tgn:7029392"
        ],
        "placetype": [
          "aat:300008699"
        ],
        "name:en": "Salāmati Nāla",
        "id": 7585084
      }
    },
    {
      "geometry": {
        "type": "Point",
        "coordinates": [
          78.934054,
          24.645613
        ]
      },
      "type": "Feature",
      "properties": {
        "hierarchy": [
          "tgn:7585085",
          "tgn:1000004",
          "tgn:7000198",
          "tgn:1001894",
          "tgn:7029392"
        ],
        "placetype": [
          "aat:300008347"
        ],
        "name:en": "Samarra",
        "id": 7585085
      }
    },
    {
      "geometry": {
        "type": "Point",
        "coordinates": [
          78.940489,
          24.62965
        ]
      },
      "type": "Feature",
      "properties": {
        "hierarchy": [
          "tgn:7585086",
          "tgn:1000004",
          "tgn:7000198",
          "tgn:1001894",
          "tgn:7029392"
        ],
        "placetype": [
          "aat:300008347"
        ],
        "name:en": "Madanpur",
        "id": 7585086
      }
    },
    {
      "geometry": {
        "type": "Point",
        "coordinates": [
          78.930911,
          24.62957
        ]
      },
      "type": "Feature",
      "properties": {
        "hierarchy": [
          "tgn:7585087",
          "tgn:1000004",
          "tgn:7000198",
          "tgn:1001894",
          "tgn:7029392"
        ],
        "placetype": [
          "aat:300008347"
        ],
        "name:en": "Phutera",
        "id": 7585087
      }
    },
    {
      "geometry": {
        "type": "Point",
        "coordinates": [
          78.902387,
          24.63249
        ]
      },
      "type": "Feature",
      "properties": {
        "hierarchy": [
          "tgn:7585088",
          "tgn:1000004",
          "tgn:7000198",
          "tgn:1001894",
          "tgn:7029392"
        ],
        "placetype": [
          "aat:300008347"
        ],
        "name:en": "Sukwāha",
        "id": 7585088
      }
    },
    {
      "geometry": {
        "type": "Point",
        "coordinates": [
          78.91423,
          24.653349
        ]
      },
      "type": "Feature",
      "properties": {
        "hierarchy": [
          "tgn:7585089",
          "tgn:1000004",
          "tgn:7000198",
          "tgn:1001894",
          "tgn:7029392"
        ],
        "placetype": [
          "aat:300008347"
        ],
        "name:en": "Basgoi",
        "id": 7585089
      }
    }
  ]
}
