{
  "type": "FeatureCollection",
  "features": [
    {
      "geometry": {
        "type": "Point",
        "coordinates": [
          72.945278,
          18.723889
        ]
      },
      "type": "Feature",
      "properties": {
        "hierarchy": [
          "tgn:7569850",
          "tgn:1000004",
          "tgn:7000198",
          "tgn:1001895",
          "tgn:7029392"
        ],
        "placetype": [
          "aat:300008347"
        ],
        "name:en": "Longhar",
        "id": 7569850
      }
    },
    {
      "geometry": {
        "type": "Point",
        "coordinates": [
          72.890556,
          18.715278
        ]
      },
      "type": "Feature",
      "properties": {
        "hierarchy": [
          "tgn:7569851",
          "tgn:1000004",
          "tgn:7000198",
          "tgn:1001895",
          "tgn:7029392"
        ],
        "placetype": [
          "aat:300008347"
        ],
        "name:en": "Munavli",
        "id": 7569851
      }
    },
    {
      "geometry": {
        "type": "Point",
        "coordinates": [
          72.9025,
          18.717222
        ]
      },
      "type": "Feature",
      "properties": {
        "hierarchy": [
          "tgn:7569852",
          "tgn:1000004",
          "tgn:7000198",
          "tgn:1001895",
          "tgn:7029392"
        ],
        "placetype": [
          "aat:300008347"
        ],
        "name:en": "Chorondpāda",
        "id": 7569852
      }
    },
    {
      "geometry": {
        "type": "Point",
        "coordinates": [
          72.891667,
          18.736389
        ]
      },
      "type": "Feature",
      "properties": {
        "hierarchy": [
          "tgn:7569853",
          "tgn:1000004",
          "tgn:7000198",
          "tgn:1001895",
          "tgn:7029392"
        ],
        "placetype": [
          "aat:300008347"
        ],
        "name:en": "Sātirje",
        "id": 7569853
      }
    },
    {
      "geometry": {
        "type": "Point",
        "coordinates": [
          72.936111,
          18.777778
        ]
      },
      "type": "Feature",
      "properties": {
        "hierarchy": [
          "tgn:7569854",
          "tgn:1000004",
          "tgn:7000198",
          "tgn:1001895",
          "tgn:7029392"
        ],
        "placetype": [
          "aat:300008347"
        ],
        "name:en": "Kavāde",
        "id": 7569854
      }
    },
    {
      "geometry": {
        "type": "Point",
        "coordinates": [
          72.895833,
          18.774167
        ]
      },
      "type": "Feature",
      "properties": {
        "hierarchy": [
          "tgn:7569855",
          "tgn:1000004",
          "tgn:7000198",
          "tgn:1001895",
          "tgn:7029392"
        ],
        "placetype": [
          "aat:300008347"
        ],
        "name:en": "Matralipāda",
        "id": 7569855
      }
    },
    {
      "geometry": {
        "type": "Point",
        "coordinates": [
          72.8675,
          18.712778
        ]
      },
      "type": "Feature",
      "properties": {
        "hierarchy": [
          "tgn:7569856",
          "tgn:1000004",
          "tgn:7000198",
          "tgn:1001895",
          "tgn:7029392"
        ],
        "placetype": [
          "aat:300008347"
        ],
        "name:en": "Navedar",
        "id": 7569856
      }
    },
    {
      "geometry": {
        "type": "Point",
        "coordinates": [
          72.871111,
          18.7525
        ]
      },
      "type": "Feature",
      "properties": {
        "hierarchy": [
          "tgn:7569857",
          "tgn:1000004",
          "tgn:7000198",
          "tgn:1001895",
          "tgn:7029392"
        ],
        "placetype": [
          "aat:300008347"
        ],
        "name:en": "Surekhār",
        "id": 7569857
      }
    },
    {
      "geometry": {
        "type": "Point",
        "coordinates": [
          72.866667,
          18.784444
        ]
      },
      "type": "Feature",
      "properties": {
        "hierarchy": [
          "tgn:7569858",
          "tgn:1000004",
          "tgn:7000198",
          "tgn:1001895",
          "tgn:7029392"
        ],
        "placetype": [
          "aat:300008347"
        ],
        "name:en": "Sasaune",
        "id": 7569858
      }
    },
    {
      "geometry": {
        "type": "Point",
        "coordinates": [
          72.866944,
          18.791944
        ]
      },
      "type": "Feature",
      "properties": {
        "hierarchy": [
          "tgn:7569859",
          "tgn:1000004",
          "tgn:7000198",
          "tgn:1001895",
          "tgn:7029392"
        ],
        "placetype": [
          "aat:300008347"
        ],
        "name:en": "Kolgaon",
        "id": 7569859
      }
    }
  ]
}
