{
  "type": "FeatureCollection",
  "features": [
    {
      "geometry": {
        "type": "Point",
        "coordinates": [
          34.35786,
          28.753612
        ]
      },
      "type": "Feature",
      "properties": {
        "hierarchy": [
          "tgn:7544490",
          "tgn:7001242",
          "tgn:7016833",
          "tgn:7001336",
          "tgn:7029392"
        ],
        "placetype": [
          "aat:300379998"
        ],
        "name:en": "Şafrah, Wādī",
        "id": 7544490
      }
    },
    {
      "geometry": {
        "type": "Point",
        "coordinates": [
          34.367661,
          28.834632
        ]
      },
      "type": "Feature",
      "properties": {
        "hierarchy": [
          "tgn:7544491",
          "tgn:7001242",
          "tgn:7016833",
          "tgn:7001336",
          "tgn:7029392"
        ],
        "placetype": [
          "aat:300008795"
        ],
        "name:en": "Kheil, Gebel",
        "id": 7544491
      }
    },
    {
      "geometry": {
        "type": "Point",
        "coordinates": [
          34.265783,
          28.714222
        ]
      },
      "type": "Feature",
      "properties": {
        "hierarchy": [
          "tgn:7544492",
          "tgn:7001242",
          "tgn:7016833",
          "tgn:7001336",
          "tgn:7029392"
        ],
        "placetype": [
          "aat:300379998"
        ],
        "name:en": "Thameila, Wādī",
        "id": 7544492
      }
    },
    {
      "geometry": {
        "type": "Point",
        "coordinates": [
          34.247597,
          28.750561
        ]
      },
      "type": "Feature",
      "properties": {
        "hierarchy": [
          "tgn:7544493",
          "tgn:7001242",
          "tgn:7016833",
          "tgn:7001336",
          "tgn:7029392"
        ],
        "placetype": [
          "aat:300379998"
        ],
        "name:en": "Khalif, Wādī",
        "id": 7544493
      }
    },
    {
      "geometry": {
        "type": "Point",
        "coordinates": [
          34.179823,
          28.73221
        ]
      },
      "type": "Feature",
      "properties": {
        "hierarchy": [
          "tgn:7544494",
          "tgn:7001242",
          "tgn:7016833",
          "tgn:7001336",
          "tgn:7029392"
        ],
        "placetype": [
          "aat:300379998"
        ],
        "name:en": "Mirad, Wādī",
        "id": 7544494
      }
    }
  ]
}
