{
  "type": "FeatureCollection",
  "features": [
    {
      "geometry": {
        "type": "Point",
        "coordinates": [
          80.704425,
          25.547112
        ]
      },
      "type": "Feature",
      "properties": {
        "hierarchy": [
          "tgn:7544850",
          "tgn:1000004",
          "tgn:7000198",
          "tgn:7016722",
          "tgn:7029392"
        ],
        "placetype": [
          "aat:300008347"
        ],
        "name:en": "Baberu",
        "id": 7544850
      }
    },
    {
      "geometry": {
        "type": "Point",
        "coordinates": [
          75.871204,
          30.418503
        ]
      },
      "type": "Feature",
      "properties": {
        "hierarchy": [
          "tgn:7544851",
          "tgn:1000004",
          "tgn:7000198",
          "tgn:7016883",
          "tgn:7029392"
        ],
        "placetype": [
          "aat:300008347"
        ],
        "name:en": "Babbanpur",
        "id": 7544851
      }
    },
    {
      "geometry": {
        "type": "Point",
        "coordinates": [
          82.880266,
          25.454197
        ]
      },
      "type": "Feature",
      "properties": {
        "hierarchy": [
          "tgn:7544852",
          "tgn:1000004",
          "tgn:7000198",
          "tgn:7016722",
          "tgn:7029392"
        ],
        "placetype": [
          "aat:300007783"
        ],
        "name:en": "Bābatpur",
        "id": 7544852
      }
    },
    {
      "geometry": {
        "type": "Point",
        "coordinates": [
          76.966499,
          29.44994
        ]
      },
      "type": "Feature",
      "properties": {
        "hierarchy": [
          "tgn:7544853",
          "tgn:1000004",
          "tgn:1001871",
          "tgn:7000198",
          "tgn:7029392"
        ],
        "placetype": [
          "aat:300007783"
        ],
        "name:en": "Babarpur Railroad Station",
        "id": 7544853
      }
    },
    {
      "geometry": {
        "type": "Point",
        "coordinates": [
          73.470067,
          24.088473
        ]
      },
      "type": "Feature",
      "properties": {
        "hierarchy": [
          "tgn:7544854",
          "tgn:1000004",
          "tgn:7000198",
          "tgn:7016788",
          "tgn:7029392"
        ],
        "placetype": [
          "aat:300008347"
        ],
        "name:en": "Bāvalwāra",
        "id": 7544854
      }
    },
    {
      "geometry": {
        "type": "Point",
        "coordinates": [
          76.981888,
          30.071623
        ]
      },
      "type": "Feature",
      "properties": {
        "hierarchy": [
          "tgn:7544855",
          "tgn:1000004",
          "tgn:1001871",
          "tgn:7000198",
          "tgn:7029392"
        ],
        "placetype": [
          "aat:300008347"
        ],
        "name:en": "Bābain",
        "id": 7544855
      }
    },
    {
      "geometry": {
        "type": "Point",
        "coordinates": [
          75.762231,
          27.887604
        ]
      },
      "type": "Feature",
      "properties": {
        "hierarchy": [
          "tgn:7544856",
          "tgn:1000004",
          "tgn:7000198",
          "tgn:7016788",
          "tgn:7029392"
        ],
        "placetype": [
          "aat:300008347"
        ],
        "name:en": "Babai",
        "id": 7544856
      }
    },
    {
      "geometry": {
        "type": "Point",
        "coordinates": [
          79.460868,
          26.171249
        ]
      },
      "type": "Feature",
      "properties": {
        "hierarchy": [
          "tgn:7544857",
          "tgn:1000004",
          "tgn:7000198",
          "tgn:7016722",
          "tgn:7029392"
        ],
        "placetype": [
          "aat:300008347"
        ],
        "name:en": "Bābai",
        "id": 7544857
      }
    },
    {
      "geometry": {
        "type": "Point",
        "coordinates": [
          78.677674,
          22.831565
        ]
      },
      "type": "Feature",
      "properties": {
        "hierarchy": [
          "tgn:7544858",
          "tgn:1000004",
          "tgn:7000198",
          "tgn:1001894",
          "tgn:7029392"
        ],
        "placetype": [
          "aat:300008347"
        ],
        "name:en": "Bābai",
        "id": 7544858
      }
    },
    {
      "geometry": {
        "type": "Point",
        "coordinates": [
          77.934944,
          22.70256
        ]
      },
      "type": "Feature",
      "properties": {
        "hierarchy": [
          "tgn:7544859",
          "tgn:1000004",
          "tgn:7000198",
          "tgn:1001894",
          "tgn:7029392"
        ],
        "placetype": [
          "aat:300008347"
        ],
        "name:en": "Bābai",
        "id": 7544859
      }
    }
  ]
}
