{
  "type": "FeatureCollection",
  "features": [
    {
      "geometry": {
        "type": "Point",
        "coordinates": [
          76.371412,
          21.618477
        ]
      },
      "type": "Feature",
      "properties": {
        "hierarchy": [
          "tgn:7551590",
          "tgn:1000004",
          "tgn:7000198",
          "tgn:1001894",
          "tgn:7029392"
        ],
        "placetype": [
          "aat:300007783"
        ],
        "name:en": "Dongargaon",
        "id": 7551590
      }
    },
    {
      "geometry": {
        "type": "Point",
        "coordinates": [
          76.168441,
          24.248731
        ]
      },
      "type": "Feature",
      "properties": {
        "hierarchy": [
          "tgn:7551591",
          "tgn:1000004",
          "tgn:7000198",
          "tgn:7016788",
          "tgn:7029392"
        ],
        "placetype": [
          "aat:300008347"
        ],
        "name:en": "Dongargaon",
        "id": 7551591
      }
    },
    {
      "geometry": {
        "type": "Point",
        "coordinates": [
          80.375136,
          21.203357
        ]
      },
      "type": "Feature",
      "properties": {
        "hierarchy": [
          "tgn:7551592",
          "tgn:1000004",
          "tgn:7000198",
          "tgn:1001895",
          "tgn:7029392"
        ],
        "placetype": [
          "aat:300008347"
        ],
        "name:en": "Dongargaon",
        "id": 7551592
      }
    },
    {
      "geometry": {
        "type": "Point",
        "coordinates": [
          80.852222,
          20.972897
        ]
      },
      "type": "Feature",
      "properties": {
        "hierarchy": [
          "tgn:7551593",
          "tgn:1000004",
          "tgn:7031781",
          "tgn:7000198",
          "tgn:7029392"
        ],
        "placetype": [
          "aat:300008347"
        ],
        "name:en": "Dongargaon",
        "id": 7551593
      }
    },
    {
      "geometry": {
        "type": "Point",
        "coordinates": [
          82.383333,
          19.383333
        ]
      },
      "type": "Feature",
      "properties": {
        "hierarchy": [
          "tgn:7551594",
          "tgn:1000004",
          "tgn:7031781",
          "tgn:7000198",
          "tgn:7029392"
        ],
        "placetype": [
          "aat:300008347"
        ],
        "name:en": "Dongara",
        "id": 7551594
      }
    },
    {
      "geometry": {
        "type": "Point",
        "coordinates": [
          71.55,
          21.083333
        ]
      },
      "type": "Feature",
      "properties": {
        "hierarchy": [
          "tgn:7551595",
          "tgn:1000004",
          "tgn:1001869",
          "tgn:7000198",
          "tgn:7029392"
        ],
        "placetype": [
          "aat:300007783"
        ],
        "name:en": "Dongar",
        "id": 7551595
      }
    },
    {
      "geometry": {
        "type": "Point",
        "coordinates": [
          71.55,
          21.066667
        ]
      },
      "type": "Feature",
      "properties": {
        "hierarchy": [
          "tgn:7551596",
          "tgn:1000004",
          "tgn:1001869",
          "tgn:7000198",
          "tgn:7029392"
        ],
        "placetype": [
          "aat:300008347"
        ],
        "name:en": "Dongar",
        "id": 7551596
      }
    },
    {
      "geometry": {
        "type": "Point",
        "coordinates": [
          81.533333,
          18.833333
        ]
      },
      "type": "Feature",
      "properties": {
        "hierarchy": [
          "tgn:7551597",
          "tgn:1000004",
          "tgn:7031781",
          "tgn:7000198",
          "tgn:7029392"
        ],
        "placetype": [
          "aat:300008347"
        ],
        "name:en": "Dongar",
        "id": 7551597
      }
    },
    {
      "geometry": {
        "type": "Point",
        "coordinates": [
          76.716667,
          20.183333
        ]
      },
      "type": "Feature",
      "properties": {
        "hierarchy": [
          "tgn:7551598",
          "tgn:1000004",
          "tgn:7000198",
          "tgn:1001895",
          "tgn:7029392"
        ],
        "placetype": [
          "aat:300008347"
        ],
        "name:en": "Dongaon",
        "id": 7551598
      }
    },
    {
      "geometry": {
        "type": "Point",
        "coordinates": [
          97.037811,
          28.169642
        ]
      },
      "type": "Feature",
      "properties": {
        "hierarchy": [
          "tgn:7551599",
          "tgn:7001819",
          "tgn:1000004",
          "tgn:7000198",
          "tgn:7029392"
        ],
        "placetype": [
          "aat:300008347"
        ],
        "name:en": "Dong",
        "id": 7551599
      }
    }
  ]
}
