{
  "type": "FeatureCollection",
  "features": [
    {
      "geometry": {
        "type": "Point",
        "coordinates": [
          30.972497,
          28.440386
        ]
      },
      "type": "Feature",
      "properties": {
        "hierarchy": [
          "tgn:7520600",
          "tgn:7001242",
          "tgn:7001311",
          "tgn:7016833",
          "tgn:7029392"
        ],
        "placetype": [
          "aat:300008777"
        ],
        "name:en": "Jarf al Aḩmar, Jabal al",
        "id": 7520600
      }
    },
    {
      "geometry": {
        "type": "Point",
        "coordinates": [
          29.716667,
          30.816667
        ]
      },
      "type": "Feature",
      "properties": {
        "hierarchy": [
          "tgn:7520601",
          "tgn:7001242",
          "tgn:7016833",
          "tgn:1001079",
          "tgn:7029392"
        ],
        "placetype": [
          "aat:300387200"
        ],
        "name:en": "Al Juraysāt",
        "id": 7520601
      }
    },
    {
      "geometry": {
        "type": "Point",
        "coordinates": [
          31.125564,
          30.78911
        ]
      },
      "type": "Feature",
      "properties": {
        "hierarchy": [
          "tgn:7520604",
          "tgn:7001242",
          "tgn:7016833",
          "tgn:7001312",
          "tgn:7029392"
        ],
        "placetype": [
          "aat:300008347"
        ],
        "name:en": "Al Jummayzah",
        "id": 7520604
      }
    },
    {
      "geometry": {
        "type": "Point",
        "coordinates": [
          31.380853,
          30.537272
        ]
      },
      "type": "Feature",
      "properties": {
        "hierarchy": [
          "tgn:7520605",
          "tgn:7001242",
          "tgn:7016833",
          "tgn:1001113",
          "tgn:7029392"
        ],
        "placetype": [
          "aat:300008347"
        ],
        "id": 7520605,
        "name:xx": "Al Judayyidah"
      }
    },
    {
      "geometry": {
        "type": "Point",
        "coordinates": [
          32.75,
          25.85
        ]
      },
      "type": "Feature",
      "properties": {
        "hierarchy": [
          "tgn:7520609",
          "tgn:7001242",
          "tgn:7016833",
          "tgn:7000123",
          "tgn:7029392"
        ],
        "placetype": [
          "aat:300008347"
        ],
        "name:en": "Al Jimālīyah",
        "id": 7520609
      }
    }
  ]
}
