{
  "type": "FeatureCollection",
  "features": [
    {
      "geometry": {
        "type": "Point",
        "coordinates": [
          121.048611,
          24.593056
        ]
      },
      "type": "Feature",
      "properties": {
        "hierarchy": [
          "tgn:7503460",
          "tgn:7487020",
          "tgn:1000004",
          "tgn:1000141",
          "tgn:7029392"
        ],
        "placetype": [
          "aat:300008347"
        ],
        "id": 7503460,
        "name:xx": "Sanjiaohu"
      }
    },
    {
      "geometry": {
        "type": "Point",
        "coordinates": [
          121.043056,
          24.600278
        ]
      },
      "type": "Feature",
      "properties": {
        "hierarchy": [
          "tgn:7503461",
          "tgn:7487020",
          "tgn:1000004",
          "tgn:1000141",
          "tgn:7029392"
        ],
        "placetype": [
          "aat:300007595"
        ],
        "id": 7503461,
        "name:xx": "Yongsheng Gong"
      }
    },
    {
      "geometry": {
        "type": "Point",
        "coordinates": [
          121.044167,
          24.604722
        ]
      },
      "type": "Feature",
      "properties": {
        "hierarchy": [
          "tgn:7503462",
          "tgn:7487020",
          "tgn:1000004",
          "tgn:1000141",
          "tgn:7029392"
        ],
        "placetype": [
          "aat:300008347"
        ],
        "id": 7503462,
        "name:xx": "Long'ailiao"
      }
    },
    {
      "geometry": {
        "type": "Point",
        "coordinates": [
          121.010278,
          24.596667
        ]
      },
      "type": "Feature",
      "properties": {
        "hierarchy": [
          "tgn:7503463",
          "tgn:7487020",
          "tgn:1000004",
          "tgn:1000141",
          "tgn:7029392"
        ],
        "placetype": [
          "aat:300008347"
        ],
        "id": 7503463,
        "name:xx": "Xiaping"
      }
    },
    {
      "geometry": {
        "type": "Point",
        "coordinates": [
          121.017778,
          24.597778
        ]
      },
      "type": "Feature",
      "properties": {
        "hierarchy": [
          "tgn:7503464",
          "tgn:7487020",
          "tgn:1000004",
          "tgn:1000141",
          "tgn:7029392"
        ],
        "placetype": [
          "aat:300007836"
        ],
        "id": 7503464,
        "name:xx": "Dongjiang Qiao"
      }
    },
    {
      "geometry": {
        "type": "Point",
        "coordinates": [
          121.011389,
          24.605556
        ]
      },
      "type": "Feature",
      "properties": {
        "hierarchy": [
          "tgn:7503465",
          "tgn:7487020",
          "tgn:1000004",
          "tgn:1000141",
          "tgn:7029392"
        ],
        "placetype": [
          "aat:300008347"
        ],
        "id": 7503465,
        "name:xx": "Wushewo"
      }
    },
    {
      "geometry": {
        "type": "Point",
        "coordinates": [
          121.157222,
          24.611389
        ]
      },
      "type": "Feature",
      "properties": {
        "hierarchy": [
          "tgn:7503466",
          "tgn:1000004",
          "tgn:7471332",
          "tgn:1000141",
          "tgn:7029392"
        ],
        "placetype": [
          "aat:300004898"
        ],
        "id": 7503466,
        "name:xx": "Nonglin Gailiangchang"
      }
    },
    {
      "geometry": {
        "type": "Point",
        "coordinates": [
          120.4275,
          22.906111
        ]
      },
      "type": "Feature",
      "properties": {
        "hierarchy": [
          "tgn:7503467",
          "tgn:7001004",
          "tgn:1000004",
          "tgn:1000141",
          "tgn:7029392"
        ],
        "placetype": [
          "aat:300008347"
        ],
        "id": 7503467,
        "name:xx": "Longzikeng"
      }
    },
    {
      "geometry": {
        "type": "Point",
        "coordinates": [
          120.426944,
          22.911667
        ]
      },
      "type": "Feature",
      "properties": {
        "hierarchy": [
          "tgn:7503468",
          "tgn:7001004",
          "tgn:1000004",
          "tgn:1000141",
          "tgn:7029392"
        ],
        "placetype": [
          "aat:300008347"
        ],
        "id": 7503468,
        "name:xx": "Zhuweizi"
      }
    }
  ]
}
