{
  "type": "FeatureCollection",
  "features": [
    {
      "geometry": {
        "type": "Point",
        "coordinates": [
          -101.873889,
          20.495833
        ]
      },
      "type": "Feature",
      "properties": {
        "hierarchy": [
          "tgn:7414700",
          "tgn:7005584",
          "tgn:1000001",
          "tgn:7005560",
          "tgn:7029392"
        ],
        "placetype": [
          "aat:300008347"
        ],
        "id": 7414700,
        "name:xx": "El Pandito"
      }
    },
    {
      "geometry": {
        "type": "Point",
        "coordinates": [
          -101.953056,
          20.453056
        ]
      },
      "type": "Feature",
      "properties": {
        "hierarchy": [
          "tgn:7414701",
          "tgn:7005584",
          "tgn:1000001",
          "tgn:7005560",
          "tgn:7029392"
        ],
        "placetype": [
          "aat:300006191"
        ],
        "id": 7414701,
        "name:xx": "Presa La Loma"
      }
    },
    {
      "geometry": {
        "type": "Point",
        "coordinates": [
          -101.943056,
          20.460833
        ]
      },
      "type": "Feature",
      "properties": {
        "hierarchy": [
          "tgn:7414702",
          "tgn:7005584",
          "tgn:1000001",
          "tgn:7005560",
          "tgn:7029392"
        ],
        "placetype": [
          "aat:300008347"
        ],
        "id": 7414702,
        "name:xx": "San Miguel"
      }
    },
    {
      "geometry": {
        "type": "Point",
        "coordinates": [
          -101.960833,
          20.465278
        ]
      },
      "type": "Feature",
      "properties": {
        "hierarchy": [
          "tgn:7414703",
          "tgn:7005584",
          "tgn:1000001",
          "tgn:7005560",
          "tgn:7029392"
        ],
        "placetype": [
          "aat:300008347"
        ],
        "id": 7414703,
        "name:xx": "Santa Elena de Aceves"
      }
    },
    {
      "geometry": {
        "type": "Point",
        "coordinates": [
          -101.996944,
          20.491944
        ]
      },
      "type": "Feature",
      "properties": {
        "hierarchy": [
          "tgn:7414704",
          "tgn:7005584",
          "tgn:1000001",
          "tgn:7005560",
          "tgn:7029392"
        ],
        "placetype": [
          "aat:300008347"
        ],
        "id": 7414704,
        "name:xx": "La Viguería"
      }
    },
    {
      "geometry": {
        "type": "Point",
        "coordinates": [
          -101.984167,
          20.460833
        ]
      },
      "type": "Feature",
      "properties": {
        "hierarchy": [
          "tgn:7414705",
          "tgn:7005584",
          "tgn:1000001",
          "tgn:7005560",
          "tgn:7029392"
        ],
        "placetype": [
          "aat:300008347"
        ],
        "id": 7414705,
        "name:xx": "Chivapa"
      }
    },
    {
      "geometry": {
        "type": "Point",
        "coordinates": [
          -101.942222,
          20.4375
        ]
      },
      "type": "Feature",
      "properties": {
        "hierarchy": [
          "tgn:7414706",
          "tgn:7005584",
          "tgn:1000001",
          "tgn:7005560",
          "tgn:7029392"
        ],
        "placetype": [
          "aat:300008347"
        ],
        "id": 7414706,
        "name:xx": "Madeja"
      }
    },
    {
      "geometry": {
        "type": "Point",
        "coordinates": [
          -101.91,
          20.413333
        ]
      },
      "type": "Feature",
      "properties": {
        "hierarchy": [
          "tgn:7414707",
          "tgn:7005584",
          "tgn:1000001",
          "tgn:7005560",
          "tgn:7029392"
        ],
        "placetype": [
          "aat:300008347"
        ],
        "id": 7414707,
        "name:xx": "Salitrillo"
      }
    },
    {
      "geometry": {
        "type": "Point",
        "coordinates": [
          -101.8125,
          20.468611
        ]
      },
      "type": "Feature",
      "properties": {
        "hierarchy": [
          "tgn:7414708",
          "tgn:7005584",
          "tgn:1000001",
          "tgn:7005560",
          "tgn:7029392"
        ],
        "placetype": [
          "aat:300008795"
        ],
        "id": 7414708,
        "name:xx": "Pénjamo, Sierra"
      }
    },
    {
      "geometry": {
        "type": "Point",
        "coordinates": [
          -101.875,
          20.387222
        ]
      },
      "type": "Feature",
      "properties": {
        "hierarchy": [
          "tgn:7414709",
          "tgn:7005584",
          "tgn:1000001",
          "tgn:7005560",
          "tgn:7029392"
        ],
        "placetype": [
          "aat:300008347"
        ],
        "id": 7414709,
        "name:xx": "Arachipo"
      }
    }
  ]
}
