{
  "type": "FeatureCollection",
  "features": [
    {
      "geometry": {
        "type": "Point",
        "coordinates": [
          120.88799,
          24.705007
        ]
      },
      "type": "Feature",
      "properties": {
        "hierarchy": [
          "tgn:7478140",
          "tgn:7487020",
          "tgn:1000004",
          "tgn:1000141",
          "tgn:7029392"
        ],
        "placetype": [
          "aat:300007836"
        ],
        "id": 7478140,
        "name:xx": "Dabu Yihao Qiao"
      }
    },
    {
      "geometry": {
        "type": "Point",
        "coordinates": [
          120.882422,
          24.704187
        ]
      },
      "type": "Feature",
      "properties": {
        "hierarchy": [
          "tgn:7478141",
          "tgn:7487020",
          "tgn:1000004",
          "tgn:1000141",
          "tgn:7029392"
        ],
        "placetype": [
          "aat:300007836"
        ],
        "id": 7478141,
        "name:xx": "Jixing Qiao"
      }
    },
    {
      "geometry": {
        "type": "Point",
        "coordinates": [
          120.895672,
          24.708508
        ]
      },
      "type": "Feature",
      "properties": {
        "hierarchy": [
          "tgn:7478142",
          "tgn:7487020",
          "tgn:1000004",
          "tgn:1000141",
          "tgn:7029392"
        ],
        "placetype": [
          "aat:300007836"
        ],
        "id": 7478142,
        "name:xx": "Dabu Qiao"
      }
    },
    {
      "geometry": {
        "type": "Point",
        "coordinates": [
          120.889519,
          24.708577
        ]
      },
      "type": "Feature",
      "properties": {
        "hierarchy": [
          "tgn:7478143",
          "tgn:7487020",
          "tgn:1000004",
          "tgn:1000141",
          "tgn:7029392"
        ],
        "placetype": [
          "aat:300006495"
        ],
        "id": 7478143,
        "name:xx": "Dabu Guoxiao"
      }
    },
    {
      "geometry": {
        "type": "Point",
        "coordinates": [
          120.882865,
          24.709804
        ]
      },
      "type": "Feature",
      "properties": {
        "hierarchy": [
          "tgn:7478144",
          "tgn:7487020",
          "tgn:1000004",
          "tgn:1000141",
          "tgn:7029392"
        ],
        "placetype": [
          "aat:300007836"
        ],
        "id": 7478144,
        "name:xx": "Dabu Erhao Qiao"
      }
    },
    {
      "geometry": {
        "type": "Point",
        "coordinates": [
          120.955172,
          24.71359
        ]
      },
      "type": "Feature",
      "properties": {
        "hierarchy": [
          "tgn:7478145",
          "tgn:1000004",
          "tgn:7471332",
          "tgn:1000141",
          "tgn:7029392"
        ],
        "placetype": [
          "aat:300008777"
        ],
        "id": 7478145,
        "name:xx": "Wanmakengshan Ding"
      }
    },
    {
      "geometry": {
        "type": "Point",
        "coordinates": [
          120.928257,
          24.725773
        ]
      },
      "type": "Feature",
      "properties": {
        "hierarchy": [
          "tgn:7478146",
          "tgn:1000004",
          "tgn:7471332",
          "tgn:1000141",
          "tgn:7029392"
        ],
        "placetype": [
          "aat:300007836"
        ],
        "id": 7478146,
        "name:xx": "Nan'ai Daqiao"
      }
    },
    {
      "geometry": {
        "type": "Point",
        "coordinates": [
          120.88076,
          24.720954
        ]
      },
      "type": "Feature",
      "properties": {
        "hierarchy": [
          "tgn:7478147",
          "tgn:7487020",
          "tgn:1000004",
          "tgn:1000141",
          "tgn:7029392"
        ],
        "placetype": [
          "aat:300007836"
        ],
        "id": 7478147,
        "name:xx": "Guoshui Qiao"
      }
    },
    {
      "geometry": {
        "type": "Point",
        "coordinates": [
          120.916794,
          24.730185
        ]
      },
      "type": "Feature",
      "properties": {
        "hierarchy": [
          "tgn:7478148",
          "tgn:1000004",
          "tgn:7471332",
          "tgn:1000141",
          "tgn:7029392"
        ],
        "placetype": [
          "aat:300007836"
        ],
        "id": 7478148,
        "name:xx": "Zhong'ai Qiao"
      }
    },
    {
      "geometry": {
        "type": "Point",
        "coordinates": [
          120.929775,
          24.733362
        ]
      },
      "type": "Feature",
      "properties": {
        "hierarchy": [
          "tgn:7478149",
          "tgn:1000004",
          "tgn:7471332",
          "tgn:1000141",
          "tgn:7029392"
        ],
        "placetype": [
          "aat:300008777"
        ],
        "id": 7478149,
        "name:xx": "Shanjiaokengzhuang"
      }
    }
  ]
}
