{
  "type": "FeatureCollection",
  "features": [
    {
      "geometry": {
        "type": "Point",
        "coordinates": [
          74.5625,
          32.775
        ]
      },
      "type": "Feature",
      "properties": {
        "hierarchy": [
          "tgn:7590960",
          "tgn:1000004",
          "tgn:7000198",
          "tgn:7000799",
          "tgn:7029392"
        ],
        "placetype": [
          "aat:300008347"
        ],
        "name:en": "Dānpur",
        "id": 7590960
      }
    },
    {
      "geometry": {
        "type": "Point",
        "coordinates": [
          74.561111,
          32.772222
        ]
      },
      "type": "Feature",
      "properties": {
        "hierarchy": [
          "tgn:7590961",
          "tgn:1000004",
          "tgn:7000198",
          "tgn:7000799",
          "tgn:7029392"
        ],
        "placetype": [
          "aat:300008347"
        ],
        "name:en": "Kishanpur",
        "id": 7590961
      }
    },
    {
      "geometry": {
        "type": "Point",
        "coordinates": [
          74.545833,
          32.768056
        ]
      },
      "type": "Feature",
      "properties": {
        "hierarchy": [
          "tgn:7590962",
          "tgn:1000004",
          "tgn:7000198",
          "tgn:7000799",
          "tgn:7029392"
        ],
        "placetype": [
          "aat:300008347"
        ],
        "name:en": "Purāna Hamīrpur",
        "id": 7590962
      }
    },
    {
      "geometry": {
        "type": "Point",
        "coordinates": [
          74.55,
          32.766667
        ]
      },
      "type": "Feature",
      "properties": {
        "hierarchy": [
          "tgn:7590963",
          "tgn:1000004",
          "tgn:7000198",
          "tgn:7000799",
          "tgn:7029392"
        ],
        "placetype": [
          "aat:300008347"
        ],
        "name:en": "Kulle",
        "id": 7590963
      }
    },
    {
      "geometry": {
        "type": "Point",
        "coordinates": [
          74.518112,
          32.760423
        ]
      },
      "type": "Feature",
      "properties": {
        "hierarchy": [
          "tgn:7590964",
          "tgn:1000004",
          "tgn:7000198",
          "tgn:7000799",
          "tgn:7029392"
        ],
        "placetype": [
          "aat:300167671"
        ],
        "name:en": "Takho Chak",
        "id": 7590964
      }
    },
    {
      "geometry": {
        "type": "Point",
        "coordinates": [
          74.526389,
          32.777778
        ]
      },
      "type": "Feature",
      "properties": {
        "hierarchy": [
          "tgn:7590965",
          "tgn:1000004",
          "tgn:7000198",
          "tgn:7000799",
          "tgn:7029392"
        ],
        "placetype": [
          "aat:300008347"
        ],
        "name:en": "Hamīrpur Sīdhar",
        "id": 7590965
      }
    },
    {
      "geometry": {
        "type": "Point",
        "coordinates": [
          77.768772,
          30.467164
        ]
      },
      "type": "Feature",
      "properties": {
        "hierarchy": [
          "tgn:7590966",
          "tgn:1000004",
          "tgn:7000198",
          "tgn:7031786",
          "tgn:7029392"
        ],
        "placetype": [
          "aat:300008347"
        ],
        "name:en": "Kaliānpur",
        "id": 7590966
      }
    },
    {
      "geometry": {
        "type": "Point",
        "coordinates": [
          77.765085,
          30.467087
        ]
      },
      "type": "Feature",
      "properties": {
        "hierarchy": [
          "tgn:7590967",
          "tgn:1000004",
          "tgn:7000198",
          "tgn:7031786",
          "tgn:7029392"
        ],
        "placetype": [
          "aat:300008347"
        ],
        "name:en": "Charanjpur",
        "id": 7590967
      }
    },
    {
      "geometry": {
        "type": "Point",
        "coordinates": [
          77.99143,
          30.468317
        ]
      },
      "type": "Feature",
      "properties": {
        "hierarchy": [
          "tgn:7590968",
          "tgn:1000004",
          "tgn:7000198",
          "tgn:7031786",
          "tgn:7029392"
        ],
        "placetype": [
          "aat:300008347"
        ],
        "name:en": "Karāsu",
        "id": 7590968
      }
    },
    {
      "geometry": {
        "type": "Point",
        "coordinates": [
          77.975833,
          30.474722
        ]
      },
      "type": "Feature",
      "properties": {
        "hierarchy": [
          "tgn:7590969",
          "tgn:1000004",
          "tgn:7000198",
          "tgn:7031786",
          "tgn:7029392"
        ],
        "placetype": [
          "aat:300008347"
        ],
        "name:en": "Dānda",
        "id": 7590969
      }
    }
  ]
}
