{
  "type": "FeatureCollection",
  "features": [
    {
      "geometry": {
        "type": "Point",
        "coordinates": [
          79.090145,
          26.988224
        ]
      },
      "type": "Feature",
      "properties": {
        "hierarchy": [
          "tgn:7559780",
          "tgn:1000004",
          "tgn:7000198",
          "tgn:7016722",
          "tgn:7029392"
        ],
        "placetype": [
          "aat:300008347"
        ],
        "name:en": "Nagla Tula",
        "id": 7559780
      }
    },
    {
      "geometry": {
        "type": "Point",
        "coordinates": [
          79.086818,
          26.992355
        ]
      },
      "type": "Feature",
      "properties": {
        "hierarchy": [
          "tgn:7559781",
          "tgn:1000004",
          "tgn:7000198",
          "tgn:7016722",
          "tgn:7029392"
        ],
        "placetype": [
          "aat:300008347"
        ],
        "name:en": "Taraulia",
        "id": 7559781
      }
    },
    {
      "geometry": {
        "type": "Point",
        "coordinates": [
          79.728852,
          27.737141
        ]
      },
      "type": "Feature",
      "properties": {
        "hierarchy": [
          "tgn:7559782",
          "tgn:1000004",
          "tgn:7000198",
          "tgn:7016722",
          "tgn:7029392"
        ],
        "placetype": [
          "aat:300167671"
        ],
        "name:en": "Karia",
        "id": 7559782
      }
    },
    {
      "geometry": {
        "type": "Point",
        "coordinates": [
          79.720289,
          27.737647
        ]
      },
      "type": "Feature",
      "properties": {
        "hierarchy": [
          "tgn:7559783",
          "tgn:1000004",
          "tgn:7000198",
          "tgn:7016722",
          "tgn:7029392"
        ],
        "placetype": [
          "aat:300008347"
        ],
        "name:en": "Bheta Kalān",
        "id": 7559783
      }
    },
    {
      "geometry": {
        "type": "Point",
        "coordinates": [
          79.714047,
          27.740336
        ]
      },
      "type": "Feature",
      "properties": {
        "hierarchy": [
          "tgn:7559784",
          "tgn:1000004",
          "tgn:7000198",
          "tgn:7016722",
          "tgn:7029392"
        ],
        "placetype": [
          "aat:300008347"
        ],
        "name:en": "Mazra Purena",
        "id": 7559784
      }
    },
    {
      "geometry": {
        "type": "Point",
        "coordinates": [
          79.705455,
          27.738306
        ]
      },
      "type": "Feature",
      "properties": {
        "hierarchy": [
          "tgn:7559785",
          "tgn:1000004",
          "tgn:7000198",
          "tgn:7016722",
          "tgn:7029392"
        ],
        "placetype": [
          "aat:300008347"
        ],
        "name:en": "Bariātāra",
        "id": 7559785
      }
    },
    {
      "geometry": {
        "type": "Point",
        "coordinates": [
          79.711278,
          27.736422
        ]
      },
      "type": "Feature",
      "properties": {
        "hierarchy": [
          "tgn:7559786",
          "tgn:1000004",
          "tgn:7000198",
          "tgn:7016722",
          "tgn:7029392"
        ],
        "placetype": [
          "aat:300008347"
        ],
        "name:en": "Āhmadganj",
        "id": 7559786
      }
    },
    {
      "geometry": {
        "type": "Point",
        "coordinates": [
          79.70221,
          27.733784
        ]
      },
      "type": "Feature",
      "properties": {
        "hierarchy": [
          "tgn:7559787",
          "tgn:1000004",
          "tgn:7000198",
          "tgn:7016722",
          "tgn:7029392"
        ],
        "placetype": [
          "aat:300008347"
        ],
        "name:en": "Dumkāpur",
        "id": 7559787
      }
    },
    {
      "geometry": {
        "type": "Point",
        "coordinates": [
          79.712966,
          27.730178
        ]
      },
      "type": "Feature",
      "properties": {
        "hierarchy": [
          "tgn:7559788",
          "tgn:1000004",
          "tgn:7000198",
          "tgn:7016722",
          "tgn:7029392"
        ],
        "placetype": [
          "aat:300008347"
        ],
        "name:en": "Machhriyāi",
        "id": 7559788
      }
    },
    {
      "geometry": {
        "type": "Point",
        "coordinates": [
          79.727316,
          27.731096
        ]
      },
      "type": "Feature",
      "properties": {
        "hierarchy": [
          "tgn:7559789",
          "tgn:1000004",
          "tgn:7000198",
          "tgn:7016722",
          "tgn:7029392"
        ],
        "placetype": [
          "aat:300167671"
        ],
        "name:en": "Sultānpur",
        "id": 7559789
      }
    }
  ]
}
