{
  "type": "FeatureCollection",
  "features": [
    {
      "geometry": {
        "type": "Point",
        "coordinates": [
          -100.040833,
          21.428333
        ]
      },
      "type": "Feature",
      "properties": {
        "hierarchy": [
          "tgn:7420230",
          "tgn:7005584",
          "tgn:1000001",
          "tgn:7005560",
          "tgn:7029392"
        ],
        "placetype": [
          "aat:300008347"
        ],
        "id": 7420230,
        "name:xx": "Laborcilla"
      }
    },
    {
      "geometry": {
        "type": "Point",
        "coordinates": [
          -99.963611,
          21.498056
        ]
      },
      "type": "Feature",
      "properties": {
        "hierarchy": [
          "tgn:7420231",
          "tgn:7005584",
          "tgn:1000001",
          "tgn:7005560",
          "tgn:7029392"
        ],
        "placetype": [
          "aat:300008347"
        ],
        "id": 7420231,
        "name:xx": "Tortugas"
      }
    },
    {
      "geometry": {
        "type": "Point",
        "coordinates": [
          -99.996667,
          21.445278
        ]
      },
      "type": "Feature",
      "properties": {
        "hierarchy": [
          "tgn:7420232",
          "tgn:7005584",
          "tgn:1000001",
          "tgn:7005560",
          "tgn:7029392"
        ],
        "placetype": [
          "aat:300008347"
        ],
        "id": 7420232,
        "name:xx": "La Pila"
      }
    },
    {
      "geometry": {
        "type": "Point",
        "coordinates": [
          -99.968611,
          21.425556
        ]
      },
      "type": "Feature",
      "properties": {
        "hierarchy": [
          "tgn:7420233",
          "tgn:7005584",
          "tgn:1000001",
          "tgn:7005560",
          "tgn:7029392"
        ],
        "placetype": [
          "aat:300008347"
        ],
        "id": 7420233,
        "name:xx": "El Saucillo"
      }
    },
    {
      "geometry": {
        "type": "Point",
        "coordinates": [
          -100.000278,
          21.382778
        ]
      },
      "type": "Feature",
      "properties": {
        "hierarchy": [
          "tgn:7420234",
          "tgn:7005584",
          "tgn:1000001",
          "tgn:7005560",
          "tgn:7029392"
        ],
        "placetype": [
          "aat:300008795"
        ],
        "id": 7420234,
        "name:xx": "El Azafrán, Sierra"
      }
    },
    {
      "geometry": {
        "type": "Point",
        "coordinates": [
          -99.991389,
          21.385556
        ]
      },
      "type": "Feature",
      "properties": {
        "hierarchy": [
          "tgn:7420235",
          "tgn:7005584",
          "tgn:1000001",
          "tgn:7005560",
          "tgn:7029392"
        ],
        "placetype": [
          "aat:300008347"
        ],
        "id": 7420235,
        "name:xx": "Calabazas"
      }
    },
    {
      "geometry": {
        "type": "Point",
        "coordinates": [
          -99.9375,
          21.375
        ]
      },
      "type": "Feature",
      "properties": {
        "hierarchy": [
          "tgn:7420236",
          "tgn:7005584",
          "tgn:1000001",
          "tgn:7005560",
          "tgn:7029392"
        ],
        "placetype": [
          "aat:300008699"
        ],
        "id": 7420236,
        "name:xx": "La Laja, Ría"
      }
    },
    {
      "geometry": {
        "type": "Point",
        "coordinates": [
          -99.882778,
          21.391944
        ]
      },
      "type": "Feature",
      "properties": {
        "hierarchy": [
          "tgn:7420237",
          "tgn:7005584",
          "tgn:1000001",
          "tgn:7005560",
          "tgn:7029392"
        ],
        "placetype": [
          "aat:300008795"
        ],
        "id": 7420237,
        "name:xx": "Grande, Cerro"
      }
    },
    {
      "geometry": {
        "type": "Point",
        "coordinates": [
          -99.851389,
          21.438333
        ]
      },
      "type": "Feature",
      "properties": {
        "hierarchy": [
          "tgn:7420238",
          "tgn:7005584",
          "tgn:1000001",
          "tgn:7005560",
          "tgn:7029392"
        ],
        "placetype": [
          "aat:300008347"
        ],
        "id": 7420238,
        "name:xx": "El Platanal"
      }
    },
    {
      "geometry": {
        "type": "Point",
        "coordinates": [
          -99.8125,
          21.426944
        ]
      },
      "type": "Feature",
      "properties": {
        "hierarchy": [
          "tgn:7420239",
          "tgn:7005584",
          "tgn:1000001",
          "tgn:7005560",
          "tgn:7029392"
        ],
        "placetype": [
          "aat:300008347"
        ],
        "id": 7420239,
        "name:xx": "Espíritu Santo"
      }
    }
  ]
}
