{
  "type": "FeatureCollection",
  "features": [
    {
      "geometry": {
        "type": "Point",
        "coordinates": [
          31.223205,
          30.100917
        ]
      },
      "type": "Feature",
      "properties": {
        "hierarchy": [
          "tgn:7530090",
          "tgn:7001242",
          "tgn:7016833",
          "tgn:1001083",
          "tgn:7029392"
        ],
        "placetype": [
          "aat:300007544"
        ],
        "id": 7530090,
        "name:xx": "Masjid aş Şaḩābah"
      }
    },
    {
      "geometry": {
        "type": "Point",
        "coordinates": [
          31.223755,
          30.056473
        ]
      },
      "type": "Feature",
      "properties": {
        "hierarchy": [
          "tgn:7530091",
          "tgn:7001242",
          "tgn:7016833",
          "tgn:1001083",
          "tgn:7029392"
        ],
        "placetype": [
          "aat:300005768"
        ],
        "id": 7530091,
        "name:xx": "Mutḩaf Maḩmūd Khalīl"
      }
    },
    {
      "geometry": {
        "type": "Point",
        "coordinates": [
          31.222879,
          30.066322
        ]
      },
      "type": "Feature",
      "properties": {
        "hierarchy": [
          "tgn:7530092",
          "tgn:7001242",
          "tgn:7016833",
          "tgn:1001083",
          "tgn:7029392"
        ],
        "placetype": [
          "aat:300004792"
        ],
        "id": 7530092,
        "name:xx": "Maktabat al Qāhirah al Kubrá"
      }
    },
    {
      "geometry": {
        "type": "Point",
        "coordinates": [
          31.224673,
          30.06082
        ]
      },
      "type": "Feature",
      "properties": {
        "hierarchy": [
          "tgn:7530093",
          "tgn:7001242",
          "tgn:7016833",
          "tgn:1001083",
          "tgn:7029392"
        ],
        "placetype": [
          "aat:300004792"
        ],
        "id": 7530093,
        "name:xx": "Majma' al Lughat al 'Arabīyah"
      }
    },
    {
      "geometry": {
        "type": "Point",
        "coordinates": [
          31.224715,
          30.060285
        ]
      },
      "type": "Feature",
      "properties": {
        "hierarchy": [
          "tgn:7530094",
          "tgn:7001242",
          "tgn:7016833",
          "tgn:1001083",
          "tgn:7029392"
        ],
        "placetype": [
          "aat:300004792"
        ],
        "id": 7530094,
        "name:xx": "Al Ma'had as Suwīsrī lil Athār"
      }
    },
    {
      "geometry": {
        "type": "Point",
        "coordinates": [
          31.225038,
          30.058901
        ]
      },
      "type": "Feature",
      "properties": {
        "hierarchy": [
          "tgn:7530095",
          "tgn:7001242",
          "tgn:7016833",
          "tgn:1001083",
          "tgn:7029392"
        ],
        "placetype": [
          "aat:300005768"
        ],
        "id": 7530095,
        "name:xx": "Al Mutḩaf al Islāmī"
      }
    },
    {
      "geometry": {
        "type": "Point",
        "coordinates": [
          34.458333,
          30.499722
        ]
      },
      "type": "Feature",
      "properties": {
        "hierarchy": [
          "tgn:7530096",
          "tgn:7001242",
          "tgn:7016833",
          "tgn:7001335",
          "tgn:7029392"
        ],
        "placetype": [
          "aat:300379998"
        ],
        "id": 7530096,
        "name:xx": "Heneik, Wâdi"
      }
    },
    {
      "geometry": {
        "type": "Point",
        "coordinates": [
          34.488333,
          30.495556
        ]
      },
      "type": "Feature",
      "properties": {
        "hierarchy": [
          "tgn:7530097",
          "tgn:7001242",
          "tgn:7016833",
          "tgn:7001335",
          "tgn:7029392"
        ],
        "placetype": [
          "aat:300379998"
        ],
        "id": 7530097,
        "name:xx": "Umm Saiyâd, Wâdi"
      }
    },
    {
      "geometry": {
        "type": "Point",
        "coordinates": [
          34.326389,
          30.286944
        ]
      },
      "type": "Feature",
      "properties": {
        "hierarchy": [
          "tgn:7530098",
          "tgn:7001242",
          "tgn:7016833",
          "tgn:7001335",
          "tgn:7029392"
        ],
        "placetype": [
          "aat:300387029"
        ],
        "id": 7530098,
        "name:xx": "Hamar, Mashâsh el-"
      }
    },
    {
      "geometry": {
        "type": "Point",
        "coordinates": [
          34.456944,
          30.346667
        ]
      },
      "type": "Feature",
      "properties": {
        "hierarchy": [
          "tgn:7530099",
          "tgn:7001242",
          "tgn:7016833",
          "tgn:7001335",
          "tgn:7029392"
        ],
        "placetype": [
          "aat:300379998"
        ],
        "id": 7530099,
        "name:xx": "Rideihi, Wâdi"
      }
    }
  ]
}
