{
  "type": "FeatureCollection",
  "features": [
    {
      "geometry": {
        "type": "Point",
        "coordinates": [
          -99.365278,
          21.369444
        ]
      },
      "type": "Feature",
      "properties": {
        "hierarchy": [
          "tgn:7400080",
          "tgn:1000001",
          "tgn:7005593",
          "tgn:7005560",
          "tgn:7029392"
        ],
        "placetype": [
          "aat:300008347"
        ],
        "id": 7400080,
        "name:xx": "El Mezquite"
      }
    },
    {
      "geometry": {
        "type": "Point",
        "coordinates": [
          -99.341667,
          21.475
        ]
      },
      "type": "Feature",
      "properties": {
        "hierarchy": [
          "tgn:7400081",
          "tgn:1000001",
          "tgn:7005593",
          "tgn:7005560",
          "tgn:7029392"
        ],
        "placetype": [
          "aat:300008795"
        ],
        "id": 7400081,
        "name:xx": "La Escondida, Cerro"
      }
    },
    {
      "geometry": {
        "type": "Point",
        "coordinates": [
          -99.375,
          21.494444
        ]
      },
      "type": "Feature",
      "properties": {
        "hierarchy": [
          "tgn:7400082",
          "tgn:1000001",
          "tgn:7005593",
          "tgn:7005560",
          "tgn:7029392"
        ],
        "placetype": [
          "aat:300008795"
        ],
        "id": 7400082,
        "name:xx": "Peñas Paradas, Cerro"
      }
    },
    {
      "geometry": {
        "type": "Point",
        "coordinates": [
          -99.234722,
          21.480556
        ]
      },
      "type": "Feature",
      "properties": {
        "hierarchy": [
          "tgn:7400083",
          "tgn:1000001",
          "tgn:7005593",
          "tgn:7005560",
          "tgn:7029392"
        ],
        "placetype": [
          "aat:300008347"
        ],
        "id": 7400083,
        "name:xx": "San Antonio Tancoyol"
      }
    },
    {
      "geometry": {
        "type": "Point",
        "coordinates": [
          -99.275,
          21.494444
        ]
      },
      "type": "Feature",
      "properties": {
        "hierarchy": [
          "tgn:7400084",
          "tgn:1000001",
          "tgn:7005593",
          "tgn:7005560",
          "tgn:7029392"
        ],
        "placetype": [
          "aat:300008347"
        ],
        "id": 7400084,
        "name:xx": "El Tepozán"
      }
    },
    {
      "geometry": {
        "type": "Point",
        "coordinates": [
          -99.266667,
          21.488889
        ]
      },
      "type": "Feature",
      "properties": {
        "hierarchy": [
          "tgn:7400085",
          "tgn:1000001",
          "tgn:7005593",
          "tgn:7005560",
          "tgn:7029392"
        ],
        "placetype": [
          "aat:300008795"
        ],
        "id": 7400085,
        "name:xx": "Los Nogales, Cerro"
      }
    },
    {
      "geometry": {
        "type": "Point",
        "coordinates": [
          -99.258333,
          21.472222
        ]
      },
      "type": "Feature",
      "properties": {
        "hierarchy": [
          "tgn:7400086",
          "tgn:1000001",
          "tgn:7005593",
          "tgn:7005560",
          "tgn:7029392"
        ],
        "placetype": [
          "aat:300008347"
        ],
        "id": 7400086,
        "name:xx": "Lagunitas"
      }
    },
    {
      "geometry": {
        "type": "Point",
        "coordinates": [
          -99.263889,
          21.45
        ]
      },
      "type": "Feature",
      "properties": {
        "hierarchy": [
          "tgn:7400087",
          "tgn:1000001",
          "tgn:7005593",
          "tgn:7005560",
          "tgn:7029392"
        ],
        "placetype": [
          "aat:300008347"
        ],
        "id": 7400087,
        "name:xx": "Piedra Parada"
      }
    },
    {
      "geometry": {
        "type": "Point",
        "coordinates": [
          -99.258333,
          21.411111
        ]
      },
      "type": "Feature",
      "properties": {
        "hierarchy": [
          "tgn:7400088",
          "tgn:1000001",
          "tgn:7005593",
          "tgn:7005560",
          "tgn:7029392"
        ],
        "placetype": [
          "aat:300008795"
        ],
        "id": 7400088,
        "name:xx": "Mesa del Pino, Cerro"
      }
    },
    {
      "geometry": {
        "type": "Point",
        "coordinates": [
          -99.283333,
          21.394444
        ]
      },
      "type": "Feature",
      "properties": {
        "hierarchy": [
          "tgn:7400089",
          "tgn:1000001",
          "tgn:7005593",
          "tgn:7005560",
          "tgn:7029392"
        ],
        "placetype": [
          "aat:300008347"
        ],
        "id": 7400089,
        "name:xx": "La Mesa del Pino"
      }
    }
  ]
}
