{
  "type": "FeatureCollection",
  "features": [
    {
      "geometry": {
        "type": "Point",
        "coordinates": [
          74.05,
          34.272222
        ]
      },
      "type": "Feature",
      "properties": {
        "hierarchy": [
          "tgn:7585810",
          "tgn:1000004",
          "tgn:7000198",
          "tgn:7000799",
          "tgn:7029392"
        ],
        "placetype": [
          "aat:300387200"
        ],
        "name:en": "Kakua",
        "id": 7585810
      }
    },
    {
      "geometry": {
        "type": "Point",
        "coordinates": [
          74.066667,
          34.35
        ]
      },
      "type": "Feature",
      "properties": {
        "hierarchy": [
          "tgn:7585811",
          "tgn:1000004",
          "tgn:7000198",
          "tgn:7000799",
          "tgn:7029392"
        ],
        "placetype": [
          "aat:300387200"
        ],
        "name:en": "Bod Bangas",
        "id": 7585811
      }
    },
    {
      "geometry": {
        "type": "Point",
        "coordinates": [
          74.183333,
          34.366667
        ]
      },
      "type": "Feature",
      "properties": {
        "hierarchy": [
          "tgn:7585812",
          "tgn:1000004",
          "tgn:7000198",
          "tgn:7000799",
          "tgn:7029392"
        ],
        "placetype": [
          "aat:300008863"
        ],
        "name:en": "Surhalu Forest",
        "id": 7585812
      }
    },
    {
      "geometry": {
        "type": "Point",
        "coordinates": [
          74.108333,
          34.391667
        ]
      },
      "type": "Feature",
      "properties": {
        "hierarchy": [
          "tgn:7585813",
          "tgn:1000004",
          "tgn:7000198",
          "tgn:7000799",
          "tgn:7029392"
        ],
        "placetype": [
          "aat:300008863"
        ],
        "name:en": "Saren Forest",
        "id": 7585813
      }
    },
    {
      "geometry": {
        "type": "Point",
        "coordinates": [
          74.166667,
          34.35
        ]
      },
      "type": "Feature",
      "properties": {
        "hierarchy": [
          "tgn:7585814",
          "tgn:1000004",
          "tgn:7000198",
          "tgn:7000799",
          "tgn:7029392"
        ],
        "placetype": [
          "aat:300008863"
        ],
        "name:en": "Kainyar Forest",
        "id": 7585814
      }
    },
    {
      "geometry": {
        "type": "Point",
        "coordinates": [
          74.083333,
          34.402778
        ]
      },
      "type": "Feature",
      "properties": {
        "hierarchy": [
          "tgn:7585815",
          "tgn:1000004",
          "tgn:7000198",
          "tgn:7000799",
          "tgn:7029392"
        ],
        "placetype": [
          "aat:300008863"
        ],
        "name:en": "GaliƒÅli Forest",
        "id": 7585815
      }
    },
    {
      "geometry": {
        "type": "Point",
        "coordinates": [
          74.208333,
          34.413889
        ]
      },
      "type": "Feature",
      "properties": {
        "hierarchy": [
          "tgn:7585816",
          "tgn:1000004",
          "tgn:7000198",
          "tgn:7000799",
          "tgn:7029392"
        ],
        "placetype": [
          "aat:300008863"
        ],
        "name:en": "Galganjan Forest",
        "id": 7585816
      }
    },
    {
      "geometry": {
        "type": "Point",
        "coordinates": [
          74.05,
          34.497222
        ]
      },
      "type": "Feature",
      "properties": {
        "hierarchy": [
          "tgn:7585817",
          "tgn:1000004",
          "tgn:7000198",
          "tgn:7000799",
          "tgn:7029392"
        ],
        "placetype": [
          "aat:300008863"
        ],
        "name:en": "Bujon Forest",
        "id": 7585817
      }
    },
    {
      "geometry": {
        "type": "Point",
        "coordinates": [
          74.016667,
          34.497222
        ]
      },
      "type": "Feature",
      "properties": {
        "hierarchy": [
          "tgn:7585818",
          "tgn:1000004",
          "tgn:7000198",
          "tgn:7000799",
          "tgn:7029392"
        ],
        "placetype": [
          "aat:300008863"
        ],
        "name:en": "Bod Nambal Forest",
        "id": 7585818
      }
    },
    {
      "geometry": {
        "type": "Point",
        "coordinates": [
          88.470279,
          22.867825
        ]
      },
      "type": "Feature",
      "properties": {
        "hierarchy": [
          "tgn:7585819",
          "tgn:1000004",
          "tgn:7000198",
          "tgn:1001977",
          "tgn:7029392"
        ],
        "placetype": [
          "aat:300008347"
        ],
        "name:en": "Sasipur",
        "id": 7585819
      }
    }
  ]
}
