{
  "type": "FeatureCollection",
  "features": [
    {
      "geometry": {
        "type": "Point",
        "coordinates": [
          121.491609,
          23.847008
        ]
      },
      "type": "Feature",
      "properties": {
        "hierarchy": [
          "tgn:7476780",
          "tgn:7001010",
          "tgn:1000004",
          "tgn:1000141",
          "tgn:7029392"
        ],
        "placetype": [
          "aat:300006495"
        ],
        "id": 7476780,
        "name:xx": "Fengshan Guoxiao"
      }
    },
    {
      "geometry": {
        "type": "Point",
        "coordinates": [
          121.5002,
          23.845075
        ]
      },
      "type": "Feature",
      "properties": {
        "hierarchy": [
          "tgn:7476781",
          "tgn:7001010",
          "tgn:1000004",
          "tgn:1000141",
          "tgn:7029392"
        ],
        "placetype": [
          "aat:300006495"
        ],
        "id": 7476781,
        "name:xx": "Shoufeng Guozhong"
      }
    },
    {
      "geometry": {
        "type": "Point",
        "coordinates": [
          121.50782,
          23.842758
        ]
      },
      "type": "Feature",
      "properties": {
        "hierarchy": [
          "tgn:7476782",
          "tgn:7001010",
          "tgn:1000004",
          "tgn:1000141",
          "tgn:7029392"
        ],
        "placetype": [
          "aat:300006495"
        ],
        "id": 7476782,
        "name:xx": "Fengli Guoxiao"
      }
    },
    {
      "geometry": {
        "type": "Point",
        "coordinates": [
          121.485996,
          23.854806
        ]
      },
      "type": "Feature",
      "properties": {
        "hierarchy": [
          "tgn:7476783",
          "tgn:7001010",
          "tgn:1000004",
          "tgn:1000141",
          "tgn:7029392"
        ],
        "placetype": [
          "aat:300007836"
        ],
        "id": 7476783,
        "name:xx": "Fengshan Qiao"
      }
    },
    {
      "geometry": {
        "type": "Point",
        "coordinates": [
          121.48529,
          23.857161
        ]
      },
      "type": "Feature",
      "properties": {
        "hierarchy": [
          "tgn:7476784",
          "tgn:7001010",
          "tgn:1000004",
          "tgn:1000141",
          "tgn:7029392"
        ],
        "placetype": [
          "aat:300006610"
        ],
        "id": 7476784,
        "name:xx": "Jingzhong Shangzhuan"
      }
    },
    {
      "geometry": {
        "type": "Point",
        "coordinates": [
          121.504287,
          23.869205
        ]
      },
      "type": "Feature",
      "properties": {
        "hierarchy": [
          "tgn:7476785",
          "tgn:7001010",
          "tgn:1000004",
          "tgn:1000141",
          "tgn:7029392"
        ],
        "placetype": [
          "aat:300008187"
        ],
        "id": 7476785,
        "name:xx": "Zhongshan Gongyuan"
      }
    },
    {
      "geometry": {
        "type": "Point",
        "coordinates": [
          121.48059,
          23.88705
        ]
      },
      "type": "Feature",
      "properties": {
        "hierarchy": [
          "tgn:7476786",
          "tgn:7001010",
          "tgn:1000004",
          "tgn:1000141",
          "tgn:7029392"
        ],
        "placetype": [
          "aat:300008798"
        ],
        "id": 7476786,
        "name:xx": "Laoxi Shan"
      }
    },
    {
      "geometry": {
        "type": "Point",
        "coordinates": [
          121.484117,
          23.879503
        ]
      },
      "type": "Feature",
      "properties": {
        "hierarchy": [
          "tgn:7476787",
          "tgn:7001010",
          "tgn:1000004",
          "tgn:1000141",
          "tgn:7029392"
        ],
        "placetype": [
          "aat:300387503"
        ],
        "id": 7476787,
        "name:xx": "Laoxi Huguansuo"
      }
    },
    {
      "geometry": {
        "type": "Point",
        "coordinates": [
          121.502186,
          23.874396
        ]
      },
      "type": "Feature",
      "properties": {
        "hierarchy": [
          "tgn:7476788",
          "tgn:7001010",
          "tgn:1000004",
          "tgn:1000141",
          "tgn:7029392"
        ],
        "placetype": [
          "aat:300266755"
        ],
        "id": 7476788,
        "name:xx": "Chenshi Muyuan"
      }
    },
    {
      "geometry": {
        "type": "Point",
        "coordinates": [
          121.503427,
          23.880431
        ]
      },
      "type": "Feature",
      "properties": {
        "hierarchy": [
          "tgn:7476789",
          "tgn:7001010",
          "tgn:1000004",
          "tgn:1000141",
          "tgn:7029392"
        ],
        "placetype": [
          "aat:300007595"
        ],
        "id": 7476789,
        "name:xx": "Wanshan Ci"
      }
    }
  ]
}
