{
  "type": "FeatureCollection",
  "features": [
    {
      "geometry": {
        "type": "Point",
        "coordinates": [
          120.719167,
          24.409444
        ]
      },
      "type": "Feature",
      "properties": {
        "hierarchy": [
          "tgn:7483430",
          "tgn:7487020",
          "tgn:1000004",
          "tgn:1000141",
          "tgn:7029392"
        ],
        "placetype": [
          "aat:300007836"
        ],
        "id": 7483430,
        "name:xx": "Zhongzheng Qiao"
      }
    },
    {
      "geometry": {
        "type": "Point",
        "coordinates": [
          120.722222,
          24.406111
        ]
      },
      "type": "Feature",
      "properties": {
        "hierarchy": [
          "tgn:7483431",
          "tgn:7487020",
          "tgn:1000004",
          "tgn:1000141",
          "tgn:7029392"
        ],
        "placetype": [
          "aat:300007836"
        ],
        "id": 7483431,
        "name:xx": "Qiankun Qiao"
      }
    },
    {
      "geometry": {
        "type": "Point",
        "coordinates": [
          120.725556,
          24.405
        ]
      },
      "type": "Feature",
      "properties": {
        "hierarchy": [
          "tgn:7483432",
          "tgn:7487020",
          "tgn:1000004",
          "tgn:1000141",
          "tgn:7029392"
        ],
        "placetype": [
          "aat:300007836"
        ],
        "id": 7483432,
        "name:xx": "Nankeng Qiao"
      }
    },
    {
      "geometry": {
        "type": "Point",
        "coordinates": [
          120.705833,
          24.402222
        ]
      },
      "type": "Feature",
      "properties": {
        "hierarchy": [
          "tgn:7483433",
          "tgn:7487020",
          "tgn:1000004",
          "tgn:1000141",
          "tgn:7029392"
        ],
        "placetype": [
          "aat:300007836"
        ],
        "id": 7483433,
        "name:xx": "Xinxing Qiao"
      }
    },
    {
      "geometry": {
        "type": "Point",
        "coordinates": [
          120.693611,
          24.3975
        ]
      },
      "type": "Feature",
      "properties": {
        "hierarchy": [
          "tgn:7483434",
          "tgn:7487020",
          "tgn:1000004",
          "tgn:1000141",
          "tgn:7029392"
        ],
        "placetype": [
          "aat:300007836"
        ],
        "id": 7483434,
        "name:xx": "Nanxi Qiao"
      }
    },
    {
      "geometry": {
        "type": "Point",
        "coordinates": [
          120.968333,
          24.862778
        ]
      },
      "type": "Feature",
      "properties": {
        "hierarchy": [
          "tgn:7483435",
          "tgn:1000004",
          "tgn:7471332",
          "tgn:1000141",
          "tgn:7029392"
        ],
        "placetype": [
          "aat:300007836"
        ],
        "id": 7483435,
        "name:xx": "Dayi Qiao"
      }
    },
    {
      "geometry": {
        "type": "Point",
        "coordinates": [
          120.965556,
          24.863056
        ]
      },
      "type": "Feature",
      "properties": {
        "hierarchy": [
          "tgn:7483436",
          "tgn:1000004",
          "tgn:7471332",
          "tgn:1000141",
          "tgn:7029392"
        ],
        "placetype": [
          "aat:300006495"
        ],
        "id": 7483436,
        "name:xx": "Fenggang Guozhong"
      }
    },
    {
      "geometry": {
        "type": "Point",
        "coordinates": [
          120.961944,
          24.876944
        ]
      },
      "type": "Feature",
      "properties": {
        "hierarchy": [
          "tgn:7483437",
          "tgn:1000004",
          "tgn:7471332",
          "tgn:1000141",
          "tgn:7029392"
        ],
        "placetype": [
          "aat:300007595"
        ],
        "id": 7483437,
        "name:xx": "Lianhua Si"
      }
    },
    {
      "geometry": {
        "type": "Point",
        "coordinates": [
          120.976667,
          24.869167
        ]
      },
      "type": "Feature",
      "properties": {
        "hierarchy": [
          "tgn:7483438",
          "tgn:1000004",
          "tgn:7471332",
          "tgn:1000141",
          "tgn:7029392"
        ],
        "placetype": [
          "aat:300387033"
        ],
        "id": 7483438,
        "name:xx": "Niugu Ling"
      }
    },
    {
      "geometry": {
        "type": "Point",
        "coordinates": [
          120.914167,
          24.7625
        ]
      },
      "type": "Feature",
      "properties": {
        "hierarchy": [
          "tgn:7483439",
          "tgn:1000004",
          "tgn:7001002",
          "tgn:1000141",
          "tgn:7029392"
        ],
        "placetype": [
          "aat:300007783"
        ],
        "id": 7483439,
        "name:xx": "Xiangshan Zhan"
      }
    }
  ]
}
