{
  "type": "FeatureCollection",
  "features": [
    {
      "geometry": {
        "type": "Point",
        "coordinates": [
          33.709967,
          31.093986
        ]
      },
      "type": "Feature",
      "properties": {
        "hierarchy": [
          "tgn:7531970",
          "tgn:7001242",
          "tgn:7016833",
          "tgn:7001335",
          "tgn:7029392"
        ],
        "placetype": [
          "aat:300387200"
        ],
        "name:en": "Abu Feteih",
        "id": 7531970
      }
    },
    {
      "geometry": {
        "type": "Point",
        "coordinates": [
          33.681944,
          31.091389
        ]
      },
      "type": "Feature",
      "properties": {
        "hierarchy": [
          "tgn:7531971",
          "tgn:7001242",
          "tgn:7016833",
          "tgn:7001335",
          "tgn:7029392"
        ],
        "placetype": [
          "aat:300008884"
        ],
        "name:en": "El-Sherîf",
        "id": 7531971
      }
    },
    {
      "geometry": {
        "type": "Point",
        "coordinates": [
          33.683003,
          31.084887
        ]
      },
      "type": "Feature",
      "properties": {
        "hierarchy": [
          "tgn:7531972",
          "tgn:7001242",
          "tgn:7016833",
          "tgn:7001335",
          "tgn:7029392"
        ],
        "placetype": [
          "aat:300387200"
        ],
        "name:en": "El-Bittia",
        "id": 7531972
      }
    },
    {
      "geometry": {
        "type": "Point",
        "coordinates": [
          33.662778,
          31.100833
        ]
      },
      "type": "Feature",
      "properties": {
        "hierarchy": [
          "tgn:7531973",
          "tgn:7001242",
          "tgn:7016833",
          "tgn:7001335",
          "tgn:7029392"
        ],
        "placetype": [
          "aat:300008884"
        ],
        "name:en": "Abu Aweidat",
        "id": 7531973
      }
    },
    {
      "geometry": {
        "type": "Point",
        "coordinates": [
          33.651944,
          31.095556
        ]
      },
      "type": "Feature",
      "properties": {
        "hierarchy": [
          "tgn:7531974",
          "tgn:7001242",
          "tgn:7016833",
          "tgn:7001335",
          "tgn:7029392"
        ],
        "placetype": [
          "aat:300008777"
        ],
        "name:en": "Ghanam, Khashm",
        "id": 7531974
      }
    },
    {
      "geometry": {
        "type": "Point",
        "coordinates": [
          33.606111,
          31.098889
        ]
      },
      "type": "Feature",
      "properties": {
        "hierarchy": [
          "tgn:7531975",
          "tgn:7001242",
          "tgn:7016833",
          "tgn:7001335",
          "tgn:7029392"
        ],
        "placetype": [
          "aat:300386999"
        ],
        "name:en": "Abū Filayfil, Sabkhah",
        "id": 7531975
      }
    },
    {
      "geometry": {
        "type": "Point",
        "coordinates": [
          31.347565,
          30.04951
        ]
      },
      "type": "Feature",
      "properties": {
        "hierarchy": [
          "tgn:7531976",
          "tgn:7001242",
          "tgn:7016833",
          "tgn:1001091",
          "tgn:7029392"
        ],
        "placetype": [
          "aat:300386970"
        ],
        "id": 7531976,
        "name:xx": "Qāhirah, Bank al"
      }
    },
    {
      "geometry": {
        "type": "Point",
        "coordinates": [
          31.338755,
          30.048161
        ]
      },
      "type": "Feature",
      "properties": {
        "hierarchy": [
          "tgn:7531977",
          "tgn:7001242",
          "tgn:7016833",
          "tgn:1001091",
          "tgn:7029392"
        ],
        "placetype": [
          "aat:300247594"
        ],
        "name:en": "Wonder Land Mall",
        "id": 7531977
      }
    },
    {
      "geometry": {
        "type": "Point",
        "coordinates": [
          31.336738,
          30.048862
        ]
      },
      "type": "Feature",
      "properties": {
        "hierarchy": [
          "tgn:7531978",
          "tgn:7001242",
          "tgn:7016833",
          "tgn:1001091",
          "tgn:7029392"
        ],
        "placetype": [
          "aat:300008187"
        ],
        "id": 7531978,
        "name:xx": "Al Ḩadīqah ad Dawlīyah"
      }
    },
    {
      "geometry": {
        "type": "Point",
        "coordinates": [
          31.330164,
          30.046456
        ]
      },
      "type": "Feature",
      "properties": {
        "hierarchy": [
          "tgn:7531979",
          "tgn:7001242",
          "tgn:7016833",
          "tgn:1001091",
          "tgn:7029392"
        ],
        "placetype": [
          "aat:300004792"
        ],
        "id": 7531979,
        "name:xx": "Shirkat Bitrūl Balā'īm"
      }
    }
  ]
}
