{
  "type": "FeatureCollection",
  "features": [
    {
      "geometry": {
        "type": "Point",
        "coordinates": [
          88.180278,
          22.406667
        ]
      },
      "type": "Feature",
      "properties": {
        "hierarchy": [
          "tgn:7586810",
          "tgn:1000004",
          "tgn:7000198",
          "tgn:1001977",
          "tgn:7029392"
        ],
        "placetype": [
          "aat:300008347"
        ],
        "name:en": "Āima",
        "id": 7586810
      }
    },
    {
      "geometry": {
        "type": "Point",
        "coordinates": [
          88.278636,
          22.370464
        ]
      },
      "type": "Feature",
      "properties": {
        "hierarchy": [
          "tgn:7586814",
          "tgn:1000004",
          "tgn:7000198",
          "tgn:1001977",
          "tgn:7029392"
        ],
        "placetype": [
          "aat:300008347"
        ],
        "name:en": "Amtala",
        "id": 7586814
      }
    },
    {
      "geometry": {
        "type": "Point",
        "coordinates": [
          88.244444,
          22.374444
        ]
      },
      "type": "Feature",
      "properties": {
        "hierarchy": [
          "tgn:7586815",
          "tgn:1000004",
          "tgn:7000198",
          "tgn:1001977",
          "tgn:7029392"
        ],
        "placetype": [
          "aat:300008347"
        ],
        "name:en": "Kāsibāti",
        "id": 7586815
      }
    },
    {
      "geometry": {
        "type": "Point",
        "coordinates": [
          88.226944,
          22.371944
        ]
      },
      "type": "Feature",
      "properties": {
        "hierarchy": [
          "tgn:7586816",
          "tgn:1000004",
          "tgn:7000198",
          "tgn:1001977",
          "tgn:7029392"
        ],
        "placetype": [
          "aat:300008347"
        ],
        "name:en": "Rāmchandranagar",
        "id": 7586816
      }
    },
    {
      "geometry": {
        "type": "Point",
        "coordinates": [
          88.307004,
          22.409378
        ]
      },
      "type": "Feature",
      "properties": {
        "hierarchy": [
          "tgn:7586819",
          "tgn:1000004",
          "tgn:7000198",
          "tgn:1001977",
          "tgn:7029392"
        ],
        "placetype": [
          "aat:300008347"
        ],
        "name:en": "Amgachia",
        "id": 7586819
      }
    }
  ]
}
