{
  "type": "FeatureCollection",
  "features": [
    {
      "geometry": {
        "type": "Point",
        "coordinates": [
          74.481489,
          33.062904
        ]
      },
      "type": "Feature",
      "properties": {
        "hierarchy": [
          "tgn:7589880",
          "tgn:1000004",
          "tgn:7000198",
          "tgn:7000799",
          "tgn:7029392"
        ],
        "placetype": [
          "aat:300008347"
        ],
        "name:en": "Thandanāni",
        "id": 7589880
      }
    },
    {
      "geometry": {
        "type": "Point",
        "coordinates": [
          74.470786,
          33.05477
        ]
      },
      "type": "Feature",
      "properties": {
        "hierarchy": [
          "tgn:7589881",
          "tgn:1000004",
          "tgn:7000198",
          "tgn:7000799",
          "tgn:7029392"
        ],
        "placetype": [
          "aat:300008347"
        ],
        "name:en": "Tala",
        "id": 7589881
      }
    },
    {
      "geometry": {
        "type": "Point",
        "coordinates": [
          74.458599,
          33.058499
        ]
      },
      "type": "Feature",
      "properties": {
        "hierarchy": [
          "tgn:7589882",
          "tgn:1000004",
          "tgn:7000198",
          "tgn:7000799",
          "tgn:7029392"
        ],
        "placetype": [
          "aat:300008347"
        ],
        "name:en": "Mandwāl",
        "id": 7589882
      }
    },
    {
      "geometry": {
        "type": "Point",
        "coordinates": [
          74.447222,
          33.058333
        ]
      },
      "type": "Feature",
      "properties": {
        "hierarchy": [
          "tgn:7589883",
          "tgn:1000004",
          "tgn:7000198",
          "tgn:7000799",
          "tgn:7029392"
        ],
        "placetype": [
          "aat:300008347"
        ],
        "name:en": "Nakāral",
        "id": 7589883
      }
    },
    {
      "geometry": {
        "type": "Point",
        "coordinates": [
          74.44733,
          33.054522
        ]
      },
      "type": "Feature",
      "properties": {
        "hierarchy": [
          "tgn:7589884",
          "tgn:1000004",
          "tgn:7000198",
          "tgn:7000799",
          "tgn:7029392"
        ],
        "placetype": [
          "aat:300008347"
        ],
        "name:en": "Talāni",
        "id": 7589884
      }
    },
    {
      "geometry": {
        "type": "Point",
        "coordinates": [
          74.43553,
          33.058381
        ]
      },
      "type": "Feature",
      "properties": {
        "hierarchy": [
          "tgn:7589885",
          "tgn:1000004",
          "tgn:7000198",
          "tgn:7000799",
          "tgn:7029392"
        ],
        "placetype": [
          "aat:300008347"
        ],
        "name:en": "Tānda",
        "id": 7589885
      }
    },
    {
      "geometry": {
        "type": "Point",
        "coordinates": [
          74.418056,
          33.068056
        ]
      },
      "type": "Feature",
      "properties": {
        "hierarchy": [
          "tgn:7589886",
          "tgn:1000004",
          "tgn:7000198",
          "tgn:7000799",
          "tgn:7029392"
        ],
        "placetype": [
          "aat:300008699"
        ],
        "name:en": "Bīhānegalewāla Kas",
        "id": 7589886
      }
    },
    {
      "geometry": {
        "type": "Point",
        "coordinates": [
          74.432172,
          33.070126
        ]
      },
      "type": "Feature",
      "properties": {
        "hierarchy": [
          "tgn:7589887",
          "tgn:1000004",
          "tgn:7000198",
          "tgn:7000799",
          "tgn:7029392"
        ],
        "placetype": [
          "aat:300008347"
        ],
        "name:en": "Charwāl",
        "id": 7589887
      }
    },
    {
      "geometry": {
        "type": "Point",
        "coordinates": [
          74.429646,
          33.073829
        ]
      },
      "type": "Feature",
      "properties": {
        "hierarchy": [
          "tgn:7589888",
          "tgn:1000004",
          "tgn:7000198",
          "tgn:7000799",
          "tgn:7029392"
        ],
        "placetype": [
          "aat:300008347"
        ],
        "name:en": "Saleri",
        "id": 7589888
      }
    },
    {
      "geometry": {
        "type": "Point",
        "coordinates": [
          74.47157,
          33.07038
        ]
      },
      "type": "Feature",
      "properties": {
        "hierarchy": [
          "tgn:7589889",
          "tgn:1000004",
          "tgn:7000198",
          "tgn:7000799",
          "tgn:7029392"
        ],
        "placetype": [
          "aat:300008347"
        ],
        "name:en": "Bagila",
        "id": 7589889
      }
    }
  ]
}
