{
  "type": "FeatureCollection",
  "features": [
    {
      "geometry": {
        "type": "Point",
        "coordinates": [
          -90.616667,
          16.291667
        ]
      },
      "type": "Feature",
      "properties": {
        "hierarchy": [
          "tgn:7408700",
          "tgn:7005580",
          "tgn:1000001",
          "tgn:7005560",
          "tgn:7029392"
        ],
        "placetype": [
          "aat:300008347"
        ],
        "id": 7408700,
        "name:xx": "Nuevo Paraíso"
      }
    },
    {
      "geometry": {
        "type": "Point",
        "coordinates": [
          -90.681944,
          16.330556
        ]
      },
      "type": "Feature",
      "properties": {
        "hierarchy": [
          "tgn:7408701",
          "tgn:7005580",
          "tgn:1000001",
          "tgn:7005560",
          "tgn:7029392"
        ],
        "placetype": [
          "aat:300008347"
        ],
        "id": 7408701,
        "name:xx": "La Corona"
      }
    },
    {
      "geometry": {
        "type": "Point",
        "coordinates": [
          -90.733333,
          16.333333
        ]
      },
      "type": "Feature",
      "properties": {
        "hierarchy": [
          "tgn:7408702",
          "tgn:7005580",
          "tgn:1000001",
          "tgn:7005560",
          "tgn:7029392"
        ],
        "placetype": [
          "aat:300008347"
        ],
        "id": 7408702,
        "name:xx": "Zamora"
      }
    },
    {
      "geometry": {
        "type": "Point",
        "coordinates": [
          -90.616667,
          16.348611
        ]
      },
      "type": "Feature",
      "properties": {
        "hierarchy": [
          "tgn:7408703",
          "tgn:7005580",
          "tgn:1000001",
          "tgn:7005560",
          "tgn:7029392"
        ],
        "placetype": [
          "aat:300008347"
        ],
        "id": 7408703,
        "name:xx": "San Lázaro"
      }
    },
    {
      "geometry": {
        "type": "Point",
        "coordinates": [
          -90.75,
          16.358333
        ]
      },
      "type": "Feature",
      "properties": {
        "hierarchy": [
          "tgn:7408704",
          "tgn:7005580",
          "tgn:1000001",
          "tgn:7005560",
          "tgn:7029392"
        ],
        "placetype": [
          "aat:300008680"
        ],
        "id": 7408704,
        "name:xx": "Pico de Oro, Laguna"
      }
    },
    {
      "geometry": {
        "type": "Point",
        "coordinates": [
          -90.706944,
          16.433333
        ]
      },
      "type": "Feature",
      "properties": {
        "hierarchy": [
          "tgn:7408705",
          "tgn:7005580",
          "tgn:1000001",
          "tgn:7005560",
          "tgn:7029392"
        ],
        "placetype": [
          "aat:300008347"
        ],
        "id": 7408705,
        "name:xx": "Quiringuicristo"
      }
    },
    {
      "geometry": {
        "type": "Point",
        "coordinates": [
          -90.673611,
          16.45
        ]
      },
      "type": "Feature",
      "properties": {
        "hierarchy": [
          "tgn:7408706",
          "tgn:7005580",
          "tgn:1000001",
          "tgn:7005560",
          "tgn:7029392"
        ],
        "placetype": [
          "aat:300008680"
        ],
        "id": 7408706,
        "name:xx": "Oaxaca, Laguna"
      }
    },
    {
      "geometry": {
        "type": "Point",
        "coordinates": [
          -90.690278,
          16.483333
        ]
      },
      "type": "Feature",
      "properties": {
        "hierarchy": [
          "tgn:7408708",
          "tgn:7005580",
          "tgn:1000001",
          "tgn:7005560",
          "tgn:7029392"
        ],
        "placetype": [
          "aat:300008347"
        ],
        "id": 7408708,
        "name:xx": "El Repasto"
      }
    },
    {
      "geometry": {
        "type": "Point",
        "coordinates": [
          -90.666667,
          16.483333
        ]
      },
      "type": "Feature",
      "properties": {
        "hierarchy": [
          "tgn:7408709",
          "tgn:7005580",
          "tgn:1000001",
          "tgn:7005560",
          "tgn:7029392"
        ],
        "placetype": [
          "aat:300008347"
        ],
        "id": 7408709,
        "name:xx": "Mollejón"
      }
    }
  ]
}
