{
  "type": "FeatureCollection",
  "features": [
    {
      "geometry": {
        "type": "Point",
        "coordinates": [
          31.171697,
          30.767697
        ]
      },
      "type": "Feature",
      "properties": {
        "hierarchy": [
          "tgn:7534140",
          "tgn:7001242",
          "tgn:7016833",
          "tgn:7001312",
          "tgn:7029392"
        ],
        "placetype": [
          "aat:300008347"
        ],
        "name:en": "Kafr Shāhīn",
        "id": 7534140
      }
    },
    {
      "geometry": {
        "type": "Point",
        "coordinates": [
          31.397798,
          30.483946
        ]
      },
      "type": "Feature",
      "properties": {
        "hierarchy": [
          "tgn:7534141",
          "tgn:7001242",
          "tgn:7016833",
          "tgn:1001113",
          "tgn:7029392"
        ],
        "placetype": [
          "aat:300008347"
        ],
        "name:en": "Kafr Sha'bān 'Abd as Salām al Badawī",
        "id": 7534141
      }
    },
    {
      "geometry": {
        "type": "Point",
        "coordinates": [
          30.934149,
          30.848139
        ]
      },
      "type": "Feature",
      "properties": {
        "hierarchy": [
          "tgn:7534142",
          "tgn:7001242",
          "tgn:7016833",
          "tgn:7001312",
          "tgn:7029392"
        ],
        "placetype": [
          "aat:300008347"
        ],
        "name:en": "Kafr Sha'bān",
        "id": 7534142
      }
    },
    {
      "geometry": {
        "type": "Point",
        "coordinates": [
          30.981127,
          30.777846
        ]
      },
      "type": "Feature",
      "properties": {
        "hierarchy": [
          "tgn:7534143",
          "tgn:7001242",
          "tgn:7016833",
          "tgn:7001312",
          "tgn:7029392"
        ],
        "placetype": [
          "aat:300008347"
        ],
        "name:en": "Kafr Sayjar",
        "id": 7534143
      }
    },
    {
      "geometry": {
        "type": "Point",
        "coordinates": [
          31.667809,
          30.7335
        ]
      },
      "type": "Feature",
      "properties": {
        "hierarchy": [
          "tgn:7534144",
          "tgn:7001242",
          "tgn:7016833",
          "tgn:1001113",
          "tgn:7029392"
        ],
        "placetype": [
          "aat:300008347"
        ],
        "id": 7534144,
        "name:xx": "Kafr Sawāris"
      }
    },
    {
      "geometry": {
        "type": "Point",
        "coordinates": [
          30.947418,
          30.586218
        ]
      },
      "type": "Feature",
      "properties": {
        "hierarchy": [
          "tgn:7534145",
          "tgn:7001242",
          "tgn:7016833",
          "tgn:1001087",
          "tgn:7029392"
        ],
        "placetype": [
          "aat:300008347"
        ],
        "name:en": "Kafr Sarsamūs",
        "id": 7534145
      }
    },
    {
      "geometry": {
        "type": "Point",
        "coordinates": [
          31.245154,
          30.748072
        ]
      },
      "type": "Feature",
      "properties": {
        "hierarchy": [
          "tgn:7534146",
          "tgn:7001242",
          "tgn:1001059",
          "tgn:7016833",
          "tgn:7029392"
        ],
        "placetype": [
          "aat:300008347"
        ],
        "name:en": "Kafr Sarnajā",
        "id": 7534146
      }
    },
    {
      "geometry": {
        "type": "Point",
        "coordinates": [
          31.088327,
          30.243638
        ]
      },
      "type": "Feature",
      "properties": {
        "hierarchy": [
          "tgn:7534147",
          "tgn:7001242",
          "tgn:7016833",
          "tgn:1001087",
          "tgn:7029392"
        ],
        "placetype": [
          "aat:300008347"
        ],
        "id": 7534147,
        "name:xx": "Kafr Şarāwah"
      }
    }
  ]
}
