{
  "type": "FeatureCollection",
  "features": [
    {
      "geometry": {
        "type": "Point",
        "coordinates": [
          -67.1333,
          18.4667
        ]
      },
      "type": "Feature",
      "properties": {
        "hierarchy": [
          "tgn:1018950",
          "tgn:7017438",
          "tgn:1000001",
          "tgn:7004643",
          "tgn:7029392"
        ],
        "placetype": [
          "aat:300008347"
        ],
        "id": 1018950,
        "name:xx": "Feliciano"
      }
    },
    {
      "geometry": {
        "type": "Point",
        "coordinates": [
          -65.7833,
          18.2333
        ]
      },
      "type": "Feature",
      "properties": {
        "hierarchy": [
          "tgn:1018951",
          "tgn:7017441",
          "tgn:1000001",
          "tgn:7004643",
          "tgn:7029392"
        ],
        "placetype": [
          "aat:300008347"
        ],
        "id": 1018951,
        "name:xx": "Florida"
      }
    },
    {
      "geometry": {
        "type": "Point",
        "coordinates": [
          -66.9167,
          17.9833
        ]
      },
      "type": "Feature",
      "properties": {
        "hierarchy": [
          "tgn:1018952",
          "tgn:7017439",
          "tgn:1000001",
          "tgn:7004643",
          "tgn:7029392"
        ],
        "placetype": [
          "aat:300008347"
        ],
        "id": 1018952,
        "name:xx": "Guánica"
      }
    },
    {
      "geometry": {
        "type": "Point",
        "coordinates": [
          -67.1167,
          18.0167
        ]
      },
      "type": "Feature",
      "properties": {
        "hierarchy": [
          "tgn:1018953",
          "tgn:7017438",
          "tgn:1000001",
          "tgn:7004643",
          "tgn:7029392"
        ],
        "placetype": [
          "aat:300008347"
        ],
        "id": 1018953,
        "name:xx": "Guanábana"
      }
    },
    {
      "geometry": {
        "type": "Point",
        "coordinates": [
          -66.1167,
          17.9833
        ]
      },
      "type": "Feature",
      "properties": {
        "hierarchy": [
          "tgn:1018954",
          "tgn:7017440",
          "tgn:1000001",
          "tgn:7004643",
          "tgn:7029392"
        ],
        "placetype": [
          "aat:300008347"
        ],
        "id": 1018954,
        "name:xx": "Guayama"
      }
    },
    {
      "geometry": {
        "type": "Point",
        "coordinates": [
          -66.7833,
          18.0167
        ]
      },
      "type": "Feature",
      "properties": {
        "hierarchy": [
          "tgn:1018955",
          "tgn:7017439",
          "tgn:1000001",
          "tgn:7004643",
          "tgn:7029392"
        ],
        "placetype": [
          "aat:300008347"
        ],
        "id": 1018955,
        "name:xx": "Guayanilla"
      }
    },
    {
      "geometry": {
        "type": "Point",
        "coordinates": [
          -66.1167,
          18.3667
        ]
      },
      "type": "Feature",
      "properties": {
        "hierarchy": [
          "tgn:1018956",
          "tgn:7017436",
          "tgn:1000001",
          "tgn:7004643",
          "tgn:7029392"
        ],
        "placetype": [
          "aat:300008347",
          "aat:300387512",
          "aat:300008375"
        ],
        "id": 1018956,
        "name:xx": "Guaynabo"
      }
    },
    {
      "geometry": {
        "type": "Point",
        "coordinates": [
          -65.9667,
          18.2667
        ]
      },
      "type": "Feature",
      "properties": {
        "hierarchy": [
          "tgn:1018957",
          "tgn:7017441",
          "tgn:1000001",
          "tgn:7004643",
          "tgn:7029392"
        ],
        "placetype": [
          "aat:300008347"
        ],
        "id": 1018957,
        "name:xx": "Gurabo"
      }
    },
    {
      "geometry": {
        "type": "Point",
        "coordinates": [
          -66.8333,
          18.4833
        ]
      },
      "type": "Feature",
      "properties": {
        "hierarchy": [
          "tgn:1018958",
          "tgn:7017437",
          "tgn:1000001",
          "tgn:7004643",
          "tgn:7029392"
        ],
        "placetype": [
          "aat:300008347"
        ],
        "id": 1018958,
        "name:xx": "Hatillo"
      }
    },
    {
      "geometry": {
        "type": "Point",
        "coordinates": [
          -66.05,
          18.4167
        ]
      },
      "type": "Feature",
      "properties": {
        "hierarchy": [
          "tgn:1018959",
          "tgn:7017434",
          "tgn:1000001",
          "tgn:7004643",
          "tgn:7029392"
        ],
        "placetype": [
          "aat:300008347"
        ],
        "id": 1018959,
        "name:xx": "Hato Rey"
      }
    }
  ]
}
