{
  "type": "FeatureCollection",
  "features": [
    {
      "geometry": {
        "type": "Point",
        "coordinates": [
          121.312802,
          23.273
        ]
      },
      "type": "Feature",
      "properties": {
        "hierarchy": [
          "tgn:7499970",
          "tgn:7001010",
          "tgn:1000004",
          "tgn:1000141",
          "tgn:7029392"
        ],
        "placetype": [
          "aat:300007836"
        ],
        "id": 7499970,
        "name:xx": "Gongzigou Qiao"
      }
    },
    {
      "geometry": {
        "type": "Point",
        "coordinates": [
          121.318276,
          23.277288
        ]
      },
      "type": "Feature",
      "properties": {
        "hierarchy": [
          "tgn:7499971",
          "tgn:7001010",
          "tgn:1000004",
          "tgn:1000141",
          "tgn:7029392"
        ],
        "placetype": [
          "aat:300387033"
        ],
        "id": 7499971,
        "name:xx": "Dazhuang"
      }
    },
    {
      "geometry": {
        "type": "Point",
        "coordinates": [
          121.322632,
          23.279829
        ]
      },
      "type": "Feature",
      "properties": {
        "hierarchy": [
          "tgn:7499972",
          "tgn:7001010",
          "tgn:1000004",
          "tgn:1000141",
          "tgn:7029392"
        ],
        "placetype": [
          "aat:300007836"
        ],
        "id": 7499972,
        "name:xx": "Wujiang Qiao"
      }
    },
    {
      "geometry": {
        "type": "Point",
        "coordinates": [
          121.323657,
          23.293806
        ]
      },
      "type": "Feature",
      "properties": {
        "hierarchy": [
          "tgn:7499973",
          "tgn:7001010",
          "tgn:1000004",
          "tgn:1000141",
          "tgn:7029392"
        ],
        "placetype": [
          "aat:300008347"
        ],
        "id": 7499973,
        "name:xx": "Chuanzishan"
      }
    },
    {
      "geometry": {
        "type": "Point",
        "coordinates": [
          121.301942,
          23.295946
        ]
      },
      "type": "Feature",
      "properties": {
        "hierarchy": [
          "tgn:7499974",
          "tgn:7001010",
          "tgn:1000004",
          "tgn:1000141",
          "tgn:7029392"
        ],
        "placetype": [
          "aat:300006156"
        ],
        "id": 7499974,
        "name:xx": "Changliang Tifang"
      }
    },
    {
      "geometry": {
        "type": "Point",
        "coordinates": [
          121.316032,
          23.305442
        ]
      },
      "type": "Feature",
      "properties": {
        "hierarchy": [
          "tgn:7499975",
          "tgn:7001010",
          "tgn:1000004",
          "tgn:1000141",
          "tgn:7029392"
        ],
        "placetype": [
          "aat:300006156"
        ],
        "id": 7499975,
        "name:xx": "Kecheng Tifang"
      }
    },
    {
      "geometry": {
        "type": "Point",
        "coordinates": [
          121.324962,
          23.314726
        ]
      },
      "type": "Feature",
      "properties": {
        "hierarchy": [
          "tgn:7499976",
          "tgn:7001010",
          "tgn:1000004",
          "tgn:1000141",
          "tgn:7029392"
        ],
        "placetype": [
          "aat:300387033"
        ],
        "id": 7499976,
        "name:xx": "Kecheng"
      }
    },
    {
      "geometry": {
        "type": "Point",
        "coordinates": [
          121.311956,
          23.321488
        ]
      },
      "type": "Feature",
      "properties": {
        "hierarchy": [
          "tgn:7499977",
          "tgn:7001010",
          "tgn:1000004",
          "tgn:1000141",
          "tgn:7029392"
        ],
        "placetype": [
          "aat:300007836"
        ],
        "id": 7499977,
        "name:xx": "Kecheng Qiao"
      }
    },
    {
      "geometry": {
        "type": "Point",
        "coordinates": [
          121.320226,
          23.3217
        ]
      },
      "type": "Feature",
      "properties": {
        "hierarchy": [
          "tgn:7499978",
          "tgn:7001010",
          "tgn:1000004",
          "tgn:1000141",
          "tgn:7029392"
        ],
        "placetype": [
          "aat:300387033"
        ],
        "id": 7499978,
        "name:xx": "Yuli"
      }
    },
    {
      "geometry": {
        "type": "Point",
        "coordinates": [
          121.311618,
          23.331166
        ]
      },
      "type": "Feature",
      "properties": {
        "hierarchy": [
          "tgn:7499979",
          "tgn:7001010",
          "tgn:1000004",
          "tgn:1000141",
          "tgn:7029392"
        ],
        "placetype": [
          "aat:300007783"
        ],
        "id": 7499979,
        "name:xx": "Yuli Chezhan"
      }
    }
  ]
}
