{
  "type": "FeatureCollection",
  "features": [
    {
      "geometry": {
        "type": "Point",
        "coordinates": [
          120.516111,
          23.128611
        ]
      },
      "type": "Feature",
      "properties": {
        "hierarchy": [
          "tgn:7483950",
          "tgn:1000004",
          "tgn:7490934",
          "tgn:1000141",
          "tgn:7029392"
        ],
        "placetype": [
          "aat:300008347"
        ],
        "id": 7483950,
        "name:xx": "Huluyuan"
      }
    },
    {
      "geometry": {
        "type": "Point",
        "coordinates": [
          120.715,
          23.130556
        ]
      },
      "type": "Feature",
      "properties": {
        "hierarchy": [
          "tgn:7483951",
          "tgn:7001004",
          "tgn:1000004",
          "tgn:1000141",
          "tgn:7029392"
        ],
        "placetype": [
          "aat:300007836"
        ],
        "id": 7483951,
        "name:xx": "Bingcai Qiao"
      }
    },
    {
      "geometry": {
        "type": "Point",
        "coordinates": [
          120.731111,
          23.130833
        ]
      },
      "type": "Feature",
      "properties": {
        "hierarchy": [
          "tgn:7483952",
          "tgn:7001004",
          "tgn:1000004",
          "tgn:1000141",
          "tgn:7029392"
        ],
        "placetype": [
          "aat:300008347"
        ],
        "id": 7483952,
        "name:xx": "Meilanshe"
      }
    },
    {
      "geometry": {
        "type": "Point",
        "coordinates": [
          120.7275,
          23.131389
        ]
      },
      "type": "Feature",
      "properties": {
        "hierarchy": [
          "tgn:7483953",
          "tgn:7001004",
          "tgn:1000004",
          "tgn:1000141",
          "tgn:7029392"
        ],
        "placetype": [
          "aat:300007836"
        ],
        "id": 7483953,
        "name:xx": "Meilan Daqiao"
      }
    },
    {
      "geometry": {
        "type": "Point",
        "coordinates": [
          120.723056,
          23.134167
        ]
      },
      "type": "Feature",
      "properties": {
        "hierarchy": [
          "tgn:7483954",
          "tgn:7001004",
          "tgn:1000004",
          "tgn:1000141",
          "tgn:7029392"
        ],
        "placetype": [
          "aat:300008347"
        ],
        "id": 7483954,
        "name:xx": "Gaozhong'ercun"
      }
    },
    {
      "geometry": {
        "type": "Point",
        "coordinates": [
          120.729167,
          23.140278
        ]
      },
      "type": "Feature",
      "properties": {
        "hierarchy": [
          "tgn:7483955",
          "tgn:7001004",
          "tgn:1000004",
          "tgn:1000141",
          "tgn:7029392"
        ],
        "placetype": [
          "aat:300007836"
        ],
        "id": 7483955,
        "name:xx": "Cuigu Qiao"
      }
    },
    {
      "geometry": {
        "type": "Point",
        "coordinates": [
          120.734722,
          23.138611
        ]
      },
      "type": "Feature",
      "properties": {
        "hierarchy": [
          "tgn:7483956",
          "tgn:7001004",
          "tgn:1000004",
          "tgn:1000141",
          "tgn:7029392"
        ],
        "placetype": [
          "aat:300008347"
        ],
        "id": 7483956,
        "name:xx": "Daduguan"
      }
    },
    {
      "geometry": {
        "type": "Point",
        "coordinates": [
          120.740556,
          23.141111
        ]
      },
      "type": "Feature",
      "properties": {
        "hierarchy": [
          "tgn:7483957",
          "tgn:7001004",
          "tgn:1000004",
          "tgn:1000141",
          "tgn:7029392"
        ],
        "placetype": [
          "aat:300007836"
        ],
        "id": 7483957,
        "name:xx": "Gaoxian Qiao"
      }
    },
    {
      "geometry": {
        "type": "Point",
        "coordinates": [
          120.741667,
          23.142222
        ]
      },
      "type": "Feature",
      "properties": {
        "hierarchy": [
          "tgn:7483958",
          "tgn:7001004",
          "tgn:1000004",
          "tgn:1000141",
          "tgn:7029392"
        ],
        "placetype": [
          "aat:300007836"
        ],
        "id": 7483958,
        "name:xx": "Wannian Qiao"
      }
    },
    {
      "geometry": {
        "type": "Point",
        "coordinates": [
          120.755556,
          23.149722
        ]
      },
      "type": "Feature",
      "properties": {
        "hierarchy": [
          "tgn:7483959",
          "tgn:7001004",
          "tgn:1000004",
          "tgn:1000141",
          "tgn:7029392"
        ],
        "placetype": [
          "aat:300007836"
        ],
        "id": 7483959,
        "name:xx": "Shengjing Qiao"
      }
    }
  ]
}
