{
  "type": "FeatureCollection",
  "features": [
    {
      "geometry": {
        "type": "Point",
        "coordinates": [
          120.878611,
          23.575278
        ]
      },
      "type": "Feature",
      "properties": {
        "hierarchy": [
          "tgn:7500860",
          "tgn:7488858",
          "tgn:1000004",
          "tgn:1000141",
          "tgn:7029392"
        ],
        "placetype": [
          "aat:300007836"
        ],
        "id": 7500860,
        "name:xx": "Longhua Qiao"
      }
    },
    {
      "geometry": {
        "type": "Point",
        "coordinates": [
          120.860556,
          23.642222
        ]
      },
      "type": "Feature",
      "properties": {
        "hierarchy": [
          "tgn:7500861",
          "tgn:7488858",
          "tgn:1000004",
          "tgn:1000141",
          "tgn:7029392"
        ],
        "placetype": [
          "aat:300007836"
        ],
        "id": 7500861,
        "name:xx": "Xinxiang Erhao Qiao"
      }
    },
    {
      "geometry": {
        "type": "Point",
        "coordinates": [
          120.86,
          23.645556
        ]
      },
      "type": "Feature",
      "properties": {
        "hierarchy": [
          "tgn:7500862",
          "tgn:7488858",
          "tgn:1000004",
          "tgn:1000141",
          "tgn:7029392"
        ],
        "placetype": [
          "aat:300007836"
        ],
        "id": 7500862,
        "name:xx": "Xinxiang Yihao Qiao"
      }
    },
    {
      "geometry": {
        "type": "Point",
        "coordinates": [
          120.884722,
          23.649444
        ]
      },
      "type": "Feature",
      "properties": {
        "hierarchy": [
          "tgn:7500863",
          "tgn:7488858",
          "tgn:1000004",
          "tgn:1000141",
          "tgn:7029392"
        ],
        "placetype": [
          "aat:300007836"
        ],
        "id": 7500863,
        "name:xx": "Chenyoulan Xi Qiao"
      }
    },
    {
      "geometry": {
        "type": "Point",
        "coordinates": [
          120.368333,
          22.813889
        ]
      },
      "type": "Feature",
      "properties": {
        "hierarchy": [
          "tgn:7500864",
          "tgn:7001004",
          "tgn:1000004",
          "tgn:1000141",
          "tgn:7029392"
        ],
        "placetype": [
          "aat:300008347"
        ],
        "id": 7500864,
        "name:xx": "Jialing"
      }
    },
    {
      "geometry": {
        "type": "Point",
        "coordinates": [
          120.300556,
          22.813056
        ]
      },
      "type": "Feature",
      "properties": {
        "hierarchy": [
          "tgn:7500865",
          "tgn:7001004",
          "tgn:1000004",
          "tgn:1000141",
          "tgn:7029392"
        ],
        "placetype": [
          "aat:300008347"
        ],
        "id": 7500865,
        "name:xx": "Xinzhuang"
      }
    },
    {
      "geometry": {
        "type": "Point",
        "coordinates": [
          120.2875,
          22.805278
        ]
      },
      "type": "Feature",
      "properties": {
        "hierarchy": [
          "tgn:7500867",
          "tgn:7001004",
          "tgn:1000004",
          "tgn:1000141",
          "tgn:7029392"
        ],
        "placetype": [
          "aat:300007836"
        ],
        "id": 7500867,
        "name:xx": "Gangshan Qiao"
      }
    },
    {
      "geometry": {
        "type": "Point",
        "coordinates": [
          120.319167,
          22.789167
        ]
      },
      "type": "Feature",
      "properties": {
        "hierarchy": [
          "tgn:7500868",
          "tgn:7001004",
          "tgn:1000004",
          "tgn:1000141",
          "tgn:7029392"
        ],
        "placetype": [
          "aat:300008347"
        ],
        "id": 7500868,
        "name:xx": "Diaojilin"
      }
    },
    {
      "geometry": {
        "type": "Point",
        "coordinates": [
          120.293333,
          22.792222
        ]
      },
      "type": "Feature",
      "properties": {
        "hierarchy": [
          "tgn:7500869",
          "tgn:7001004",
          "tgn:1000004",
          "tgn:1000141",
          "tgn:7029392"
        ],
        "placetype": [
          "aat:300006495"
        ],
        "id": 7500869,
        "name:xx": "Gangshan Guoxiao"
      }
    }
  ]
}
