{
  "type": "FeatureCollection",
  "features": [
    {
      "geometry": {
        "type": "Point",
        "coordinates": [
          5.076073,
          50.583243
        ]
      },
      "type": "Feature",
      "properties": {
        "hierarchy": [
          "tgn:7246300",
          "tgn:7003460",
          "tgn:1000003",
          "tgn:1000063",
          "tgn:4012014",
          "tgn:7029392"
        ],
        "placetype": [
          "aat:300008347"
        ],
        "id": 7246300,
        "name:xx": "Burdinne"
      }
    },
    {
      "geometry": {
        "type": "Point",
        "coordinates": [
          3.75,
          50.466667
        ]
      },
      "type": "Feature",
      "properties": {
        "hierarchy": [
          "tgn:7246302",
          "tgn:7007877",
          "tgn:1000003",
          "tgn:1000063",
          "tgn:4012014",
          "tgn:7029392"
        ],
        "placetype": [
          "aat:300008347"
        ],
        "id": 7246302,
        "name:xx": "Burdiau"
      }
    },
    {
      "geometry": {
        "type": "Point",
        "coordinates": [
          4.366667,
          51.216667
        ]
      },
      "type": "Feature",
      "properties": {
        "hierarchy": [
          "tgn:7246303",
          "tgn:7003456",
          "tgn:1000003",
          "tgn:1000063",
          "tgn:7018236",
          "tgn:7029392"
        ],
        "placetype": [
          "aat:300008699"
        ],
        "id": 7246303,
        "name:xx": "Burchtsebeek"
      }
    },
    {
      "geometry": {
        "type": "Point",
        "coordinates": [
          4.339258,
          51.205083
        ]
      },
      "type": "Feature",
      "properties": {
        "hierarchy": [
          "tgn:7246304",
          "tgn:7003456",
          "tgn:1000003",
          "tgn:1000063",
          "tgn:7018236",
          "tgn:7029392"
        ],
        "placetype": [
          "aat:300008347"
        ],
        "id": 7246304,
        "name:xx": "Burcht"
      }
    },
    {
      "geometry": {
        "type": "Point",
        "coordinates": [
          3.283333,
          50.516667
        ]
      },
      "type": "Feature",
      "properties": {
        "hierarchy": [
          "tgn:7246306",
          "tgn:7007877",
          "tgn:1000003",
          "tgn:1000063",
          "tgn:4012014",
          "tgn:7029392"
        ],
        "placetype": [
          "aat:300008699"
        ],
        "id": 7246306,
        "name:xx": "Buquiau"
      }
    },
    {
      "geometry": {
        "type": "Point",
        "coordinates": [
          4.164397,
          51.106125
        ]
      },
      "type": "Feature",
      "properties": {
        "hierarchy": [
          "tgn:7246307",
          "tgn:7003457",
          "tgn:1000003",
          "tgn:1000063",
          "tgn:7018236",
          "tgn:7029392"
        ],
        "placetype": [
          "aat:300008347"
        ],
        "id": 7246307,
        "name:xx": "Bunt"
      }
    },
    {
      "geometry": {
        "type": "Point",
        "coordinates": [
          4.942223,
          50.842569
        ]
      },
      "type": "Feature",
      "properties": {
        "hierarchy": [
          "tgn:7246308",
          "tgn:7018239",
          "tgn:1000003",
          "tgn:1000063",
          "tgn:7018236",
          "tgn:7029392"
        ],
        "placetype": [
          "aat:300008347"
        ],
        "id": 7246308,
        "name:xx": "Bunsbeek"
      }
    }
  ]
}
