{
  "type": "FeatureCollection",
  "features": [
    {
      "geometry": {
        "type": "Point",
        "coordinates": [
          79.728378,
          27.621919
        ]
      },
      "type": "Feature",
      "properties": {
        "hierarchy": [
          "tgn:7560070",
          "tgn:1000004",
          "tgn:7000198",
          "tgn:7016722",
          "tgn:7029392"
        ],
        "placetype": [
          "aat:300008347"
        ],
        "name:en": "Girdharpur",
        "id": 7560070
      }
    },
    {
      "geometry": {
        "type": "Point",
        "coordinates": [
          79.7499,
          27.5841
        ]
      },
      "type": "Feature",
      "properties": {
        "hierarchy": [
          "tgn:7560071",
          "tgn:1000004",
          "tgn:7000198",
          "tgn:7016722",
          "tgn:7029392"
        ],
        "placetype": [
          "aat:300008347"
        ],
        "name:en": "Ludiāpur",
        "id": 7560071
      }
    },
    {
      "geometry": {
        "type": "Point",
        "coordinates": [
          79.745009,
          27.634122
        ]
      },
      "type": "Feature",
      "properties": {
        "hierarchy": [
          "tgn:7560072",
          "tgn:1000004",
          "tgn:7000198",
          "tgn:7016722",
          "tgn:7029392"
        ],
        "placetype": [
          "aat:300008347"
        ],
        "name:en": "Andkhera",
        "id": 7560072
      }
    },
    {
      "geometry": {
        "type": "Point",
        "coordinates": [
          79.727936,
          27.63599
        ]
      },
      "type": "Feature",
      "properties": {
        "hierarchy": [
          "tgn:7560073",
          "tgn:1000004",
          "tgn:7000198",
          "tgn:7016722",
          "tgn:7029392"
        ],
        "placetype": [
          "aat:300008347"
        ],
        "name:en": "Mekpur",
        "id": 7560073
      }
    },
    {
      "geometry": {
        "type": "Point",
        "coordinates": [
          79.747234,
          27.645556
        ]
      },
      "type": "Feature",
      "properties": {
        "hierarchy": [
          "tgn:7560074",
          "tgn:1000004",
          "tgn:7000198",
          "tgn:7016722",
          "tgn:7029392"
        ],
        "placetype": [
          "aat:300008347"
        ],
        "name:en": "Manbhāwanganj",
        "id": 7560074
      }
    },
    {
      "geometry": {
        "type": "Point",
        "coordinates": [
          79.7384,
          27.64588
        ]
      },
      "type": "Feature",
      "properties": {
        "hierarchy": [
          "tgn:7560075",
          "tgn:1000004",
          "tgn:7000198",
          "tgn:7016722",
          "tgn:7029392"
        ],
        "placetype": [
          "aat:300008347"
        ],
        "name:en": "Bilhaiyān",
        "id": 7560075
      }
    },
    {
      "geometry": {
        "type": "Point",
        "coordinates": [
          79.69871,
          27.639934
        ]
      },
      "type": "Feature",
      "properties": {
        "hierarchy": [
          "tgn:7560076",
          "tgn:1000004",
          "tgn:7000198",
          "tgn:7016722",
          "tgn:7029392"
        ],
        "placetype": [
          "aat:300008347"
        ],
        "name:en": "Dandia",
        "id": 7560076
      }
    },
    {
      "geometry": {
        "type": "Point",
        "coordinates": [
          79.717497,
          27.645287
        ]
      },
      "type": "Feature",
      "properties": {
        "hierarchy": [
          "tgn:7560077",
          "tgn:1000004",
          "tgn:7000198",
          "tgn:7016722",
          "tgn:7029392"
        ],
        "placetype": [
          "aat:300008347"
        ],
        "name:en": "Korāri",
        "id": 7560077
      }
    },
    {
      "geometry": {
        "type": "Point",
        "coordinates": [
          79.729975,
          27.654869
        ]
      },
      "type": "Feature",
      "properties": {
        "hierarchy": [
          "tgn:7560078",
          "tgn:1000004",
          "tgn:7000198",
          "tgn:7016722",
          "tgn:7029392"
        ],
        "placetype": [
          "aat:300008347"
        ],
        "name:en": "Bhābar",
        "id": 7560078
      }
    },
    {
      "geometry": {
        "type": "Point",
        "coordinates": [
          79.745036,
          27.656085
        ]
      },
      "type": "Feature",
      "properties": {
        "hierarchy": [
          "tgn:7560079",
          "tgn:1000004",
          "tgn:7000198",
          "tgn:7016722",
          "tgn:7029392"
        ],
        "placetype": [
          "aat:300008347"
        ],
        "name:en": "Keshopur",
        "id": 7560079
      }
    }
  ]
}
