{
  "type": "FeatureCollection",
  "features": [
    {
      "geometry": {
        "type": "Point",
        "coordinates": [
          84.433333,
          19.75
        ]
      },
      "type": "Feature",
      "properties": {
        "hierarchy": [
          "tgn:1077040",
          "tgn:1000004",
          "tgn:7000198",
          "tgn:7016694",
          "tgn:7029392"
        ],
        "placetype": [
          "aat:300008347"
        ],
        "name:en": "Sorada",
        "id": 1077040
      }
    },
    {
      "geometry": {
        "type": "Point",
        "coordinates": [
          90.885899,
          26.486117
        ]
      },
      "type": "Feature",
      "properties": {
        "hierarchy": [
          "tgn:1077041",
          "tgn:1000004",
          "tgn:1001832",
          "tgn:7000198",
          "tgn:7029392"
        ],
        "placetype": [
          "aat:300008347"
        ],
        "name:en": "Sorbhog",
        "id": 1077041
      }
    },
    {
      "geometry": {
        "type": "Point",
        "coordinates": [
          86.688,
          21.278
        ]
      },
      "type": "Feature",
      "properties": {
        "hierarchy": [
          "tgn:1077042",
          "tgn:1000004",
          "tgn:7000198",
          "tgn:7016694",
          "tgn:7029392"
        ],
        "placetype": [
          "aat:300008347"
        ],
        "name:en": "Soro",
        "id": 1077042
      }
    },
    {
      "geometry": {
        "type": "Point",
        "coordinates": [
          78.7467,
          27.89012
        ]
      },
      "type": "Feature",
      "properties": {
        "hierarchy": [
          "tgn:1077043",
          "tgn:1000004",
          "tgn:7000198",
          "tgn:7016722",
          "tgn:7029392"
        ],
        "placetype": [
          "aat:300008347"
        ],
        "name:en": "Soron",
        "id": 1077043
      }
    },
    {
      "geometry": {
        "type": "Point",
        "coordinates": [
          88.4167,
          22.6167
        ]
      },
      "type": "Feature",
      "properties": {
        "hierarchy": [
          "tgn:1077044",
          "tgn:1000004",
          "tgn:7000198",
          "tgn:1001977",
          "tgn:7029392"
        ],
        "placetype": [
          "aat:300008347"
        ],
        "id": 1077044,
        "name:xx": "South Dum-Dum"
      }
    },
    {
      "geometry": {
        "type": "Point",
        "coordinates": [
          90.01805,
          25.905424
        ]
      },
      "type": "Feature",
      "properties": {
        "hierarchy": [
          "tgn:1077045",
          "tgn:1000004",
          "tgn:1001832",
          "tgn:7000198",
          "tgn:7029392"
        ],
        "placetype": [
          "aat:300008347"
        ],
        "name:en": "South Salmara",
        "id": 1077045
      }
    },
    {
      "geometry": {
        "type": "Point",
        "coordinates": [
          79.55,
          16.8167
        ]
      },
      "type": "Feature",
      "properties": {
        "hierarchy": [
          "tgn:1077046",
          "tgn:1001828",
          "tgn:1000004",
          "tgn:7000198",
          "tgn:7029392"
        ],
        "placetype": [
          "aat:300008347"
        ],
        "id": 1077046,
        "name:xx": "South Vijayapuri"
      }
    },
    {
      "geometry": {
        "type": "Point",
        "coordinates": [
          76.175663,
          24.189069
        ]
      },
      "type": "Feature",
      "properties": {
        "hierarchy": [
          "tgn:1077047",
          "tgn:1000004",
          "tgn:7000198",
          "tgn:1001894",
          "tgn:7029392"
        ],
        "placetype": [
          "aat:300008347"
        ],
        "name:en": "Soyet",
        "id": 1077047
      }
    },
    {
      "geometry": {
        "type": "Point",
        "coordinates": [
          83.897,
          18.296
        ]
      },
      "type": "Feature",
      "properties": {
        "hierarchy": [
          "tgn:1077048",
          "tgn:1001828",
          "tgn:1000004",
          "tgn:7000198",
          "tgn:7029392"
        ],
        "placetype": [
          "aat:300008347"
        ],
        "name:en": "Srīkākulam",
        "id": 1077048
      }
    }
  ]
}
