{
  "type": "FeatureCollection",
  "features": [
    {
      "geometry": {
        "type": "Point",
        "coordinates": [
          34.708941,
          23.711761
        ]
      },
      "type": "Feature",
      "properties": {
        "hierarchy": [
          "tgn:7537040",
          "tgn:7001242",
          "tgn:7001311",
          "tgn:7016833",
          "tgn:7029392"
        ],
        "placetype": [
          "aat:300008795"
        ],
        "name:en": "Ḩajar al Fīl, Jabal",
        "id": 7537040
      }
    },
    {
      "geometry": {
        "type": "Point",
        "coordinates": [
          30.416667,
          30.75
        ]
      },
      "type": "Feature",
      "properties": {
        "hierarchy": [
          "tgn:7537041",
          "tgn:7001242",
          "tgn:1001075",
          "tgn:7016833",
          "tgn:7029392"
        ],
        "placetype": [
          "aat:300008777"
        ],
        "name:en": "Ḩajar, Tallat al",
        "id": 7537041
      }
    },
    {
      "geometry": {
        "type": "Point",
        "coordinates": [
          31.882022,
          31.332933
        ]
      },
      "type": "Feature",
      "properties": {
        "hierarchy": [
          "tgn:7537042",
          "tgn:7001242",
          "tgn:1001059",
          "tgn:7016833",
          "tgn:7029392"
        ],
        "placetype": [
          "aat:300008791"
        ],
        "name:en": "Lazqah, Jazīrat al",
        "id": 7537042
      }
    },
    {
      "geometry": {
        "type": "Point",
        "coordinates": [
          29.066667,
          30.666667
        ]
      },
      "type": "Feature",
      "properties": {
        "hierarchy": [
          "tgn:7537043",
          "tgn:7001242",
          "tgn:7016833",
          "tgn:1001418",
          "tgn:7029392"
        ],
        "placetype": [
          "aat:300008777"
        ],
        "name:en": "Layl, Tallāt al",
        "id": 7537043
      }
    },
    {
      "geometry": {
        "type": "Point",
        "coordinates": [
          28.65,
          30.55
        ]
      },
      "type": "Feature",
      "properties": {
        "hierarchy": [
          "tgn:7537044",
          "tgn:7001242",
          "tgn:7016833",
          "tgn:1001418",
          "tgn:7029392"
        ],
        "placetype": [
          "aat:300379998"
        ],
        "name:en": "Layl, Raqabat al",
        "id": 7537044
      }
    },
    {
      "geometry": {
        "type": "Point",
        "coordinates": [
          33.465556,
          30.811389
        ]
      },
      "type": "Feature",
      "properties": {
        "hierarchy": [
          "tgn:7537045",
          "tgn:7001242",
          "tgn:7016833",
          "tgn:7001335",
          "tgn:7029392"
        ],
        "placetype": [
          "aat:300387029"
        ],
        "name:en": "Lawīyat al Lajamah",
        "id": 7537045
      }
    },
    {
      "geometry": {
        "type": "Point",
        "coordinates": [
          33.016667,
          24.433333
        ]
      },
      "type": "Feature",
      "properties": {
        "hierarchy": [
          "tgn:7537046",
          "tgn:7001242",
          "tgn:7001311",
          "tgn:7016833",
          "tgn:7029392"
        ],
        "placetype": [
          "aat:300379998"
        ],
        "name:en": "Lāwī, Wādī al",
        "id": 7537046
      }
    },
    {
      "geometry": {
        "type": "Point",
        "coordinates": [
          34.816667,
          24.783333
        ]
      },
      "type": "Feature",
      "properties": {
        "hierarchy": [
          "tgn:7537047",
          "tgn:7001242",
          "tgn:7001311",
          "tgn:7016833",
          "tgn:7029392"
        ],
        "placetype": [
          "aat:300379998"
        ],
        "name:en": "Lawi, Wâdi",
        "id": 7537047
      }
    },
    {
      "geometry": {
        "type": "Point",
        "coordinates": [
          34.828808,
          24.778341
        ]
      },
      "type": "Feature",
      "properties": {
        "hierarchy": [
          "tgn:7537048",
          "tgn:7001242",
          "tgn:7001311",
          "tgn:7016833",
          "tgn:7029392"
        ],
        "placetype": [
          "aat:300008795"
        ],
        "name:en": "Lāwī, Jabal",
        "id": 7537048
      }
    },
    {
      "geometry": {
        "type": "Point",
        "coordinates": [
          28.666667,
          30.933333
        ]
      },
      "type": "Feature",
      "properties": {
        "hierarchy": [
          "tgn:7537049",
          "tgn:7001242",
          "tgn:7016833",
          "tgn:1001418",
          "tgn:7029392"
        ],
        "placetype": [
          "aat:300006207"
        ],
        "name:en": "Bi'r Laţīf Farḩāt",
        "id": 7537049
      }
    }
  ]
}
