{
  "type": "FeatureCollection",
  "features": [
    {
      "geometry": {
        "type": "Point",
        "coordinates": [
          33.633333,
          26.316667
        ]
      },
      "type": "Feature",
      "properties": {
        "hierarchy": [
          "tgn:7529210",
          "tgn:7001242",
          "tgn:7001311",
          "tgn:7016833",
          "tgn:7029392"
        ],
        "placetype": [
          "aat:300379998"
        ],
        "name:en": "Talet el-Girigab, Wadi",
        "id": 7529210
      }
    },
    {
      "geometry": {
        "type": "Point",
        "coordinates": [
          32.033333,
          26.383333
        ]
      },
      "type": "Feature",
      "properties": {
        "hierarchy": [
          "tgn:7529211",
          "tgn:7001242",
          "tgn:7001311",
          "tgn:7016833",
          "tgn:7029392"
        ],
        "placetype": [
          "aat:300132356"
        ],
        "name:en": "Tal'et el-Gîr",
        "id": 7529211
      }
    },
    {
      "geometry": {
        "type": "Point",
        "coordinates": [
          31.966667,
          26.35
        ]
      },
      "type": "Feature",
      "properties": {
        "hierarchy": [
          "tgn:7529212",
          "tgn:7001242",
          "tgn:7016833",
          "tgn:7001334",
          "tgn:7029392"
        ],
        "placetype": [
          "aat:300379998"
        ],
        "name:en": "Tal'et 'Ammâr",
        "id": 7529212
      }
    },
    {
      "geometry": {
        "type": "Point",
        "coordinates": [
          30.908174,
          30.873995
        ]
      },
      "type": "Feature",
      "properties": {
        "hierarchy": [
          "tgn:7529213",
          "tgn:7001242",
          "tgn:7016833",
          "tgn:7001312",
          "tgn:7029392"
        ],
        "placetype": [
          "aat:300008347"
        ],
        "name:en": "Talbant Qayşar",
        "id": 7529213
      }
    },
    {
      "geometry": {
        "type": "Point",
        "coordinates": [
          31.295809,
          30.956118
        ]
      },
      "type": "Feature",
      "properties": {
        "hierarchy": [
          "tgn:7529214",
          "tgn:7001242",
          "tgn:1001059",
          "tgn:7016833",
          "tgn:7029392"
        ],
        "placetype": [
          "aat:300008347"
        ],
        "name:en": "Talbant Ajā",
        "id": 7529214
      }
    },
    {
      "geometry": {
        "type": "Point",
        "coordinates": [
          31.096726,
          30.456587
        ]
      },
      "type": "Feature",
      "properties": {
        "hierarchy": [
          "tgn:7529215",
          "tgn:7001242",
          "tgn:7016833",
          "tgn:1001087",
          "tgn:7029392"
        ],
        "placetype": [
          "aat:300008347"
        ],
        "id": 7529215,
        "name:xx": "Tilbant Abshīsh"
      }
    },
    {
      "geometry": {
        "type": "Point",
        "coordinates": [
          25.139756,
          30.654565
        ]
      },
      "type": "Feature",
      "properties": {
        "hierarchy": [
          "tgn:7529216",
          "tgn:7001242",
          "tgn:7016833",
          "tgn:1001418",
          "tgn:7029392"
        ],
        "placetype": [
          "aat:300008777"
        ],
        "name:en": "Talata, 'Alam el-",
        "id": 7529216
      }
    },
    {
      "geometry": {
        "type": "Point",
        "coordinates": [
          25.446109,
          30.99436
        ]
      },
      "type": "Feature",
      "properties": {
        "hierarchy": [
          "tgn:7529217",
          "tgn:7001242",
          "tgn:7016833",
          "tgn:1001418",
          "tgn:7029392"
        ],
        "placetype": [
          "aat:300008777"
        ],
        "name:en": "Talab, 'Alam el-",
        "id": 7529217
      }
    }
  ]
}
