{
  "type": "FeatureCollection",
  "features": [
    {
      "geometry": {
        "type": "Point",
        "coordinates": [
          121.808056,
          24.843333
        ]
      },
      "type": "Feature",
      "properties": {
        "hierarchy": [
          "tgn:7474270",
          "tgn:1000004",
          "tgn:7489179",
          "tgn:1000141",
          "tgn:7029392"
        ],
        "placetype": [
          "aat:300007783"
        ],
        "id": 7474270,
        "name:xx": "Dingbu Zhan"
      }
    },
    {
      "geometry": {
        "type": "Point",
        "coordinates": [
          121.417154,
          24.961268
        ]
      },
      "type": "Feature",
      "properties": {
        "hierarchy": [
          "tgn:7474271",
          "tgn:1000004",
          "tgn:1000454",
          "tgn:1000141",
          "tgn:7029392"
        ],
        "placetype": [
          "aat:300008347"
        ],
        "id": 7474271,
        "name:xx": "Dingbu"
      }
    },
    {
      "geometry": {
        "type": "Point",
        "coordinates": [
          121.808333,
          24.845278
        ]
      },
      "type": "Feature",
      "properties": {
        "hierarchy": [
          "tgn:7474272",
          "tgn:1000004",
          "tgn:7489179",
          "tgn:1000141",
          "tgn:7029392"
        ],
        "placetype": [
          "aat:300008347"
        ],
        "id": 7474272,
        "name:xx": "Dingbu"
      }
    },
    {
      "geometry": {
        "type": "Point",
        "coordinates": [
          120.925828,
          24.707037
        ]
      },
      "type": "Feature",
      "properties": {
        "hierarchy": [
          "tgn:7474273",
          "tgn:1000004",
          "tgn:7471332",
          "tgn:1000141",
          "tgn:7029392"
        ],
        "placetype": [
          "aat:300008347"
        ],
        "id": 7474273,
        "name:xx": "Dingbu"
      }
    },
    {
      "geometry": {
        "type": "Point",
        "coordinates": [
          120.528318,
          23.411259
        ]
      },
      "type": "Feature",
      "properties": {
        "hierarchy": [
          "tgn:7474274",
          "tgn:7468018",
          "tgn:1000004",
          "tgn:1000141",
          "tgn:7029392"
        ],
        "placetype": [
          "aat:300008347"
        ],
        "id": 7474274,
        "name:xx": "Dingbu"
      }
    },
    {
      "geometry": {
        "type": "Point",
        "coordinates": [
          120.47,
          23.308333
        ]
      },
      "type": "Feature",
      "properties": {
        "hierarchy": [
          "tgn:7474276",
          "tgn:1000004",
          "tgn:7490934",
          "tgn:1000141",
          "tgn:7029392"
        ],
        "placetype": [
          "aat:300008347"
        ],
        "id": 7474276,
        "name:xx": "Dingbu"
      }
    },
    {
      "geometry": {
        "type": "Point",
        "coordinates": [
          120.450638,
          23.667549
        ]
      },
      "type": "Feature",
      "properties": {
        "hierarchy": [
          "tgn:7474277",
          "tgn:1000004",
          "tgn:7001014",
          "tgn:1000141",
          "tgn:7029392"
        ],
        "placetype": [
          "aat:300008347"
        ],
        "id": 7474277,
        "name:xx": "Dingpi"
      }
    },
    {
      "geometry": {
        "type": "Point",
        "coordinates": [
          121.459502,
          25.195348
        ]
      },
      "type": "Feature",
      "properties": {
        "hierarchy": [
          "tgn:7474278",
          "tgn:1000004",
          "tgn:1000454",
          "tgn:1000141",
          "tgn:7029392"
        ],
        "placetype": [
          "aat:300008347"
        ],
        "id": 7474278,
        "name:xx": "Dingpidao"
      }
    },
    {
      "geometry": {
        "type": "Point",
        "coordinates": [
          120.493611,
          23.279444
        ]
      },
      "type": "Feature",
      "properties": {
        "hierarchy": [
          "tgn:7474279",
          "tgn:1000004",
          "tgn:7490934",
          "tgn:1000141",
          "tgn:7029392"
        ],
        "placetype": [
          "aat:300008798"
        ],
        "id": 7474279,
        "name:xx": "Dingping Shan"
      }
    }
  ]
}
