{
  "type": "FeatureCollection",
  "features": [
    {
      "geometry": {
        "type": "Point",
        "coordinates": [
          4.914336,
          50.726339
        ]
      },
      "type": "Feature",
      "properties": {
        "hierarchy": [
          "tgn:7251460",
          "tgn:7018238",
          "tgn:1000003",
          "tgn:1000063",
          "tgn:4012014",
          "tgn:7029392"
        ],
        "placetype": [
          "aat:300008347"
        ],
        "id": 7251460,
        "name:xx": "Piétrain"
      }
    },
    {
      "geometry": {
        "type": "Point",
        "coordinates": [
          4.383333,
          50.416667
        ]
      },
      "type": "Feature",
      "properties": {
        "hierarchy": [
          "tgn:7251462",
          "tgn:7007877",
          "tgn:1000003",
          "tgn:1000063",
          "tgn:4012014",
          "tgn:7029392"
        ],
        "placetype": [
          "aat:300008699"
        ],
        "id": 7251462,
        "name:xx": "Piéton"
      }
    },
    {
      "geometry": {
        "type": "Point",
        "coordinates": [
          4.283333,
          50.433333
        ]
      },
      "type": "Feature",
      "properties": {
        "hierarchy": [
          "tgn:7251463",
          "tgn:7007877",
          "tgn:1000003",
          "tgn:1000063",
          "tgn:4012014",
          "tgn:7029392"
        ],
        "placetype": [
          "aat:300008347"
        ],
        "id": 7251463,
        "name:xx": "Piéton"
      }
    },
    {
      "geometry": {
        "type": "Point",
        "coordinates": [
          4.733333,
          50.866667
        ]
      },
      "type": "Feature",
      "properties": {
        "hierarchy": [
          "tgn:7251465",
          "tgn:7018239",
          "tgn:1000003",
          "tgn:1000063",
          "tgn:7018236",
          "tgn:7029392"
        ],
        "placetype": [
          "aat:300008347"
        ],
        "id": 7251465,
        "name:xx": "Pietersberg"
      }
    },
    {
      "geometry": {
        "type": "Point",
        "coordinates": [
          5.383333,
          50.916667
        ]
      },
      "type": "Feature",
      "properties": {
        "hierarchy": [
          "tgn:7251466",
          "tgn:7003461",
          "tgn:1000003",
          "tgn:1000063",
          "tgn:7018236",
          "tgn:7029392"
        ],
        "placetype": [
          "aat:300008347"
        ],
        "id": 7251466,
        "name:xx": "Pietelbeek"
      }
    },
    {
      "geometry": {
        "type": "Point",
        "coordinates": [
          3.416667,
          51.05
        ]
      },
      "type": "Feature",
      "properties": {
        "hierarchy": [
          "tgn:7251467",
          "tgn:7003458",
          "tgn:1000003",
          "tgn:1000063",
          "tgn:7018236",
          "tgn:7029392"
        ],
        "placetype": [
          "aat:300008347"
        ],
        "id": 7251467,
        "name:xx": "Pietakker"
      }
    },
    {
      "geometry": {
        "type": "Point",
        "coordinates": [
          4.416667,
          51.116667
        ]
      },
      "type": "Feature",
      "properties": {
        "hierarchy": [
          "tgn:7251468",
          "tgn:7003456",
          "tgn:1000003",
          "tgn:1000063",
          "tgn:7018236",
          "tgn:7029392"
        ],
        "placetype": [
          "aat:300008347"
        ],
        "id": 7251468,
        "name:xx": "Pierstraat"
      }
    },
    {
      "geometry": {
        "type": "Point",
        "coordinates": [
          4.45,
          50.483333
        ]
      },
      "type": "Feature",
      "properties": {
        "hierarchy": [
          "tgn:7251469",
          "tgn:7007877",
          "tgn:1000003",
          "tgn:1000063",
          "tgn:4012014",
          "tgn:7029392"
        ],
        "placetype": [
          "aat:300008347"
        ],
        "id": 7251469,
        "name:xx": "Piersoulx"
      }
    }
  ]
}
