{
  "type": "FeatureCollection",
  "features": [
    {
      "geometry": {
        "type": "Point",
        "coordinates": [
          -100.558889,
          20.828056
        ]
      },
      "type": "Feature",
      "properties": {
        "hierarchy": [
          "tgn:7415570",
          "tgn:7005584",
          "tgn:1000001",
          "tgn:7005560",
          "tgn:7029392"
        ],
        "placetype": [
          "aat:300008795"
        ],
        "id": 7415570,
        "name:xx": "Tambula, Cerro"
      }
    },
    {
      "geometry": {
        "type": "Point",
        "coordinates": [
          -100.633611,
          20.785556
        ]
      },
      "type": "Feature",
      "properties": {
        "hierarchy": [
          "tgn:7415571",
          "tgn:7005584",
          "tgn:1000001",
          "tgn:7005560",
          "tgn:7029392"
        ],
        "placetype": [
          "aat:300008347"
        ],
        "id": 7415571,
        "name:xx": "La Lagunilla"
      }
    },
    {
      "geometry": {
        "type": "Point",
        "coordinates": [
          -100.826111,
          20.811667
        ]
      },
      "type": "Feature",
      "properties": {
        "hierarchy": [
          "tgn:7415572",
          "tgn:7005584",
          "tgn:1000001",
          "tgn:7005560",
          "tgn:7029392"
        ],
        "placetype": [
          "aat:300008795"
        ],
        "id": 7415572,
        "name:xx": "El Picacho, Cerro"
      }
    },
    {
      "geometry": {
        "type": "Point",
        "coordinates": [
          -100.714722,
          20.859167
        ]
      },
      "type": "Feature",
      "properties": {
        "hierarchy": [
          "tgn:7415573",
          "tgn:7005584",
          "tgn:1000001",
          "tgn:7005560",
          "tgn:7029392"
        ],
        "placetype": [
          "aat:300008699"
        ],
        "id": 7415573,
        "name:xx": "El Picacho, Río"
      }
    },
    {
      "geometry": {
        "type": "Point",
        "coordinates": [
          -100.773611,
          20.848333
        ]
      },
      "type": "Feature",
      "properties": {
        "hierarchy": [
          "tgn:7415574",
          "tgn:7005584",
          "tgn:1000001",
          "tgn:7005560",
          "tgn:7029392"
        ],
        "placetype": [
          "aat:300008347"
        ],
        "id": 7415574,
        "name:xx": "Santa Teresa"
      }
    },
    {
      "geometry": {
        "type": "Point",
        "coordinates": [
          -100.703056,
          20.900556
        ]
      },
      "type": "Feature",
      "properties": {
        "hierarchy": [
          "tgn:7415575",
          "tgn:7005584",
          "tgn:1000001",
          "tgn:7005560",
          "tgn:7029392"
        ],
        "placetype": [
          "aat:300008347"
        ],
        "id": 7415575,
        "name:xx": "El Padre"
      }
    },
    {
      "geometry": {
        "type": "Point",
        "coordinates": [
          -100.723611,
          20.921667
        ]
      },
      "type": "Feature",
      "properties": {
        "hierarchy": [
          "tgn:7415576",
          "tgn:7005584",
          "tgn:1000001",
          "tgn:7005560",
          "tgn:7029392"
        ],
        "placetype": [
          "aat:300006191"
        ],
        "id": 7415576,
        "name:xx": "Presa Las Colonias"
      }
    },
    {
      "geometry": {
        "type": "Point",
        "coordinates": [
          -100.696667,
          20.92
        ]
      },
      "type": "Feature",
      "properties": {
        "hierarchy": [
          "tgn:7415577",
          "tgn:7005584",
          "tgn:1000001",
          "tgn:7005560",
          "tgn:7029392"
        ],
        "placetype": [
          "aat:300008347"
        ],
        "id": 7415577,
        "name:xx": "Aparicio"
      }
    },
    {
      "geometry": {
        "type": "Point",
        "coordinates": [
          -100.671667,
          20.938333
        ]
      },
      "type": "Feature",
      "properties": {
        "hierarchy": [
          "tgn:7415578",
          "tgn:7005584",
          "tgn:1000001",
          "tgn:7005560",
          "tgn:7029392"
        ],
        "placetype": [
          "aat:300008347"
        ],
        "id": 7415578,
        "name:xx": "San José de la Laguna"
      }
    },
    {
      "geometry": {
        "type": "Point",
        "coordinates": [
          -100.695278,
          20.934722
        ]
      },
      "type": "Feature",
      "properties": {
        "hierarchy": [
          "tgn:7415579",
          "tgn:7005584",
          "tgn:1000001",
          "tgn:7005560",
          "tgn:7029392"
        ],
        "placetype": [
          "aat:300008347"
        ],
        "id": 7415579,
        "name:xx": "San José de Garcia"
      }
    }
  ]
}
