{
  "type": "FeatureCollection",
  "features": [
    {
      "geometry": {
        "type": "Point",
        "coordinates": [
          85.736191,
          24.953957
        ]
      },
      "type": "Feature",
      "properties": {
        "hierarchy": [
          "tgn:7552210",
          "tgn:1000004",
          "tgn:1001842",
          "tgn:7000198",
          "tgn:7029392"
        ],
        "placetype": [
          "aat:300008347"
        ],
        "name:en": "Pakribarāwān",
        "id": 7552210
      }
    },
    {
      "geometry": {
        "type": "Point",
        "coordinates": [
          75.773862,
          17.723204
        ]
      },
      "type": "Feature",
      "properties": {
        "hierarchy": [
          "tgn:7552211",
          "tgn:1000004",
          "tgn:7000198",
          "tgn:1001895",
          "tgn:7029392"
        ],
        "placetype": [
          "aat:300008347"
        ],
        "name:en": "Pākni",
        "id": 7552211
      }
    },
    {
      "geometry": {
        "type": "Point",
        "coordinates": [
          93.26189,
          25.85047
        ]
      },
      "type": "Feature",
      "properties": {
        "hierarchy": [
          "tgn:7552212",
          "tgn:1000004",
          "tgn:1001832",
          "tgn:7000198",
          "tgn:7029392"
        ],
        "placetype": [
          "aat:300008347"
        ],
        "name:en": "Paklānggaon",
        "id": 7552212
      }
    },
    {
      "geometry": {
        "type": "Point",
        "coordinates": [
          74.346894,
          30.16327
        ]
      },
      "type": "Feature",
      "properties": {
        "hierarchy": [
          "tgn:7552213",
          "tgn:1000004",
          "tgn:7000198",
          "tgn:7016883",
          "tgn:7029392"
        ],
        "placetype": [
          "aat:300007783"
        ],
        "name:en": "Pakki Tibbi",
        "id": 7552213
      }
    },
    {
      "geometry": {
        "type": "Point",
        "coordinates": [
          79.85,
          12.483333
        ]
      },
      "type": "Feature",
      "properties": {
        "hierarchy": [
          "tgn:7552214",
          "tgn:1000004",
          "tgn:7000198",
          "tgn:7001797",
          "tgn:7029392"
        ],
        "placetype": [
          "aat:300008347"
        ],
        "name:en": "Pākkam",
        "id": 7552214
      }
    },
    {
      "geometry": {
        "type": "Point",
        "coordinates": [
          78.966667,
          11.95
        ]
      },
      "type": "Feature",
      "properties": {
        "hierarchy": [
          "tgn:7552215",
          "tgn:1000004",
          "tgn:7000198",
          "tgn:7001797",
          "tgn:7029392"
        ],
        "placetype": [
          "aat:300008347"
        ],
        "name:en": "Pākkam",
        "id": 7552215
      }
    },
    {
      "geometry": {
        "type": "Point",
        "coordinates": [
          74.854421,
          30.0318
        ]
      },
      "type": "Feature",
      "properties": {
        "hierarchy": [
          "tgn:7552216",
          "tgn:1000004",
          "tgn:7000198",
          "tgn:7016883",
          "tgn:7029392"
        ],
        "placetype": [
          "aat:300008347"
        ],
        "name:en": "Pakka Kalān",
        "id": 7552216
      }
    },
    {
      "geometry": {
        "type": "Point",
        "coordinates": [
          73.901089,
          30.358036
        ]
      },
      "type": "Feature",
      "properties": {
        "hierarchy": [
          "tgn:7552217",
          "tgn:1000004",
          "tgn:7000198",
          "tgn:7016883",
          "tgn:7029392"
        ],
        "placetype": [
          "aat:300008347"
        ],
        "name:en": "Pakka",
        "id": 7552217
      }
    },
    {
      "geometry": {
        "type": "Point",
        "coordinates": [
          76.595287,
          26.212859
        ]
      },
      "type": "Feature",
      "properties": {
        "hierarchy": [
          "tgn:7552219",
          "tgn:1000004",
          "tgn:7000198",
          "tgn:7016788",
          "tgn:7029392"
        ],
        "placetype": [
          "aat:300008699"
        ],
        "name:en": "Morel River",
        "id": 7552219
      }
    }
  ]
}
