{
  "type": "FeatureCollection",
  "features": [
    {
      "geometry": {
        "type": "Point",
        "coordinates": [
          120.283333,
          23.083333
        ]
      },
      "type": "Feature",
      "properties": {
        "hierarchy": [
          "tgn:7486740",
          "tgn:1000004",
          "tgn:7490934",
          "tgn:1000141",
          "tgn:7029392"
        ],
        "placetype": [
          "aat:300008347"
        ],
        "id": 7486740,
        "name:xx": "Gangzidun"
      }
    },
    {
      "geometry": {
        "type": "Point",
        "coordinates": [
          120.672406,
          22.945993
        ]
      },
      "type": "Feature",
      "properties": {
        "hierarchy": [
          "tgn:7486742",
          "tgn:7001004",
          "tgn:1000004",
          "tgn:1000141",
          "tgn:7029392"
        ],
        "placetype": [
          "aat:300008798"
        ],
        "id": 7486742,
        "name:xx": "Gangzi Shan"
      }
    },
    {
      "geometry": {
        "type": "Point",
        "coordinates": [
          120.858611,
          22.143611
        ]
      },
      "type": "Feature",
      "properties": {
        "hierarchy": [
          "tgn:7486743",
          "tgn:1000004",
          "tgn:7492971",
          "tgn:1000141",
          "tgn:7029392"
        ],
        "placetype": [
          "aat:300008798"
        ],
        "id": 7486743,
        "name:xx": "Gangzi Shan"
      }
    },
    {
      "geometry": {
        "type": "Point",
        "coordinates": [
          120.384774,
          22.505254
        ]
      },
      "type": "Feature",
      "properties": {
        "hierarchy": [
          "tgn:7486744",
          "tgn:7001004",
          "tgn:1000004",
          "tgn:1000141",
          "tgn:7029392"
        ],
        "placetype": [
          "aat:300008347"
        ],
        "id": 7486744,
        "name:xx": "Gangzibu"
      }
    },
    {
      "geometry": {
        "type": "Point",
        "coordinates": [
          120.886944,
          22.141111
        ]
      },
      "type": "Feature",
      "properties": {
        "hierarchy": [
          "tgn:7486745",
          "tgn:1000004",
          "tgn:7492971",
          "tgn:1000141",
          "tgn:7029392"
        ],
        "placetype": [
          "aat:300008777"
        ],
        "id": 7486745,
        "name:xx": "Gangzi Bi Shan"
      }
    },
    {
      "geometry": {
        "type": "Point",
        "coordinates": [
          121.422641,
          25.193017
        ]
      },
      "type": "Feature",
      "properties": {
        "hierarchy": [
          "tgn:7486746",
          "tgn:1000004",
          "tgn:1000454",
          "tgn:1000141",
          "tgn:7029392"
        ],
        "placetype": [
          "aat:300008347"
        ],
        "id": 7486746,
        "name:xx": "Gangziping"
      }
    },
    {
      "geometry": {
        "type": "Point",
        "coordinates": [
          120.896944,
          22.144167
        ]
      },
      "type": "Feature",
      "properties": {
        "hierarchy": [
          "tgn:7486747",
          "tgn:1000004",
          "tgn:7492971",
          "tgn:1000141",
          "tgn:7029392"
        ],
        "placetype": [
          "aat:300386846"
        ],
        "id": 7486747,
        "name:xx": "Gangzi Bi"
      }
    },
    {
      "geometry": {
        "type": "Point",
        "coordinates": [
          121.778539,
          25.139853
        ]
      },
      "type": "Feature",
      "properties": {
        "hierarchy": [
          "tgn:7486748",
          "tgn:1000957",
          "tgn:1000004",
          "tgn:1000141",
          "tgn:7029392"
        ],
        "placetype": [
          "aat:300008347"
        ],
        "id": 7486748,
        "name:xx": "Gongziliao"
      }
    },
    {
      "geometry": {
        "type": "Point",
        "coordinates": [
          120.094722,
          23.057222
        ]
      },
      "type": "Feature",
      "properties": {
        "hierarchy": [
          "tgn:7486749",
          "tgn:1000004",
          "tgn:7490934",
          "tgn:1000141",
          "tgn:7029392"
        ],
        "placetype": [
          "aat:300008347"
        ],
        "id": 7486749,
        "name:xx": "Gangxi"
      }
    }
  ]
}
