{
  "type": "FeatureCollection",
  "features": [
    {
      "geometry": {
        "type": "Point",
        "coordinates": [
          75.786111,
          26.168672
        ]
      },
      "type": "Feature",
      "properties": {
        "hierarchy": [
          "tgn:1077200",
          "tgn:1000004",
          "tgn:7000198",
          "tgn:7016788",
          "tgn:7029392"
        ],
        "placetype": [
          "aat:300008347"
        ],
        "name:en": "Tonk",
        "id": 1077200
      }
    },
    {
      "geometry": {
        "type": "Point",
        "coordinates": [
          86.197916,
          23.903812
        ]
      },
      "type": "Feature",
      "properties": {
        "hierarchy": [
          "tgn:1077201",
          "tgn:1000004",
          "tgn:7000198",
          "tgn:7031783",
          "tgn:7029392"
        ],
        "placetype": [
          "aat:300008347"
        ],
        "name:en": "Topch훮nchi",
        "id": 1077201
      }
    },
    {
      "geometry": {
        "type": "Point",
        "coordinates": [
          87.6667,
          22.0833
        ]
      },
      "type": "Feature",
      "properties": {
        "hierarchy": [
          "tgn:1077202",
          "tgn:1000004",
          "tgn:7000198",
          "tgn:1001977",
          "tgn:7029392"
        ],
        "placetype": [
          "aat:300008347"
        ],
        "id": 1077202,
        "name:xx": "Tot훮n훮la"
      }
    },
    {
      "geometry": {
        "type": "Point",
        "coordinates": [
          88.398722,
          22.986719
        ]
      },
      "type": "Feature",
      "properties": {
        "hierarchy": [
          "tgn:1077204",
          "tgn:1000004",
          "tgn:7000198",
          "tgn:1001977",
          "tgn:7029392"
        ],
        "placetype": [
          "aat:300008347"
        ],
        "name:en": "Tribeni",
        "id": 1077204
      }
    },
    {
      "geometry": {
        "type": "Point",
        "coordinates": [
          76.216667,
          10.516667
        ]
      },
      "type": "Feature",
      "properties": {
        "hierarchy": [
          "tgn:1077205",
          "tgn:1000004",
          "tgn:7000198",
          "tgn:1001886",
          "tgn:7029392"
        ],
        "placetype": [
          "aat:300008347"
        ],
        "name:en": "Thrissur",
        "id": 1077205
      }
    },
    {
      "geometry": {
        "type": "Point",
        "coordinates": [
          89.665492,
          26.316881
        ]
      },
      "type": "Feature",
      "properties": {
        "hierarchy": [
          "tgn:1077207",
          "tgn:1000004",
          "tgn:7000198",
          "tgn:1001977",
          "tgn:7029392"
        ],
        "placetype": [
          "aat:300008347"
        ],
        "name:en": "Tuf훮nganj",
        "id": 1077207
      }
    },
    {
      "geometry": {
        "type": "Point",
        "coordinates": [
          77.101667,
          13.342222
        ]
      },
      "type": "Feature",
      "properties": {
        "hierarchy": [
          "tgn:1077208",
          "tgn:1000004",
          "tgn:7000198",
          "tgn:1001882",
          "tgn:7029392"
        ],
        "placetype": [
          "aat:300008347"
        ],
        "id": 1077208,
        "name:xx": "Tumkur"
      }
    },
    {
      "geometry": {
        "type": "Point",
        "coordinates": [
          79.733333,
          21.383333
        ]
      },
      "type": "Feature",
      "properties": {
        "hierarchy": [
          "tgn:1077209",
          "tgn:1000004",
          "tgn:7000198",
          "tgn:1001895",
          "tgn:7029392"
        ],
        "placetype": [
          "aat:300008347"
        ],
        "name:en": "Tumsar",
        "id": 1077209
      }
    }
  ]
}
