{
  "type": "FeatureCollection",
  "features": [
    {
      "geometry": {
        "type": "Point",
        "coordinates": [
          6.748056,
          50.2525
        ]
      },
      "type": "Feature",
      "properties": {
        "hierarchy": [
          "tgn:7076960",
          "tgn:1000003",
          "tgn:7003682",
          "tgn:7000084",
          "tgn:7029392"
        ],
        "placetype": [
          "aat:300387198"
        ],
        "id": 7076960,
        "name:xx": "Landkreis Daun"
      }
    },
    {
      "geometry": {
        "type": "Point",
        "coordinates": [
          6.38,
          50.075833
        ]
      },
      "type": "Feature",
      "properties": {
        "hierarchy": [
          "tgn:7076961",
          "tgn:1000003",
          "tgn:7003682",
          "tgn:7000084",
          "tgn:7029392"
        ],
        "placetype": [
          "aat:300387198"
        ],
        "id": 7076961,
        "name:xx": "Landkreis Bitburg-Prüm"
      }
    },
    {
      "geometry": {
        "type": "Point",
        "coordinates": [
          6.980833,
          49.943056
        ]
      },
      "type": "Feature",
      "properties": {
        "hierarchy": [
          "tgn:7076962",
          "tgn:1000003",
          "tgn:7003682",
          "tgn:7000084",
          "tgn:7029392"
        ],
        "placetype": [
          "aat:300387198"
        ],
        "id": 7076962,
        "name:xx": "Landkreis Bernkastel-Wittlich"
      }
    },
    {
      "geometry": {
        "type": "Point",
        "coordinates": [
          6.675,
          49.769167
        ]
      },
      "type": "Feature",
      "properties": {
        "hierarchy": [
          "tgn:7076963",
          "tgn:1000003",
          "tgn:7003682",
          "tgn:7000084",
          "tgn:7029392"
        ],
        "placetype": [
          "aat:300387198"
        ],
        "id": 7076963,
        "name:xx": "Kreisfreie Stadt Trier"
      }
    },
    {
      "geometry": {
        "type": "Point",
        "coordinates": [
          8.343611,
          49.4275
        ]
      },
      "type": "Feature",
      "properties": {
        "hierarchy": [
          "tgn:7076964",
          "tgn:1000003",
          "tgn:7003682",
          "tgn:7000084",
          "tgn:7029392"
        ],
        "placetype": [
          "aat:300387198"
        ],
        "id": 7076964,
        "name:xx": "Kreisfreie Stadt Ludwigshafen am Rhein"
      }
    },
    {
      "geometry": {
        "type": "Point",
        "coordinates": [
          8.428611,
          49.323611
        ]
      },
      "type": "Feature",
      "properties": {
        "hierarchy": [
          "tgn:7076966",
          "tgn:1000003",
          "tgn:7003682",
          "tgn:7000084",
          "tgn:7029392"
        ],
        "placetype": [
          "aat:300387198"
        ],
        "id": 7076966,
        "name:xx": "Kreisfreie Stadt Speyer"
      }
    },
    {
      "geometry": {
        "type": "Point",
        "coordinates": [
          8.298889,
          49.143333
        ]
      },
      "type": "Feature",
      "properties": {
        "hierarchy": [
          "tgn:7076967",
          "tgn:1000003",
          "tgn:7003682",
          "tgn:7000084",
          "tgn:7029392"
        ],
        "placetype": [
          "aat:300387198"
        ],
        "id": 7076967,
        "name:xx": "Landkreis Germersheim"
      }
    },
    {
      "geometry": {
        "type": "Point",
        "coordinates": [
          8.185278,
          49.344722
        ]
      },
      "type": "Feature",
      "properties": {
        "hierarchy": [
          "tgn:7076968",
          "tgn:1000003",
          "tgn:7003682",
          "tgn:7000084",
          "tgn:7029392"
        ],
        "placetype": [
          "aat:300387198"
        ],
        "id": 7076968,
        "name:xx": "Kreisfreie Stadt Neustadt an der Weinstraße"
      }
    },
    {
      "geometry": {
        "type": "Point",
        "coordinates": [
          8.1275,
          49.202222
        ]
      },
      "type": "Feature",
      "properties": {
        "hierarchy": [
          "tgn:7076969",
          "tgn:1000003",
          "tgn:7003682",
          "tgn:7000084",
          "tgn:7029392"
        ],
        "placetype": [
          "aat:300387198"
        ],
        "id": 7076969,
        "name:xx": "Kreisfreie Stadt Landau in der Pfalz"
      }
    }
  ]
}
