{
  "type": "FeatureCollection",
  "features": [
    {
      "geometry": {
        "type": "Point",
        "coordinates": [
          30.634567,
          31.300892
        ]
      },
      "type": "Feature",
      "properties": {
        "hierarchy": [
          "tgn:7531880",
          "tgn:7001242",
          "tgn:7016833",
          "tgn:1001335",
          "tgn:7029392"
        ],
        "placetype": [
          "aat:300008347"
        ],
        "name:en": "'Izbat Abū 'Umar",
        "id": 7531880
      }
    },
    {
      "geometry": {
        "type": "Point",
        "coordinates": [
          31.903778,
          30.117123
        ]
      },
      "type": "Feature",
      "properties": {
        "hierarchy": [
          "tgn:7531881",
          "tgn:7001242",
          "tgn:7016833",
          "tgn:7029392"
        ],
        "placetype": [
          "aat:300379998"
        ],
        "name:en": "Sayl, Wādī as",
        "id": 7531881
      }
    },
    {
      "geometry": {
        "type": "Point",
        "coordinates": [
          31.609439,
          30.159615
        ]
      },
      "type": "Feature",
      "properties": {
        "hierarchy": [
          "tgn:7531882",
          "tgn:7001242",
          "tgn:7016833",
          "tgn:1001091",
          "tgn:7029392"
        ],
        "placetype": [
          "aat:300008347"
        ],
        "id": 7531882,
        "name:xx": "Madīnat ash Shurūq"
      }
    },
    {
      "geometry": {
        "type": "Point",
        "coordinates": [
          31.638239,
          30.193783
        ]
      },
      "type": "Feature",
      "properties": {
        "hierarchy": [
          "tgn:7531883",
          "tgn:7001242",
          "tgn:7016833",
          "tgn:1001091",
          "tgn:7029392"
        ],
        "placetype": [
          "aat:300008347"
        ],
        "id": 7531883,
        "name:xx": "Madīnat aţ Ţalā'i'"
      }
    },
    {
      "geometry": {
        "type": "Point",
        "coordinates": [
          30.631003,
          31.295253
        ]
      },
      "type": "Feature",
      "properties": {
        "hierarchy": [
          "tgn:7531884",
          "tgn:7001242",
          "tgn:7016833",
          "tgn:1001335",
          "tgn:7029392"
        ],
        "placetype": [
          "aat:300008347"
        ],
        "name:en": "'Izbat Shukr",
        "id": 7531884
      }
    },
    {
      "geometry": {
        "type": "Point",
        "coordinates": [
          31.553845,
          30.177053
        ]
      },
      "type": "Feature",
      "properties": {
        "hierarchy": [
          "tgn:7531885",
          "tgn:7001242",
          "tgn:7016833",
          "tgn:7029392"
        ],
        "placetype": [
          "aat:300000206"
        ],
        "name:en": "Al Rashīdī Farm",
        "id": 7531885
      }
    },
    {
      "geometry": {
        "type": "Point",
        "coordinates": [
          31.544696,
          30.175042
        ]
      },
      "type": "Feature",
      "properties": {
        "hierarchy": [
          "tgn:7531886",
          "tgn:7001242",
          "tgn:7016833",
          "tgn:7029392"
        ],
        "placetype": [
          "aat:300000206"
        ],
        "name:en": "Az-Zahrā' Farm",
        "id": 7531886
      }
    },
    {
      "geometry": {
        "type": "Point",
        "coordinates": [
          31.520933,
          30.17679
        ]
      },
      "type": "Feature",
      "properties": {
        "hierarchy": [
          "tgn:7531887",
          "tgn:7001242",
          "tgn:7016833",
          "tgn:7029392"
        ],
        "placetype": [
          "aat:300008750"
        ],
        "name:en": "Al-Khānikah Sand Dunes",
        "id": 7531887
      }
    },
    {
      "geometry": {
        "type": "Point",
        "coordinates": [
          31.333841,
          30.012606
        ]
      },
      "type": "Feature",
      "properties": {
        "hierarchy": [
          "tgn:7531888",
          "tgn:7001242",
          "tgn:7016833",
          "tgn:1001091",
          "tgn:7029392"
        ],
        "placetype": [
          "aat:300007544"
        ],
        "id": 7531888,
        "name:xx": "Masjid aş Şaḩābah"
      }
    },
    {
      "geometry": {
        "type": "Point",
        "coordinates": [
          31.351159,
          30.020488
        ]
      },
      "type": "Feature",
      "properties": {
        "hierarchy": [
          "tgn:7531889",
          "tgn:7001242",
          "tgn:7016833",
          "tgn:1001091",
          "tgn:7029392"
        ],
        "placetype": [
          "aat:300266755"
        ],
        "id": 7531889,
        "name:xx": "Maqābir al Quwwāt al Musallaḩah"
      }
    }
  ]
}
