{
  "type": "FeatureCollection",
  "features": [
    {
      "geometry": {
        "type": "Point",
        "coordinates": [
          71.643876,
          27.182462
        ]
      },
      "type": "Feature",
      "properties": {
        "hierarchy": [
          "tgn:7565420",
          "tgn:1000004",
          "tgn:7000198",
          "tgn:7016788",
          "tgn:7029392"
        ],
        "placetype": [
          "aat:300008347"
        ],
        "name:en": "Aeta",
        "id": 7565420
      }
    },
    {
      "geometry": {
        "type": "Point",
        "coordinates": [
          71.619151,
          27.09157
        ]
      },
      "type": "Feature",
      "properties": {
        "hierarchy": [
          "tgn:7565421",
          "tgn:1000004",
          "tgn:7000198",
          "tgn:7016788",
          "tgn:7029392"
        ],
        "placetype": [
          "aat:300008347"
        ],
        "name:en": "Lāla Thal",
        "id": 7565421
      }
    },
    {
      "geometry": {
        "type": "Point",
        "coordinates": [
          71.636187,
          27.114147
        ]
      },
      "type": "Feature",
      "properties": {
        "hierarchy": [
          "tgn:7565422",
          "tgn:1000004",
          "tgn:7000198",
          "tgn:7016788",
          "tgn:7029392"
        ],
        "placetype": [
          "aat:300008347"
        ],
        "name:en": "Nautala",
        "id": 7565422
      }
    },
    {
      "geometry": {
        "type": "Point",
        "coordinates": [
          71.471201,
          27.091796
        ]
      },
      "type": "Feature",
      "properties": {
        "hierarchy": [
          "tgn:7565423",
          "tgn:1000004",
          "tgn:7000198",
          "tgn:7016788",
          "tgn:7029392"
        ],
        "placetype": [
          "aat:300008347"
        ],
        "name:en": "Arjaniār",
        "id": 7565423
      }
    },
    {
      "geometry": {
        "type": "Point",
        "coordinates": [
          71.506975,
          27.07542
        ]
      },
      "type": "Feature",
      "properties": {
        "hierarchy": [
          "tgn:7565424",
          "tgn:1000004",
          "tgn:7000198",
          "tgn:7016788",
          "tgn:7029392"
        ],
        "placetype": [
          "aat:300008347"
        ],
        "name:en": "Junūn Thalli",
        "id": 7565424
      }
    },
    {
      "geometry": {
        "type": "Point",
        "coordinates": [
          71.565761,
          27.032679
        ]
      },
      "type": "Feature",
      "properties": {
        "hierarchy": [
          "tgn:7565425",
          "tgn:1000004",
          "tgn:7000198",
          "tgn:7016788",
          "tgn:7029392"
        ],
        "placetype": [
          "aat:300008347"
        ],
        "name:en": "Dholia",
        "id": 7565425
      }
    },
    {
      "geometry": {
        "type": "Point",
        "coordinates": [
          71.451832,
          27.058791
        ]
      },
      "type": "Feature",
      "properties": {
        "hierarchy": [
          "tgn:7565426",
          "tgn:1000004",
          "tgn:7000198",
          "tgn:7016788",
          "tgn:7029392"
        ],
        "placetype": [
          "aat:300008347"
        ],
        "name:en": "Sukri Nadi",
        "id": 7565426
      }
    },
    {
      "geometry": {
        "type": "Point",
        "coordinates": [
          71.439383,
          27.167482
        ]
      },
      "type": "Feature",
      "properties": {
        "hierarchy": [
          "tgn:7565427",
          "tgn:1000004",
          "tgn:7000198",
          "tgn:7016788",
          "tgn:7029392"
        ],
        "placetype": [
          "aat:300008347"
        ],
        "name:en": "Manglionwāla Tala",
        "id": 7565427
      }
    },
    {
      "geometry": {
        "type": "Point",
        "coordinates": [
          71.49987,
          27.277702
        ]
      },
      "type": "Feature",
      "properties": {
        "hierarchy": [
          "tgn:7565428",
          "tgn:1000004",
          "tgn:7000198",
          "tgn:7016788",
          "tgn:7029392"
        ],
        "placetype": [
          "aat:300008347"
        ],
        "name:en": "Umed Singh ka Mathāra",
        "id": 7565428
      }
    },
    {
      "geometry": {
        "type": "Point",
        "coordinates": [
          71.391788,
          27.264941
        ]
      },
      "type": "Feature",
      "properties": {
        "hierarchy": [
          "tgn:7565429",
          "tgn:1000004",
          "tgn:7000198",
          "tgn:7016788",
          "tgn:7029392"
        ],
        "placetype": [
          "aat:300008347"
        ],
        "name:en": "Jiye ki Nādi",
        "id": 7565429
      }
    }
  ]
}
