{
  "type": "FeatureCollection",
  "features": [
    {
      "geometry": {
        "type": "Point",
        "coordinates": [
          79.518832,
          27.510525
        ]
      },
      "type": "Feature",
      "properties": {
        "hierarchy": [
          "tgn:7560680",
          "tgn:1000004",
          "tgn:7000198",
          "tgn:7016722",
          "tgn:7029392"
        ],
        "placetype": [
          "aat:300008347"
        ],
        "name:en": "Lokharpur",
        "id": 7560680
      }
    },
    {
      "geometry": {
        "type": "Point",
        "coordinates": [
          79.51052,
          27.514415
        ]
      },
      "type": "Feature",
      "properties": {
        "hierarchy": [
          "tgn:7560681",
          "tgn:1000004",
          "tgn:7000198",
          "tgn:7016722",
          "tgn:7029392"
        ],
        "placetype": [
          "aat:300008347"
        ],
        "name:en": "Kainchia",
        "id": 7560681
      }
    },
    {
      "geometry": {
        "type": "Point",
        "coordinates": [
          79.519286,
          27.515853
        ]
      },
      "type": "Feature",
      "properties": {
        "hierarchy": [
          "tgn:7560682",
          "tgn:1000004",
          "tgn:7000198",
          "tgn:7016722",
          "tgn:7029392"
        ],
        "placetype": [
          "aat:300008347"
        ],
        "name:en": "Azīzābād",
        "id": 7560682
      }
    },
    {
      "geometry": {
        "type": "Point",
        "coordinates": [
          79.511206,
          27.524427
        ]
      },
      "type": "Feature",
      "properties": {
        "hierarchy": [
          "tgn:7560683",
          "tgn:1000004",
          "tgn:7000198",
          "tgn:7016722",
          "tgn:7029392"
        ],
        "placetype": [
          "aat:300008347"
        ],
        "name:en": "Manglīpur",
        "id": 7560683
      }
    },
    {
      "geometry": {
        "type": "Point",
        "coordinates": [
          79.50938,
          27.552296
        ]
      },
      "type": "Feature",
      "properties": {
        "hierarchy": [
          "tgn:7560684",
          "tgn:1000004",
          "tgn:7000198",
          "tgn:7016722",
          "tgn:7029392"
        ],
        "placetype": [
          "aat:300387200"
        ],
        "name:en": "Kailhāi",
        "id": 7560684
      }
    },
    {
      "geometry": {
        "type": "Point",
        "coordinates": [
          79.51733,
          27.552949
        ]
      },
      "type": "Feature",
      "properties": {
        "hierarchy": [
          "tgn:7560685",
          "tgn:1000004",
          "tgn:7000198",
          "tgn:7016722",
          "tgn:7029392"
        ],
        "placetype": [
          "aat:300387200"
        ],
        "name:en": "Jatpura",
        "id": 7560685
      }
    },
    {
      "geometry": {
        "type": "Point",
        "coordinates": [
          79.534846,
          27.554036
        ]
      },
      "type": "Feature",
      "properties": {
        "hierarchy": [
          "tgn:7560686",
          "tgn:1000004",
          "tgn:7000198",
          "tgn:7016722",
          "tgn:7029392"
        ],
        "placetype": [
          "aat:300008347"
        ],
        "name:en": "Kālika Nagla",
        "id": 7560686
      }
    },
    {
      "geometry": {
        "type": "Point",
        "coordinates": [
          79.526261,
          27.550393
        ]
      },
      "type": "Feature",
      "properties": {
        "hierarchy": [
          "tgn:7560687",
          "tgn:1000004",
          "tgn:7000198",
          "tgn:7016722",
          "tgn:7029392"
        ],
        "placetype": [
          "aat:300008347"
        ],
        "name:en": "Phulha",
        "id": 7560687
      }
    },
    {
      "geometry": {
        "type": "Point",
        "coordinates": [
          79.534718,
          27.548392
        ]
      },
      "type": "Feature",
      "properties": {
        "hierarchy": [
          "tgn:7560688",
          "tgn:1000004",
          "tgn:7000198",
          "tgn:7016722",
          "tgn:7029392"
        ],
        "placetype": [
          "aat:300008347"
        ],
        "name:en": "Mākhan Nagla",
        "id": 7560688
      }
    },
    {
      "geometry": {
        "type": "Point",
        "coordinates": [
          79.528677,
          27.547545
        ]
      },
      "type": "Feature",
      "properties": {
        "hierarchy": [
          "tgn:7560689",
          "tgn:1000004",
          "tgn:7000198",
          "tgn:7016722",
          "tgn:7029392"
        ],
        "placetype": [
          "aat:300008347"
        ],
        "name:en": "Nagaria",
        "id": 7560689
      }
    }
  ]
}
