{
  "type": "FeatureCollection",
  "features": [
    {
      "geometry": {
        "type": "Point",
        "coordinates": [
          80.541805,
          25.097642
        ]
      },
      "type": "Feature",
      "properties": {
        "hierarchy": [
          "tgn:7588630",
          "tgn:1000004",
          "tgn:7000198",
          "tgn:1001894",
          "tgn:7029392"
        ],
        "placetype": [
          "aat:300008347"
        ],
        "name:en": "Sarha",
        "id": 7588630
      }
    },
    {
      "geometry": {
        "type": "Point",
        "coordinates": [
          80.456921,
          25.516079
        ]
      },
      "type": "Feature",
      "properties": {
        "hierarchy": [
          "tgn:7588631",
          "tgn:1000004",
          "tgn:7000198",
          "tgn:1001894",
          "tgn:7029392"
        ],
        "placetype": [
          "aat:300008347"
        ],
        "name:en": "J훮ri",
        "id": 7588631
      }
    },
    {
      "geometry": {
        "type": "Point",
        "coordinates": [
          80.48534,
          25.567309
        ]
      },
      "type": "Feature",
      "properties": {
        "hierarchy": [
          "tgn:7588632",
          "tgn:1000004",
          "tgn:7000198",
          "tgn:1001894",
          "tgn:7029392"
        ],
        "placetype": [
          "aat:300008347"
        ],
        "name:en": "Semni W훮silpur",
        "id": 7588632
      }
    },
    {
      "geometry": {
        "type": "Point",
        "coordinates": [
          80.247889,
          25.828692
        ]
      },
      "type": "Feature",
      "properties": {
        "hierarchy": [
          "tgn:7588633",
          "tgn:1000004",
          "tgn:7000198",
          "tgn:1001894",
          "tgn:7029392"
        ],
        "placetype": [
          "aat:300008347"
        ],
        "name:en": "Terha",
        "id": 7588633
      }
    },
    {
      "geometry": {
        "type": "Point",
        "coordinates": [
          80.59827,
          25.968546
        ]
      },
      "type": "Feature",
      "properties": {
        "hierarchy": [
          "tgn:7588634",
          "tgn:1000004",
          "tgn:7000198",
          "tgn:1001894",
          "tgn:7029392"
        ],
        "placetype": [
          "aat:300008347"
        ],
        "name:en": "Junih훮n",
        "id": 7588634
      }
    },
    {
      "geometry": {
        "type": "Point",
        "coordinates": [
          74.023083,
          33.693641
        ]
      },
      "type": "Feature",
      "properties": {
        "hierarchy": [
          "tgn:7588635",
          "tgn:1000004",
          "tgn:7000198",
          "tgn:7000799",
          "tgn:7029392"
        ],
        "placetype": [
          "aat:300008347"
        ],
        "name:en": "Nambal",
        "id": 7588635
      }
    },
    {
      "geometry": {
        "type": "Point",
        "coordinates": [
          74.027717,
          33.704211
        ]
      },
      "type": "Feature",
      "properties": {
        "hierarchy": [
          "tgn:7588636",
          "tgn:1000004",
          "tgn:7000198",
          "tgn:7000799",
          "tgn:7029392"
        ],
        "placetype": [
          "aat:300008777"
        ],
        "name:en": "Tor Devta",
        "id": 7588636
      }
    },
    {
      "geometry": {
        "type": "Point",
        "coordinates": [
          74.058865,
          33.715781
        ]
      },
      "type": "Feature",
      "properties": {
        "hierarchy": [
          "tgn:7588637",
          "tgn:1000004",
          "tgn:7000198",
          "tgn:7000799",
          "tgn:7029392"
        ],
        "placetype": [
          "aat:300008347"
        ],
        "name:en": "Sharati",
        "id": 7588637
      }
    },
    {
      "geometry": {
        "type": "Point",
        "coordinates": [
          74.016037,
          33.722202
        ]
      },
      "type": "Feature",
      "properties": {
        "hierarchy": [
          "tgn:7588638",
          "tgn:1000004",
          "tgn:7000198",
          "tgn:7000799",
          "tgn:7029392"
        ],
        "placetype": [
          "aat:300008347"
        ],
        "name:en": "Salotri",
        "id": 7588638
      }
    },
    {
      "geometry": {
        "type": "Point",
        "coordinates": [
          74.039064,
          33.72578
        ]
      },
      "type": "Feature",
      "properties": {
        "hierarchy": [
          "tgn:7588639",
          "tgn:1000004",
          "tgn:7000198",
          "tgn:7000799",
          "tgn:7029392"
        ],
        "placetype": [
          "aat:300008347"
        ],
        "name:en": "Jhal훮s",
        "id": 7588639
      }
    }
  ]
}
