{
  "type": "FeatureCollection",
  "features": [
    {
      "geometry": {
        "type": "Point",
        "coordinates": [
          76.815905,
          30.511899
        ]
      },
      "type": "Feature",
      "properties": {
        "hierarchy": [
          "tgn:7582100",
          "tgn:1000004",
          "tgn:7000198",
          "tgn:7016883",
          "tgn:7029392"
        ],
        "placetype": [
          "aat:300008347"
        ],
        "name:en": "Chaundheri",
        "id": 7582100
      }
    },
    {
      "geometry": {
        "type": "Point",
        "coordinates": [
          76.753311,
          30.590608
        ]
      },
      "type": "Feature",
      "properties": {
        "hierarchy": [
          "tgn:7582101",
          "tgn:1000004",
          "tgn:7000198",
          "tgn:7016883",
          "tgn:7029392"
        ],
        "placetype": [
          "aat:300008347"
        ],
        "name:en": "Azīzpur",
        "id": 7582101
      }
    },
    {
      "geometry": {
        "type": "Point",
        "coordinates": [
          76.756286,
          30.58413
        ]
      },
      "type": "Feature",
      "properties": {
        "hierarchy": [
          "tgn:7582102",
          "tgn:1000004",
          "tgn:7000198",
          "tgn:7016883",
          "tgn:7029392"
        ],
        "placetype": [
          "aat:300008347"
        ],
        "name:en": "Khizrpur",
        "id": 7582102
      }
    },
    {
      "geometry": {
        "type": "Point",
        "coordinates": [
          76.785183,
          30.556757
        ]
      },
      "type": "Feature",
      "properties": {
        "hierarchy": [
          "tgn:7582103",
          "tgn:1000004",
          "tgn:7000198",
          "tgn:7016883",
          "tgn:7029392"
        ],
        "placetype": [
          "aat:300008347"
        ],
        "name:en": "Amblāla",
        "id": 7582103
      }
    },
    {
      "geometry": {
        "type": "Point",
        "coordinates": [
          76.761577,
          30.562672
        ]
      },
      "type": "Feature",
      "properties": {
        "hierarchy": [
          "tgn:7582104",
          "tgn:1000004",
          "tgn:7000198",
          "tgn:7016883",
          "tgn:7029392"
        ],
        "placetype": [
          "aat:300008347"
        ],
        "name:en": "Karāli",
        "id": 7582104
      }
    },
    {
      "geometry": {
        "type": "Point",
        "coordinates": [
          76.754188,
          30.554427
        ]
      },
      "type": "Feature",
      "properties": {
        "hierarchy": [
          "tgn:7582105",
          "tgn:1000004",
          "tgn:7000198",
          "tgn:7016883",
          "tgn:7029392"
        ],
        "placetype": [
          "aat:300008347"
        ],
        "name:en": "Rāja Mazra",
        "id": 7582105
      }
    },
    {
      "geometry": {
        "type": "Point",
        "coordinates": [
          76.774673,
          30.547495
        ]
      },
      "type": "Feature",
      "properties": {
        "hierarchy": [
          "tgn:7582106",
          "tgn:1000004",
          "tgn:7000198",
          "tgn:7016883",
          "tgn:7029392"
        ],
        "placetype": [
          "aat:300008347"
        ],
        "name:en": "Chadiāla",
        "id": 7582106
      }
    },
    {
      "geometry": {
        "type": "Point",
        "coordinates": [
          78.750747,
          24.188589
        ]
      },
      "type": "Feature",
      "properties": {
        "hierarchy": [
          "tgn:7582107",
          "tgn:1000004",
          "tgn:7000198",
          "tgn:1001894",
          "tgn:7029392"
        ],
        "placetype": [
          "aat:300008347"
        ],
        "name:en": "Tālpur",
        "id": 7582107
      }
    },
    {
      "geometry": {
        "type": "Point",
        "coordinates": [
          78.749804,
          24.185747
        ]
      },
      "type": "Feature",
      "properties": {
        "hierarchy": [
          "tgn:7582108",
          "tgn:1000004",
          "tgn:7000198",
          "tgn:1001894",
          "tgn:7029392"
        ],
        "placetype": [
          "aat:300008347"
        ],
        "name:en": "Lachhīpura",
        "id": 7582108
      }
    },
    {
      "geometry": {
        "type": "Point",
        "coordinates": [
          78.74914,
          24.181403
        ]
      },
      "type": "Feature",
      "properties": {
        "hierarchy": [
          "tgn:7582109",
          "tgn:1000004",
          "tgn:7000198",
          "tgn:1001894",
          "tgn:7029392"
        ],
        "placetype": [
          "aat:300008057"
        ],
        "name:en": "Jafarpura",
        "id": 7582109
      }
    }
  ]
}
