{
  "type": "FeatureCollection",
  "features": [
    {
      "geometry": {
        "type": "Point",
        "coordinates": [
          31.433333,
          26.816667
        ]
      },
      "type": "Feature",
      "properties": {
        "hierarchy": [
          "tgn:7520500",
          "tgn:7001242",
          "tgn:7016833",
          "tgn:7000124",
          "tgn:7029392"
        ],
        "placetype": [
          "aat:300008347"
        ],
        "name:en": "Al Jarīdāt",
        "id": 7520500
      }
    },
    {
      "geometry": {
        "type": "Point",
        "coordinates": [
          32.883333,
          25.199167
        ]
      },
      "type": "Feature",
      "properties": {
        "hierarchy": [
          "tgn:7520501",
          "tgn:7001242",
          "tgn:7016833",
          "tgn:7001334",
          "tgn:7029392"
        ],
        "placetype": [
          "aat:300006207"
        ],
        "name:en": "Al Qaryāt",
        "id": 7520501
      }
    },
    {
      "geometry": {
        "type": "Point",
        "coordinates": [
          27.394562,
          31.239501
        ]
      },
      "type": "Feature",
      "properties": {
        "hierarchy": [
          "tgn:7520502",
          "tgn:7001242",
          "tgn:7016833",
          "tgn:1001418",
          "tgn:7029392"
        ],
        "placetype": [
          "aat:300007783"
        ],
        "name:en": "Maḩaţţat al Jarāwilah",
        "id": 7520502
      }
    },
    {
      "geometry": {
        "type": "Point",
        "coordinates": [
          33.930278,
          31.173611
        ]
      },
      "type": "Feature",
      "properties": {
        "hierarchy": [
          "tgn:7520503",
          "tgn:7001242",
          "tgn:7016833",
          "tgn:7001335",
          "tgn:7029392"
        ],
        "placetype": [
          "aat:300008777"
        ],
        "name:en": "El-Gerâdi",
        "id": 7520503
      }
    },
    {
      "geometry": {
        "type": "Point",
        "coordinates": [
          30.313977,
          31.075216
        ]
      },
      "type": "Feature",
      "properties": {
        "hierarchy": [
          "tgn:7520504",
          "tgn:7001242",
          "tgn:1001075",
          "tgn:7016833",
          "tgn:7029392"
        ],
        "placetype": [
          "aat:300008347"
        ],
        "name:en": "Al Jarādāt",
        "id": 7520504
      }
    },
    {
      "geometry": {
        "type": "Point",
        "coordinates": [
          30.846804,
          28.541726
        ]
      },
      "type": "Feature",
      "properties": {
        "hierarchy": [
          "tgn:7520505",
          "tgn:7001242",
          "tgn:7001311",
          "tgn:7016833",
          "tgn:7029392"
        ],
        "placetype": [
          "aat:300008347"
        ],
        "name:en": "Al Jarābī'",
        "id": 7520505
      }
    },
    {
      "geometry": {
        "type": "Point",
        "coordinates": [
          32.549101,
          30.069778
        ]
      },
      "type": "Feature",
      "properties": {
        "hierarchy": [
          "tgn:7520506",
          "tgn:7001242",
          "tgn:7016833",
          "tgn:1001110",
          "tgn:7029392"
        ],
        "placetype": [
          "aat:300007783"
        ],
        "name:en": "Al Janā'in",
        "id": 7520506
      }
    },
    {
      "geometry": {
        "type": "Point",
        "coordinates": [
          31.083333,
          29.066667
        ]
      },
      "type": "Feature",
      "properties": {
        "hierarchy": [
          "tgn:7520507",
          "tgn:7001242",
          "tgn:7016833",
          "tgn:1001142",
          "tgn:7029392"
        ],
        "placetype": [
          "aat:300008347"
        ],
        "name:en": "Al Janādilah",
        "id": 7520507
      }
    },
    {
      "geometry": {
        "type": "Point",
        "coordinates": [
          32.666667,
          24.933333
        ]
      },
      "type": "Feature",
      "properties": {
        "hierarchy": [
          "tgn:7520508",
          "tgn:7001242",
          "tgn:7016833",
          "tgn:7001334",
          "tgn:7029392"
        ],
        "placetype": [
          "aat:300055621"
        ],
        "name:en": "Al Jāmūs",
        "id": 7520508
      }
    },
    {
      "geometry": {
        "type": "Point",
        "coordinates": [
          30.780621,
          28.822971
        ]
      },
      "type": "Feature",
      "properties": {
        "hierarchy": [
          "tgn:7520509",
          "tgn:7001242",
          "tgn:7016833",
          "tgn:1001142",
          "tgn:7029392"
        ],
        "placetype": [
          "aat:300008347"
        ],
        "name:en": "Al Jamhūd",
        "id": 7520509
      }
    }
  ]
}
