{
  "type": "FeatureCollection",
  "features": [
    {
      "geometry": {
        "type": "Point",
        "coordinates": [
          75.723843,
          25.906513
        ]
      },
      "type": "Feature",
      "properties": {
        "hierarchy": [
          "tgn:7570180",
          "tgn:1000004",
          "tgn:7000198",
          "tgn:7016788",
          "tgn:7029392"
        ],
        "placetype": [
          "aat:300008347"
        ],
        "name:en": "Indoda",
        "id": 7570180
      }
    },
    {
      "geometry": {
        "type": "Point",
        "coordinates": [
          75.689494,
          25.909187
        ]
      },
      "type": "Feature",
      "properties": {
        "hierarchy": [
          "tgn:7570181",
          "tgn:1000004",
          "tgn:7000198",
          "tgn:7016788",
          "tgn:7029392"
        ],
        "placetype": [
          "aat:300008347"
        ],
        "name:en": "Dhuān Chhoti",
        "id": 7570181
      }
    },
    {
      "geometry": {
        "type": "Point",
        "coordinates": [
          75.599631,
          25.833617
        ]
      },
      "type": "Feature",
      "properties": {
        "hierarchy": [
          "tgn:7570182",
          "tgn:1000004",
          "tgn:7000198",
          "tgn:7016788",
          "tgn:7029392"
        ],
        "placetype": [
          "aat:300008347"
        ],
        "name:en": "Gothra",
        "id": 7570182
      }
    },
    {
      "geometry": {
        "type": "Point",
        "coordinates": [
          75.59505,
          25.836544
        ]
      },
      "type": "Feature",
      "properties": {
        "hierarchy": [
          "tgn:7570183",
          "tgn:1000004",
          "tgn:7000198",
          "tgn:7016788",
          "tgn:7029392"
        ],
        "placetype": [
          "aat:300008347"
        ],
        "name:en": "Bhīlwashya",
        "id": 7570183
      }
    },
    {
      "geometry": {
        "type": "Point",
        "coordinates": [
          75.608457,
          25.843849
        ]
      },
      "type": "Feature",
      "properties": {
        "hierarchy": [
          "tgn:7570184",
          "tgn:1000004",
          "tgn:7000198",
          "tgn:7016788",
          "tgn:7029392"
        ],
        "placetype": [
          "aat:300008347"
        ],
        "name:en": "Hanumānpura",
        "id": 7570184
      }
    },
    {
      "geometry": {
        "type": "Point",
        "coordinates": [
          75.66738,
          25.8419
        ]
      },
      "type": "Feature",
      "properties": {
        "hierarchy": [
          "tgn:7570185",
          "tgn:1000004",
          "tgn:7000198",
          "tgn:7016788",
          "tgn:7029392"
        ],
        "placetype": [
          "aat:300008347"
        ],
        "name:en": "Kharoi",
        "id": 7570185
      }
    },
    {
      "geometry": {
        "type": "Point",
        "coordinates": [
          75.65338,
          25.846315
        ]
      },
      "type": "Feature",
      "properties": {
        "hierarchy": [
          "tgn:7570186",
          "tgn:1000004",
          "tgn:7000198",
          "tgn:7016788",
          "tgn:7029392"
        ],
        "placetype": [
          "aat:300008347"
        ],
        "name:en": "Jyotipura",
        "id": 7570186
      }
    },
    {
      "geometry": {
        "type": "Point",
        "coordinates": [
          75.630881,
          25.856816
        ]
      },
      "type": "Feature",
      "properties": {
        "hierarchy": [
          "tgn:7570187",
          "tgn:1000004",
          "tgn:7000198",
          "tgn:7016788",
          "tgn:7029392"
        ],
        "placetype": [
          "aat:300008347"
        ],
        "name:en": "Chānpura",
        "id": 7570187
      }
    },
    {
      "geometry": {
        "type": "Point",
        "coordinates": [
          75.590801,
          25.867714
        ]
      },
      "type": "Feature",
      "properties": {
        "hierarchy": [
          "tgn:7570188",
          "tgn:1000004",
          "tgn:7000198",
          "tgn:7016788",
          "tgn:7029392"
        ],
        "placetype": [
          "aat:300008347"
        ],
        "name:en": "Durgāpura",
        "id": 7570188
      }
    },
    {
      "geometry": {
        "type": "Point",
        "coordinates": [
          75.664399,
          25.868099
        ]
      },
      "type": "Feature",
      "properties": {
        "hierarchy": [
          "tgn:7570189",
          "tgn:1000004",
          "tgn:7000198",
          "tgn:7016788",
          "tgn:7029392"
        ],
        "placetype": [
          "aat:300008347"
        ],
        "name:en": "Dātunda",
        "id": 7570189
      }
    }
  ]
}
