{
  "type": "FeatureCollection",
  "features": [
    {
      "geometry": {
        "type": "Point",
        "coordinates": [
          121.466614,
          23.349808
        ]
      },
      "type": "Feature",
      "properties": {
        "hierarchy": [
          "tgn:7488380",
          "tgn:1000004",
          "tgn:7491221",
          "tgn:1000141",
          "tgn:7029392"
        ],
        "placetype": [
          "aat:300007836"
        ],
        "id": 7488380,
        "name:xx": "Nansanjianwu Qiao"
      }
    },
    {
      "geometry": {
        "type": "Point",
        "coordinates": [
          121.614042,
          24.096824
        ]
      },
      "type": "Feature",
      "properties": {
        "hierarchy": [
          "tgn:7488381",
          "tgn:7001010",
          "tgn:1000004",
          "tgn:1000141",
          "tgn:7029392"
        ],
        "placetype": [
          "aat:300008347"
        ],
        "id": 7488381,
        "name:xx": "Nansanzhan"
      }
    },
    {
      "geometry": {
        "type": "Point",
        "coordinates": [
          120.283333,
          23.116667
        ]
      },
      "type": "Feature",
      "properties": {
        "hierarchy": [
          "tgn:7488382",
          "tgn:1000004",
          "tgn:7490934",
          "tgn:1000141",
          "tgn:7029392"
        ],
        "placetype": [
          "aat:300008217"
        ],
        "id": 7488382,
        "name:xx": "Nanbuhengguan Gonglu"
      }
    },
    {
      "geometry": {
        "type": "Point",
        "coordinates": [
          121.360507,
          25.075669
        ]
      },
      "type": "Feature",
      "properties": {
        "hierarchy": [
          "tgn:7488383",
          "tgn:1000004",
          "tgn:1000454",
          "tgn:1000141",
          "tgn:7029392"
        ],
        "placetype": [
          "aat:300008347"
        ],
        "id": 7488383,
        "name:xx": "Nanshibu"
      }
    },
    {
      "geometry": {
        "type": "Point",
        "coordinates": [
          121.041944,
          24.696389
        ]
      },
      "type": "Feature",
      "properties": {
        "hierarchy": [
          "tgn:7488384",
          "tgn:1000004",
          "tgn:7471332",
          "tgn:1000141",
          "tgn:7029392"
        ],
        "placetype": [
          "aat:300008347"
        ],
        "id": 7488384,
        "name:xx": "Nanbu"
      }
    },
    {
      "geometry": {
        "type": "Point",
        "coordinates": [
          120.568056,
          24.340556
        ]
      },
      "type": "Feature",
      "properties": {
        "hierarchy": [
          "tgn:7488385",
          "tgn:1000004",
          "tgn:7001009",
          "tgn:1000141",
          "tgn:7029392"
        ],
        "placetype": [
          "aat:300008347"
        ],
        "id": 7488385,
        "name:xx": "Nanbu"
      }
    },
    {
      "geometry": {
        "type": "Point",
        "coordinates": [
          120.7209,
          23.9806
        ]
      },
      "type": "Feature",
      "properties": {
        "hierarchy": [
          "tgn:7488386",
          "tgn:7488858",
          "tgn:1000004",
          "tgn:1000141",
          "tgn:7029392"
        ],
        "placetype": [
          "aat:300008347"
        ],
        "id": 7488386,
        "name:xx": "Nanbu"
      }
    },
    {
      "geometry": {
        "type": "Point",
        "coordinates": [
          120.306178,
          23.213182
        ]
      },
      "type": "Feature",
      "properties": {
        "hierarchy": [
          "tgn:7488388",
          "tgn:1000004",
          "tgn:7490934",
          "tgn:1000141",
          "tgn:7029392"
        ],
        "placetype": [
          "aat:300008347"
        ],
        "id": 7488388,
        "name:xx": "Nanpou"
      }
    },
    {
      "geometry": {
        "type": "Point",
        "coordinates": [
          121.462036,
          23.778902
        ]
      },
      "type": "Feature",
      "properties": {
        "hierarchy": [
          "tgn:7488389",
          "tgn:7001010",
          "tgn:1000004",
          "tgn:1000141",
          "tgn:7029392"
        ],
        "placetype": [
          "aat:300387173"
        ],
        "id": 7488389,
        "name:xx": "Nanping Li"
      }
    }
  ]
}
