{
  "type": "FeatureCollection",
  "features": [
    {
      "geometry": {
        "type": "Point",
        "coordinates": [
          34.678203,
          29.602591
        ]
      },
      "type": "Feature",
      "properties": {
        "hierarchy": [
          "tgn:7537160",
          "tgn:7001242",
          "tgn:7016833",
          "tgn:7001336",
          "tgn:7029392"
        ],
        "placetype": [
          "aat:300379998"
        ],
        "name:en": "Sha'īrat Umm 'Arqūb, Wādī",
        "id": 7537160
      }
    },
    {
      "geometry": {
        "type": "Point",
        "coordinates": [
          34.684952,
          29.631986
        ]
      },
      "type": "Feature",
      "properties": {
        "hierarchy": [
          "tgn:7537161",
          "tgn:7001242",
          "tgn:7016833",
          "tgn:7001336",
          "tgn:7029392"
        ],
        "placetype": [
          "aat:300379998"
        ],
        "name:en": "Sha'īrat Maḑhān, Wādī",
        "id": 7537161
      }
    },
    {
      "geometry": {
        "type": "Point",
        "coordinates": [
          34.497437,
          29.460312
        ]
      },
      "type": "Feature",
      "properties": {
        "hierarchy": [
          "tgn:7537163",
          "tgn:7001242",
          "tgn:7016833",
          "tgn:7001336",
          "tgn:7029392"
        ],
        "placetype": [
          "aat:300379998"
        ],
        "name:en": "Sha'īrah, Wādī ash",
        "id": 7537163
      }
    },
    {
      "geometry": {
        "type": "Point",
        "coordinates": [
          32.716667,
          30.216667
        ]
      },
      "type": "Feature",
      "properties": {
        "hierarchy": [
          "tgn:7537164",
          "tgn:7001242",
          "tgn:7016833",
          "tgn:1001110",
          "tgn:7029392"
        ],
        "placetype": [
          "aat:300008795"
        ],
        "name:en": "Shaifa, Gebel",
        "id": 7537164
      }
    },
    {
      "geometry": {
        "type": "Point",
        "coordinates": [
          26.807545,
          30.955465
        ]
      },
      "type": "Feature",
      "properties": {
        "hierarchy": [
          "tgn:7537166",
          "tgn:7001242",
          "tgn:7016833",
          "tgn:1001418",
          "tgn:7029392"
        ],
        "placetype": [
          "aat:300008777"
        ],
        "name:en": "Sha'îb, Qâret",
        "id": 7537166
      }
    },
    {
      "geometry": {
        "type": "Point",
        "coordinates": [
          26.436922,
          30.768212
        ]
      },
      "type": "Feature",
      "properties": {
        "hierarchy": [
          "tgn:7537167",
          "tgn:7001242",
          "tgn:7016833",
          "tgn:1001418",
          "tgn:7029392"
        ],
        "placetype": [
          "aat:300005926"
        ],
        "name:en": "Qabr ash Shā'ib",
        "id": 7537167
      }
    },
    {
      "geometry": {
        "type": "Point",
        "coordinates": [
          31.183333,
          31.547778
        ]
      },
      "type": "Feature",
      "properties": {
        "hierarchy": [
          "tgn:7537168",
          "tgn:7001242",
          "tgn:7016833",
          "tgn:1001335",
          "tgn:7029392"
        ],
        "placetype": [
          "aat:300008903"
        ],
        "name:en": "Shā'ib, Naq'at ash",
        "id": 7537168
      }
    },
    {
      "geometry": {
        "type": "Point",
        "coordinates": [
          34.368884,
          28.373518
        ]
      },
      "type": "Feature",
      "properties": {
        "hierarchy": [
          "tgn:7537169",
          "tgn:7001242",
          "tgn:7016833",
          "tgn:1001418",
          "tgn:7029392"
        ],
        "placetype": [
          "aat:300259572"
        ],
        "name:en": "Shahīrah, Mamarr",
        "id": 7537169
      }
    }
  ]
}
