{
  "type": "FeatureCollection",
  "features": [
    {
      "geometry": {
        "type": "Point",
        "coordinates": [
          78.874471,
          24.569751
        ]
      },
      "type": "Feature",
      "properties": {
        "hierarchy": [
          "tgn:7585360",
          "tgn:1000004",
          "tgn:7000198",
          "tgn:7016722",
          "tgn:7029392"
        ],
        "placetype": [
          "aat:300387200"
        ],
        "name:en": "Atkana",
        "id": 7585360
      }
    },
    {
      "geometry": {
        "type": "Point",
        "coordinates": [
          78.890184,
          24.575042
        ]
      },
      "type": "Feature",
      "properties": {
        "hierarchy": [
          "tgn:7585361",
          "tgn:1000004",
          "tgn:7000198",
          "tgn:7016722",
          "tgn:7029392"
        ],
        "placetype": [
          "aat:300387200"
        ],
        "name:en": "Kanpura",
        "id": 7585361
      }
    },
    {
      "geometry": {
        "type": "Point",
        "coordinates": [
          78.999212,
          24.714353
        ]
      },
      "type": "Feature",
      "properties": {
        "hierarchy": [
          "tgn:7585362",
          "tgn:1000004",
          "tgn:7000198",
          "tgn:1001894",
          "tgn:7029392"
        ],
        "placetype": [
          "aat:300008865"
        ],
        "name:en": "Sukora Reserved Forest",
        "id": 7585362
      }
    },
    {
      "geometry": {
        "type": "Point",
        "coordinates": [
          78.920699,
          24.5695
        ]
      },
      "type": "Feature",
      "properties": {
        "hierarchy": [
          "tgn:7585363",
          "tgn:1000004",
          "tgn:7000198",
          "tgn:1001894",
          "tgn:7029392"
        ],
        "placetype": [
          "aat:300008865"
        ],
        "name:en": "Sarkora Reserved Forest",
        "id": 7585363
      }
    },
    {
      "geometry": {
        "type": "Point",
        "coordinates": [
          78.938466,
          24.555923
        ]
      },
      "type": "Feature",
      "properties": {
        "hierarchy": [
          "tgn:7585364",
          "tgn:1000004",
          "tgn:7000198",
          "tgn:7016722",
          "tgn:7029392"
        ],
        "placetype": [
          "aat:300008347"
        ],
        "name:en": "Nāwai",
        "id": 7585364
      }
    },
    {
      "geometry": {
        "type": "Point",
        "coordinates": [
          78.953001,
          24.546588
        ]
      },
      "type": "Feature",
      "properties": {
        "hierarchy": [
          "tgn:7585365",
          "tgn:1000004",
          "tgn:7000198",
          "tgn:1001894",
          "tgn:7029392"
        ],
        "placetype": [
          "aat:300008699"
        ],
        "name:en": "Paneyān Nāla",
        "id": 7585365
      }
    },
    {
      "geometry": {
        "type": "Point",
        "coordinates": [
          78.940278,
          24.562513
        ]
      },
      "type": "Feature",
      "properties": {
        "hierarchy": [
          "tgn:7585366",
          "tgn:1000004",
          "tgn:7000198",
          "tgn:1001894",
          "tgn:7029392"
        ],
        "placetype": [
          "aat:300008347"
        ],
        "name:en": "Kabrāta",
        "id": 7585366
      }
    },
    {
      "geometry": {
        "type": "Point",
        "coordinates": [
          78.9388,
          24.5794
        ]
      },
      "type": "Feature",
      "properties": {
        "hierarchy": [
          "tgn:7585367",
          "tgn:1000004",
          "tgn:7000198",
          "tgn:1001894",
          "tgn:7029392"
        ],
        "placetype": [
          "aat:300008865"
        ],
        "name:en": "Sāpon Dūnra Reserved Forest",
        "id": 7585367
      }
    },
    {
      "geometry": {
        "type": "Point",
        "coordinates": [
          78.970552,
          24.562013
        ]
      },
      "type": "Feature",
      "properties": {
        "hierarchy": [
          "tgn:7585368",
          "tgn:1000004",
          "tgn:7000198",
          "tgn:1001894",
          "tgn:7029392"
        ],
        "placetype": [
          "aat:300008347"
        ],
        "name:en": "Dūnra",
        "id": 7585368
      }
    },
    {
      "geometry": {
        "type": "Point",
        "coordinates": [
          78.972866,
          24.56543
        ]
      },
      "type": "Feature",
      "properties": {
        "hierarchy": [
          "tgn:7585369",
          "tgn:1000004",
          "tgn:7000198",
          "tgn:1001894",
          "tgn:7029392"
        ],
        "placetype": [
          "aat:300008865"
        ],
        "name:en": "Antaura Protected Forest",
        "id": 7585369
      }
    }
  ]
}
