{
  "type": "FeatureCollection",
  "features": [
    {
      "geometry": {
        "type": "Point",
        "coordinates": [
          120.616667,
          22.466667
        ]
      },
      "type": "Feature",
      "properties": {
        "hierarchy": [
          "tgn:7468980",
          "tgn:1000004",
          "tgn:7492971",
          "tgn:1000141",
          "tgn:7029392"
        ],
        "placetype": [
          "aat:300008777"
        ],
        "id": 7468980,
        "name:xx": "Xiangtan"
      }
    },
    {
      "geometry": {
        "type": "Point",
        "coordinates": [
          120.891156,
          24.711561
        ]
      },
      "type": "Feature",
      "properties": {
        "hierarchy": [
          "tgn:7468981",
          "tgn:7487020",
          "tgn:1000004",
          "tgn:1000141",
          "tgn:7029392"
        ],
        "placetype": [
          "aat:300008347"
        ],
        "id": 7468981,
        "name:xx": "Xiangsilin"
      }
    },
    {
      "geometry": {
        "type": "Point",
        "coordinates": [
          120.4266,
          23.910507
        ]
      },
      "type": "Feature",
      "properties": {
        "hierarchy": [
          "tgn:7468982",
          "tgn:1000004",
          "tgn:7467799",
          "tgn:1000141",
          "tgn:7029392"
        ],
        "placetype": [
          "aat:300007836"
        ],
        "id": 7468982,
        "name:xx": "Dongshi Qiao"
      }
    },
    {
      "geometry": {
        "type": "Point",
        "coordinates": [
          121.25,
          24.683333
        ]
      },
      "type": "Feature",
      "properties": {
        "hierarchy": [
          "tgn:7468983",
          "tgn:1000004",
          "tgn:7471332",
          "tgn:1000141",
          "tgn:7029392"
        ],
        "placetype": [
          "aat:300008347"
        ],
        "id": 7468983,
        "name:xx": "Jinping"
      }
    },
    {
      "geometry": {
        "type": "Point",
        "coordinates": [
          120.933333,
          24.783333
        ]
      },
      "type": "Feature",
      "properties": {
        "hierarchy": [
          "tgn:7468984",
          "tgn:1000004",
          "tgn:7001002",
          "tgn:1000141",
          "tgn:7029392"
        ],
        "placetype": [
          "aat:300387173"
        ],
        "id": 7468984,
        "name:xx": "Xiangshan Qu"
      }
    },
    {
      "geometry": {
        "type": "Point",
        "coordinates": [
          120.940278,
          24.799444
        ]
      },
      "type": "Feature",
      "properties": {
        "hierarchy": [
          "tgn:7468985",
          "tgn:1000004",
          "tgn:7001002",
          "tgn:1000141",
          "tgn:7029392"
        ],
        "placetype": [
          "aat:300008347"
        ],
        "id": 7468985,
        "name:xx": "Xiangshan"
      }
    },
    {
      "geometry": {
        "type": "Point",
        "coordinates": [
          120.590206,
          24.081716
        ]
      },
      "type": "Feature",
      "properties": {
        "hierarchy": [
          "tgn:7468986",
          "tgn:1000004",
          "tgn:7467799",
          "tgn:1000141",
          "tgn:7029392"
        ],
        "placetype": [
          "aat:300008347"
        ],
        "id": 7468986,
        "name:xx": "Xiangshanzhuang"
      }
    },
    {
      "geometry": {
        "type": "Point",
        "coordinates": [
          120.923701,
          23.988207
        ]
      },
      "type": "Feature",
      "properties": {
        "hierarchy": [
          "tgn:7468987",
          "tgn:7488858",
          "tgn:1000004",
          "tgn:1000141",
          "tgn:7029392"
        ],
        "placetype": [
          "aat:300008347"
        ],
        "id": 7468987,
        "name:xx": "Shuiwei"
      }
    },
    {
      "geometry": {
        "type": "Point",
        "coordinates": [
          120.902414,
          23.848573
        ]
      },
      "type": "Feature",
      "properties": {
        "hierarchy": [
          "tgn:7468988",
          "tgn:7488858",
          "tgn:1000004",
          "tgn:1000141",
          "tgn:7029392"
        ],
        "placetype": [
          "aat:300008347"
        ],
        "id": 7468988,
        "name:xx": "Xiangshan"
      }
    },
    {
      "geometry": {
        "type": "Point",
        "coordinates": [
          120.604221,
          23.840665
        ]
      },
      "type": "Feature",
      "properties": {
        "hierarchy": [
          "tgn:7468989",
          "tgn:1000004",
          "tgn:7467799",
          "tgn:1000141",
          "tgn:7029392"
        ],
        "placetype": [
          "aat:300008347"
        ],
        "id": 7468989,
        "name:xx": "Xiangshan"
      }
    }
  ]
}
