{
  "type": "FeatureCollection",
  "features": [
    {
      "geometry": {
        "type": "Point",
        "coordinates": [
          79.247267,
          24.222771
        ]
      },
      "type": "Feature",
      "properties": {
        "hierarchy": [
          "tgn:7566800",
          "tgn:1000004",
          "tgn:7000198",
          "tgn:1001894",
          "tgn:7029392"
        ],
        "placetype": [
          "aat:300008347"
        ],
        "name:en": "Bagaraudha",
        "id": 7566800
      }
    },
    {
      "geometry": {
        "type": "Point",
        "coordinates": [
          79.240405,
          24.23693
        ]
      },
      "type": "Feature",
      "properties": {
        "hierarchy": [
          "tgn:7566801",
          "tgn:1000004",
          "tgn:7000198",
          "tgn:1001894",
          "tgn:7029392"
        ],
        "placetype": [
          "aat:300008347"
        ],
        "name:en": "Jaitūpura",
        "id": 7566801
      }
    },
    {
      "geometry": {
        "type": "Point",
        "coordinates": [
          79.243306,
          24.24496
        ]
      },
      "type": "Feature",
      "properties": {
        "hierarchy": [
          "tgn:7566802",
          "tgn:1000004",
          "tgn:7000198",
          "tgn:1001894",
          "tgn:7029392"
        ],
        "placetype": [
          "aat:300008347"
        ],
        "name:en": "Pauri",
        "id": 7566802
      }
    },
    {
      "geometry": {
        "type": "Point",
        "coordinates": [
          79.239012,
          24.244096
        ]
      },
      "type": "Feature",
      "properties": {
        "hierarchy": [
          "tgn:7566803",
          "tgn:1000004",
          "tgn:7000198",
          "tgn:1001894",
          "tgn:7029392"
        ],
        "placetype": [
          "aat:300008347"
        ],
        "name:en": "Jakha",
        "id": 7566803
      }
    },
    {
      "geometry": {
        "type": "Point",
        "coordinates": [
          79.226892,
          24.242945
        ]
      },
      "type": "Feature",
      "properties": {
        "hierarchy": [
          "tgn:7566804",
          "tgn:1000004",
          "tgn:7000198",
          "tgn:1001894",
          "tgn:7029392"
        ],
        "placetype": [
          "aat:300008347"
        ],
        "name:en": "Māndpur",
        "id": 7566804
      }
    },
    {
      "geometry": {
        "type": "Point",
        "coordinates": [
          79.217189,
          24.230727
        ]
      },
      "type": "Feature",
      "properties": {
        "hierarchy": [
          "tgn:7566805",
          "tgn:1000004",
          "tgn:7000198",
          "tgn:1001894",
          "tgn:7029392"
        ],
        "placetype": [
          "aat:300008347"
        ],
        "name:en": "Sunwāha",
        "id": 7566805
      }
    },
    {
      "geometry": {
        "type": "Point",
        "coordinates": [
          79.192324,
          24.228526
        ]
      },
      "type": "Feature",
      "properties": {
        "hierarchy": [
          "tgn:7566806",
          "tgn:1000004",
          "tgn:7000198",
          "tgn:1001894",
          "tgn:7029392"
        ],
        "placetype": [
          "aat:300008347"
        ],
        "name:en": "Ālampura Imla",
        "id": 7566806
      }
    },
    {
      "geometry": {
        "type": "Point",
        "coordinates": [
          79.182432,
          24.232223
        ]
      },
      "type": "Feature",
      "properties": {
        "hierarchy": [
          "tgn:7566807",
          "tgn:1000004",
          "tgn:7000198",
          "tgn:1001894",
          "tgn:7029392"
        ],
        "placetype": [
          "aat:300008347"
        ],
        "name:en": "Majagawān Khurd",
        "id": 7566807
      }
    },
    {
      "geometry": {
        "type": "Point",
        "coordinates": [
          79.175792,
          24.231547
        ]
      },
      "type": "Feature",
      "properties": {
        "hierarchy": [
          "tgn:7566808",
          "tgn:1000004",
          "tgn:7000198",
          "tgn:1001894",
          "tgn:7029392"
        ],
        "placetype": [
          "aat:300008347"
        ],
        "name:en": "Muriya",
        "id": 7566808
      }
    },
    {
      "geometry": {
        "type": "Point",
        "coordinates": [
          79.147776,
          24.228868
        ]
      },
      "type": "Feature",
      "properties": {
        "hierarchy": [
          "tgn:7566809",
          "tgn:1000004",
          "tgn:7000198",
          "tgn:1001894",
          "tgn:7029392"
        ],
        "placetype": [
          "aat:300008347"
        ],
        "name:en": "Ghoghara",
        "id": 7566809
      }
    }
  ]
}
