{
  "type": "FeatureCollection",
  "features": [
    {
      "geometry": {
        "type": "Point",
        "coordinates": [
          -100.308333,
          26.351389
        ]
      },
      "type": "Feature",
      "properties": {
        "hierarchy": [
          "tgn:7420070",
          "tgn:1000001",
          "tgn:7005589",
          "tgn:7005560",
          "tgn:7029392"
        ],
        "placetype": [
          "aat:300008347"
        ],
        "id": 7420070,
        "name:es": "San Juan"
      }
    },
    {
      "geometry": {
        "type": "Point",
        "coordinates": [
          -100.3125,
          26.305556
        ]
      },
      "type": "Feature",
      "properties": {
        "hierarchy": [
          "tgn:7420071",
          "tgn:1000001",
          "tgn:7005589",
          "tgn:7005560",
          "tgn:7029392"
        ],
        "placetype": [
          "aat:300008795"
        ],
        "id": 7420071,
        "name:es": "Milpillas, Sierra"
      }
    },
    {
      "geometry": {
        "type": "Point",
        "coordinates": [
          -100.381944,
          26.3125
        ]
      },
      "type": "Feature",
      "properties": {
        "hierarchy": [
          "tgn:7420072",
          "tgn:1000001",
          "tgn:7005589",
          "tgn:7005560",
          "tgn:7029392"
        ],
        "placetype": [
          "aat:300008699"
        ],
        "id": 7420072,
        "name:es": "Palo Blanco, Río"
      }
    },
    {
      "geometry": {
        "type": "Point",
        "coordinates": [
          -100.5625,
          26.3125
        ]
      },
      "type": "Feature",
      "properties": {
        "hierarchy": [
          "tgn:7420073",
          "tgn:1000001",
          "tgn:7005589",
          "tgn:7005560",
          "tgn:7029392"
        ],
        "placetype": [
          "aat:300008699"
        ],
        "id": 7420073,
        "name:es": "La Negra, Río"
      }
    },
    {
      "geometry": {
        "type": "Point",
        "coordinates": [
          -100.668889,
          26.296667
        ]
      },
      "type": "Feature",
      "properties": {
        "hierarchy": [
          "tgn:7420074",
          "tgn:1000001",
          "tgn:7005589",
          "tgn:7005560",
          "tgn:7029392"
        ],
        "placetype": [
          "aat:300008347"
        ],
        "id": 7420074,
        "name:es": "El Quemado"
      }
    },
    {
      "geometry": {
        "type": "Point",
        "coordinates": [
          -100.6875,
          26.281944
        ]
      },
      "type": "Feature",
      "properties": {
        "hierarchy": [
          "tgn:7420075",
          "tgn:1000001",
          "tgn:7005589",
          "tgn:7005560",
          "tgn:7029392"
        ],
        "placetype": [
          "aat:300008347"
        ],
        "id": 7420075,
        "name:es": "El Refugio"
      }
    },
    {
      "geometry": {
        "type": "Point",
        "coordinates": [
          -100.548611,
          26.123611
        ]
      },
      "type": "Feature",
      "properties": {
        "hierarchy": [
          "tgn:7420076",
          "tgn:1000001",
          "tgn:7005589",
          "tgn:7005560",
          "tgn:7029392"
        ],
        "placetype": [
          "aat:300008795"
        ],
        "id": 7420076,
        "name:es": "Tía Chena, Cerro"
      }
    },
    {
      "geometry": {
        "type": "Point",
        "coordinates": [
          -100.813889,
          26.28
        ]
      },
      "type": "Feature",
      "properties": {
        "hierarchy": [
          "tgn:7420077",
          "tgn:1000001",
          "tgn:7005589",
          "tgn:7005560",
          "tgn:7029392"
        ],
        "placetype": [
          "aat:300008347"
        ],
        "id": 7420077,
        "name:es": "Tanque del Buey"
      }
    },
    {
      "geometry": {
        "type": "Point",
        "coordinates": [
          -100.881944,
          26.255556
        ]
      },
      "type": "Feature",
      "properties": {
        "hierarchy": [
          "tgn:7420078",
          "tgn:1000001",
          "tgn:7005589",
          "tgn:7005560",
          "tgn:7029392"
        ],
        "placetype": [
          "aat:300008347"
        ],
        "id": 7420078,
        "name:es": "El Puerto de San Bernabé"
      }
    },
    {
      "geometry": {
        "type": "Point",
        "coordinates": [
          -100.921111,
          26.3125
        ]
      },
      "type": "Feature",
      "properties": {
        "hierarchy": [
          "tgn:7420079",
          "tgn:1000001",
          "tgn:7005589",
          "tgn:7005560",
          "tgn:7029392"
        ],
        "placetype": [
          "aat:300008347"
        ],
        "id": 7420079,
        "name:es": "El Salado"
      }
    }
  ]
}
