{
  "type": "FeatureCollection",
  "features": [
    {
      "geometry": {
        "type": "Point",
        "coordinates": [
          76.915357,
          24.985268
        ]
      },
      "type": "Feature",
      "properties": {
        "hierarchy": [
          "tgn:7557580",
          "tgn:1000004",
          "tgn:7000198",
          "tgn:7016788",
          "tgn:7029392"
        ],
        "placetype": [
          "aat:300008347"
        ],
        "name:en": "Pāron",
        "id": 7557580
      }
    },
    {
      "geometry": {
        "type": "Point",
        "coordinates": [
          78.579824,
          24.932915
        ]
      },
      "type": "Feature",
      "properties": {
        "hierarchy": [
          "tgn:7557581",
          "tgn:1000004",
          "tgn:7000198",
          "tgn:7016722",
          "tgn:7029392"
        ],
        "placetype": [
          "aat:300008347"
        ],
        "name:en": "Pāron",
        "id": 7557581
      }
    },
    {
      "geometry": {
        "type": "Point",
        "coordinates": [
          75.09218,
          25.51773
        ]
      },
      "type": "Feature",
      "properties": {
        "hierarchy": [
          "tgn:7557582",
          "tgn:1000004",
          "tgn:7000198",
          "tgn:7016788",
          "tgn:7029392"
        ],
        "placetype": [
          "aat:300008347"
        ],
        "name:en": "Paroli",
        "id": 7557582
      }
    },
    {
      "geometry": {
        "type": "Point",
        "coordinates": [
          78.077319,
          30.87463
        ]
      },
      "type": "Feature",
      "properties": {
        "hierarchy": [
          "tgn:7557583",
          "tgn:1000004",
          "tgn:7000198",
          "tgn:7031786",
          "tgn:7029392"
        ],
        "placetype": [
          "aat:300008347"
        ],
        "name:en": "Parolā",
        "id": 7557583
      }
    },
    {
      "geometry": {
        "type": "Point",
        "coordinates": [
          75.434409,
          32.345985
        ]
      },
      "type": "Feature",
      "properties": {
        "hierarchy": [
          "tgn:7557585",
          "tgn:1000004",
          "tgn:7000198",
          "tgn:7000799",
          "tgn:7029392"
        ],
        "placetype": [
          "aat:300008347"
        ],
        "name:en": "Parol",
        "id": 7557585
      }
    },
    {
      "geometry": {
        "type": "Point",
        "coordinates": [
          89.716667,
          26.45
        ]
      },
      "type": "Feature",
      "properties": {
        "hierarchy": [
          "tgn:7557586",
          "tgn:1000004",
          "tgn:7000198",
          "tgn:1001977",
          "tgn:7029392"
        ],
        "placetype": [
          "aat:300008347"
        ],
        "name:en": "Pārokāta",
        "id": 7557586
      }
    },
    {
      "geometry": {
        "type": "Point",
        "coordinates": [
          71.633333,
          21.566667
        ]
      },
      "type": "Feature",
      "properties": {
        "hierarchy": [
          "tgn:7557587",
          "tgn:1000004",
          "tgn:1001869",
          "tgn:7000198",
          "tgn:7029392"
        ],
        "placetype": [
          "aat:300008347"
        ],
        "name:en": "Parodi",
        "id": 7557587
      }
    },
    {
      "geometry": {
        "type": "Point",
        "coordinates": [
          74.066667,
          15.266667
        ]
      },
      "type": "Feature",
      "properties": {
        "hierarchy": [
          "tgn:7557588",
          "tgn:1000004",
          "tgn:7018318",
          "tgn:7000198",
          "tgn:7029392"
        ],
        "placetype": [
          "aat:300008699"
        ],
        "name:en": "Parodá, Rio de",
        "id": 7557588
      }
    },
    {
      "geometry": {
        "type": "Point",
        "coordinates": [
          74.033333,
          15.216667
        ]
      },
      "type": "Feature",
      "properties": {
        "hierarchy": [
          "tgn:7557589",
          "tgn:1000004",
          "tgn:7018318",
          "tgn:7000198",
          "tgn:7029392"
        ],
        "placetype": [
          "aat:300008347"
        ],
        "name:en": "Paroda",
        "id": 7557589
      }
    }
  ]
}
