{
  "type": "FeatureCollection",
  "features": [
    {
      "geometry": {
        "type": "Point",
        "coordinates": [
          31.231936,
          30.006647
        ]
      },
      "type": "Feature",
      "properties": {
        "hierarchy": [
          "tgn:7529800",
          "tgn:7001242",
          "tgn:7016833",
          "tgn:1001091",
          "tgn:7029392"
        ],
        "placetype": [
          "aat:300007466"
        ],
        "id": 7529800,
        "name:xx": "Ḩaşan Bābiliyūn"
      }
    },
    {
      "geometry": {
        "type": "Point",
        "coordinates": [
          31.230232,
          30.005212
        ]
      },
      "type": "Feature",
      "properties": {
        "hierarchy": [
          "tgn:7529801",
          "tgn:7001242",
          "tgn:7016833",
          "tgn:1001091",
          "tgn:7029392"
        ],
        "placetype": [
          "aat:300007466"
        ],
        "id": 7529801,
        "name:xx": "Al Kanīsah al Mu'allaqah"
      }
    },
    {
      "geometry": {
        "type": "Point",
        "coordinates": [
          31.230678,
          30.005818
        ]
      },
      "type": "Feature",
      "properties": {
        "hierarchy": [
          "tgn:7529802",
          "tgn:7001242",
          "tgn:7016833",
          "tgn:1001091",
          "tgn:7029392"
        ],
        "placetype": [
          "aat:300005768"
        ],
        "id": 7529802,
        "name:xx": "Al Mutḩaf al Qibţī"
      }
    },
    {
      "geometry": {
        "type": "Point",
        "coordinates": [
          31.2302,
          30.006457
        ]
      },
      "type": "Feature",
      "properties": {
        "hierarchy": [
          "tgn:7529803",
          "tgn:7001242",
          "tgn:7016833",
          "tgn:1001091",
          "tgn:7029392"
        ],
        "placetype": [
          "aat:300007466"
        ],
        "id": 7529803,
        "name:xx": "Kanīsat Dayr Mārī Jirjis"
      }
    },
    {
      "geometry": {
        "type": "Point",
        "coordinates": [
          31.2351,
          30.006462
        ]
      },
      "type": "Feature",
      "properties": {
        "hierarchy": [
          "tgn:7529804",
          "tgn:7001242",
          "tgn:7016833",
          "tgn:1001091",
          "tgn:7029392"
        ],
        "placetype": [
          "aat:300004792"
        ],
        "id": 7529804,
        "name:xx": "Al Muqāwilūn al 'Arab Qiţā' al Taḩarrukāt wa Idārat al Maḩājir"
      }
    },
    {
      "geometry": {
        "type": "Point",
        "coordinates": [
          31.235484,
          29.999697
        ]
      },
      "type": "Feature",
      "properties": {
        "hierarchy": [
          "tgn:7529805",
          "tgn:7001242",
          "tgn:7016833",
          "tgn:1001091",
          "tgn:7029392"
        ],
        "placetype": [
          "aat:300004792"
        ],
        "id": 7529805,
        "name:xx": "Ash Shirkah al 'Āmmah lil Kīmāwiyāt"
      }
    },
    {
      "geometry": {
        "type": "Point",
        "coordinates": [
          31.232223,
          30.001472
        ]
      },
      "type": "Feature",
      "properties": {
        "hierarchy": [
          "tgn:7529806",
          "tgn:7001242",
          "tgn:7016833",
          "tgn:1001091",
          "tgn:7029392"
        ],
        "placetype": [
          "aat:300007544"
        ],
        "id": 7529806,
        "name:xx": "Masjid Sa'd ad Dīn"
      }
    },
    {
      "geometry": {
        "type": "Point",
        "coordinates": [
          31.230941,
          30.001365
        ]
      },
      "type": "Feature",
      "properties": {
        "hierarchy": [
          "tgn:7529807",
          "tgn:7001242",
          "tgn:7016833",
          "tgn:1001091",
          "tgn:7029392"
        ],
        "placetype": [
          "aat:300000641"
        ],
        "id": 7529807,
        "name:xx": "Dayr al Amīr Tādrus"
      }
    },
    {
      "geometry": {
        "type": "Point",
        "coordinates": [
          31.230758,
          30.001675
        ]
      },
      "type": "Feature",
      "properties": {
        "hierarchy": [
          "tgn:7529808",
          "tgn:7001242",
          "tgn:7016833",
          "tgn:1001091",
          "tgn:7029392"
        ],
        "placetype": [
          "aat:300007466"
        ],
        "id": 7529808,
        "name:xx": "Kanīsat al Amīr Tādrus"
      }
    },
    {
      "geometry": {
        "type": "Point",
        "coordinates": [
          31.228365,
          30.001317
        ]
      },
      "type": "Feature",
      "properties": {
        "hierarchy": [
          "tgn:7529809",
          "tgn:7001242",
          "tgn:7016833",
          "tgn:1001091",
          "tgn:7029392"
        ],
        "placetype": [
          "aat:300007836"
        ],
        "id": 7529809,
        "name:xx": "Kūbrī al 'Āshar min Ramaḑān"
      }
    }
  ]
}
