{
  "type": "FeatureCollection",
  "features": [
    {
      "geometry": {
        "type": "Point",
        "coordinates": [
          -96.670278,
          18.281111
        ]
      },
      "type": "Feature",
      "properties": {
        "hierarchy": [
          "tgn:7417330",
          "tgn:1000001",
          "tgn:7005591",
          "tgn:7005560",
          "tgn:7029392"
        ],
        "placetype": [
          "aat:300008347"
        ],
        "id": 7417330,
        "name:es": "Río Lodo"
      }
    },
    {
      "geometry": {
        "type": "Point",
        "coordinates": [
          -96.538889,
          18.346111
        ]
      },
      "type": "Feature",
      "properties": {
        "hierarchy": [
          "tgn:7417331",
          "tgn:1000001",
          "tgn:7005591",
          "tgn:7005560",
          "tgn:7029392"
        ],
        "placetype": [
          "aat:300008347"
        ],
        "id": 7417331,
        "name:es": "Cosalapa Sarmiento"
      }
    },
    {
      "geometry": {
        "type": "Point",
        "coordinates": [
          -97.998611,
          16.125
        ]
      },
      "type": "Feature",
      "properties": {
        "hierarchy": [
          "tgn:7417332",
          "tgn:1000001",
          "tgn:7005591",
          "tgn:7005560",
          "tgn:7029392"
        ],
        "placetype": [
          "aat:300008699"
        ],
        "id": 7417332,
        "name:es": "La Arena, Río"
      }
    },
    {
      "geometry": {
        "type": "Point",
        "coordinates": [
          -97.981389,
          16.188056
        ]
      },
      "type": "Feature",
      "properties": {
        "hierarchy": [
          "tgn:7417333",
          "tgn:1000001",
          "tgn:7005591",
          "tgn:7005560",
          "tgn:7029392"
        ],
        "placetype": [
          "aat:300008347"
        ],
        "id": 7417333,
        "name:es": "Collantes"
      }
    },
    {
      "geometry": {
        "type": "Point",
        "coordinates": [
          -97.981111,
          16.218611
        ]
      },
      "type": "Feature",
      "properties": {
        "hierarchy": [
          "tgn:7417334",
          "tgn:1000001",
          "tgn:7005591",
          "tgn:7005560",
          "tgn:7029392"
        ],
        "placetype": [
          "aat:300008347"
        ],
        "id": 7417334,
        "name:es": "Cerro de la Esperanza"
      }
    },
    {
      "geometry": {
        "type": "Point",
        "coordinates": [
          -98.125833,
          16.201667
        ]
      },
      "type": "Feature",
      "properties": {
        "hierarchy": [
          "tgn:7417335",
          "tgn:1000001",
          "tgn:7005591",
          "tgn:7005560",
          "tgn:7029392"
        ],
        "placetype": [
          "aat:300008347"
        ],
        "id": 7417335,
        "name:es": "Banco de Oro"
      }
    },
    {
      "geometry": {
        "type": "Point",
        "coordinates": [
          -98.127778,
          16.271389
        ]
      },
      "type": "Feature",
      "properties": {
        "hierarchy": [
          "tgn:7417336",
          "tgn:1000001",
          "tgn:7005591",
          "tgn:7005560",
          "tgn:7029392"
        ],
        "placetype": [
          "aat:300008347"
        ],
        "id": 7417336,
        "name:es": "La Cañada"
      }
    },
    {
      "geometry": {
        "type": "Point",
        "coordinates": [
          -98.182222,
          16.311111
        ]
      },
      "type": "Feature",
      "properties": {
        "hierarchy": [
          "tgn:7417337",
          "tgn:1000001",
          "tgn:7005591",
          "tgn:7005560",
          "tgn:7029392"
        ],
        "placetype": [
          "aat:300008347"
        ],
        "id": 7417337,
        "name:es": "Motillas"
      }
    },
    {
      "geometry": {
        "type": "Point",
        "coordinates": [
          -98.156111,
          16.343611
        ]
      },
      "type": "Feature",
      "properties": {
        "hierarchy": [
          "tgn:7417338",
          "tgn:1000001",
          "tgn:7005591",
          "tgn:7005560",
          "tgn:7029392"
        ],
        "placetype": [
          "aat:300008699"
        ],
        "id": 7417338,
        "name:es": "Yutacuite, Río"
      }
    },
    {
      "geometry": {
        "type": "Point",
        "coordinates": [
          -98.173611,
          16.391944
        ]
      },
      "type": "Feature",
      "properties": {
        "hierarchy": [
          "tgn:7417339",
          "tgn:1000001",
          "tgn:7005591",
          "tgn:7005560",
          "tgn:7029392"
        ],
        "placetype": [
          "aat:300008347"
        ],
        "id": 7417339,
        "name:es": "Rancho del Santo"
      }
    }
  ]
}
