{
  "type": "FeatureCollection",
  "features": [
    {
      "geometry": {
        "type": "Point",
        "coordinates": [
          121.341739,
          24.961287
        ]
      },
      "type": "Feature",
      "properties": {
        "hierarchy": [
          "tgn:7495370",
          "tgn:1000004",
          "tgn:1000454",
          "tgn:1000141",
          "tgn:7029392"
        ],
        "placetype": [
          "aat:300007836"
        ],
        "id": 7495370,
        "name:xx": "Yucuo Qiao"
      }
    },
    {
      "geometry": {
        "type": "Point",
        "coordinates": [
          121.335846,
          24.968835
        ]
      },
      "type": "Feature",
      "properties": {
        "hierarchy": [
          "tgn:7495372",
          "tgn:1000004",
          "tgn:1000454",
          "tgn:1000141",
          "tgn:7029392"
        ],
        "placetype": [
          "aat:300006495"
        ],
        "id": 7495372,
        "name:xx": "Fengming Guoxiao"
      }
    },
    {
      "geometry": {
        "type": "Point",
        "coordinates": [
          121.344662,
          24.983052
        ]
      },
      "type": "Feature",
      "properties": {
        "hierarchy": [
          "tgn:7495373",
          "tgn:1000004",
          "tgn:7001013",
          "tgn:1000141",
          "tgn:7029392"
        ],
        "placetype": [
          "aat:300387302"
        ],
        "id": 7495373,
        "name:xx": "Shoushan Gongyequ"
      }
    },
    {
      "geometry": {
        "type": "Point",
        "coordinates": [
          121.322264,
          24.981846
        ]
      },
      "type": "Feature",
      "properties": {
        "hierarchy": [
          "tgn:7495374",
          "tgn:1000004",
          "tgn:7001013",
          "tgn:1000141",
          "tgn:7029392"
        ],
        "placetype": [
          "aat:300387302"
        ],
        "id": 7495374,
        "name:xx": "Guishan Gongyequ"
      }
    },
    {
      "geometry": {
        "type": "Point",
        "coordinates": [
          121.315562,
          24.982471
        ]
      },
      "type": "Feature",
      "properties": {
        "hierarchy": [
          "tgn:7495375",
          "tgn:1000004",
          "tgn:7001013",
          "tgn:1000141",
          "tgn:7029392"
        ],
        "placetype": [
          "aat:300006495"
        ],
        "id": 7495375,
        "name:xx": "Jianguo Guoxiao"
      }
    },
    {
      "geometry": {
        "type": "Point",
        "coordinates": [
          121.326912,
          24.971948
        ]
      },
      "type": "Feature",
      "properties": {
        "hierarchy": [
          "tgn:7495376",
          "tgn:1000004",
          "tgn:7001013",
          "tgn:1000141",
          "tgn:7029392"
        ],
        "placetype": [
          "aat:300000498"
        ],
        "id": 7495376,
        "name:xx": "Fulong Shequ"
      }
    },
    {
      "geometry": {
        "type": "Point",
        "coordinates": [
          121.3075,
          24.9797
        ]
      },
      "type": "Feature",
      "properties": {
        "hierarchy": [
          "tgn:7495377",
          "tgn:1000004",
          "tgn:7001013",
          "tgn:1000141",
          "tgn:7029392"
        ],
        "placetype": [
          "aat:300000498"
        ],
        "id": 7495377,
        "name:xx": "Anqian Shequ"
      }
    },
    {
      "geometry": {
        "type": "Point",
        "coordinates": [
          121.319824,
          24.946319
        ]
      },
      "type": "Feature",
      "properties": {
        "hierarchy": [
          "tgn:7495378",
          "tgn:1000004",
          "tgn:1000454",
          "tgn:1000141",
          "tgn:7029392"
        ],
        "placetype": [
          "aat:300006075"
        ],
        "id": 7495378,
        "name:xx": "Dongmen Paishui"
      }
    },
    {
      "geometry": {
        "type": "Point",
        "coordinates": [
          121.324302,
          24.996886
        ]
      },
      "type": "Feature",
      "properties": {
        "hierarchy": [
          "tgn:7495379",
          "tgn:1000004",
          "tgn:7001013",
          "tgn:1000141",
          "tgn:7029392"
        ],
        "placetype": [
          "aat:300007836"
        ],
        "id": 7495379,
        "name:xx": "Chenggong Qiao"
      }
    }
  ]
}
