{
  "type": "FeatureCollection",
  "features": [
    {
      "geometry": {
        "type": "Point",
        "coordinates": [
          120.441707,
          23.509729
        ]
      },
      "type": "Feature",
      "properties": {
        "hierarchy": [
          "tgn:7493290",
          "tgn:7001001",
          "tgn:1000004",
          "tgn:1000141",
          "tgn:7029392"
        ],
        "placetype": [
          "aat:300007836"
        ],
        "id": 7493290,
        "name:xx": "Zhuangjing Qiao"
      }
    },
    {
      "geometry": {
        "type": "Point",
        "coordinates": [
          121.288972,
          23.206149
        ]
      },
      "type": "Feature",
      "properties": {
        "hierarchy": [
          "tgn:7493291",
          "tgn:7001010",
          "tgn:1000004",
          "tgn:1000141",
          "tgn:7029392"
        ],
        "placetype": [
          "aat:300007836"
        ],
        "id": 7493291,
        "name:xx": "Qingkeng Qiao"
      }
    },
    {
      "geometry": {
        "type": "Point",
        "coordinates": [
          121.289418,
          23.204404
        ]
      },
      "type": "Feature",
      "properties": {
        "hierarchy": [
          "tgn:7493292",
          "tgn:7001010",
          "tgn:1000004",
          "tgn:1000141",
          "tgn:7029392"
        ],
        "placetype": [
          "aat:300008347"
        ],
        "id": 7493292,
        "name:xx": "Qingkeng"
      }
    },
    {
      "geometry": {
        "type": "Point",
        "coordinates": [
          121.279534,
          23.225456
        ]
      },
      "type": "Feature",
      "properties": {
        "hierarchy": [
          "tgn:7493294",
          "tgn:7001010",
          "tgn:1000004",
          "tgn:1000141",
          "tgn:7029392"
        ],
        "placetype": [
          "aat:300006495"
        ],
        "id": 7493294,
        "name:xx": "Fubei Guozhong"
      }
    },
    {
      "geometry": {
        "type": "Point",
        "coordinates": [
          121.289664,
          23.226184
        ]
      },
      "type": "Feature",
      "properties": {
        "hierarchy": [
          "tgn:7493295",
          "tgn:7001010",
          "tgn:1000004",
          "tgn:1000141",
          "tgn:7029392"
        ],
        "placetype": [
          "aat:300008347"
        ],
        "id": 7493295,
        "name:xx": "Dongxing"
      }
    },
    {
      "geometry": {
        "type": "Point",
        "coordinates": [
          121.289639,
          23.235668
        ]
      },
      "type": "Feature",
      "properties": {
        "hierarchy": [
          "tgn:7493296",
          "tgn:7001010",
          "tgn:1000004",
          "tgn:1000141",
          "tgn:7029392"
        ],
        "placetype": [
          "aat:300007836"
        ],
        "id": 7493296,
        "name:xx": "Xinxing Qiao"
      }
    },
    {
      "geometry": {
        "type": "Point",
        "coordinates": [
          121.288107,
          23.232065
        ]
      },
      "type": "Feature",
      "properties": {
        "hierarchy": [
          "tgn:7493297",
          "tgn:7001010",
          "tgn:1000004",
          "tgn:1000141",
          "tgn:7029392"
        ],
        "placetype": [
          "aat:300007836"
        ],
        "id": 7493297,
        "name:xx": "Dongxing Qiao"
      }
    },
    {
      "geometry": {
        "type": "Point",
        "coordinates": [
          121.28463,
          23.226686
        ]
      },
      "type": "Feature",
      "properties": {
        "hierarchy": [
          "tgn:7493298",
          "tgn:7001010",
          "tgn:1000004",
          "tgn:1000141",
          "tgn:7029392"
        ],
        "placetype": [
          "aat:300007836"
        ],
        "id": 7493298,
        "name:xx": "Dongzhu Qiao"
      }
    },
    {
      "geometry": {
        "type": "Point",
        "coordinates": [
          121.28651,
          23.229784
        ]
      },
      "type": "Feature",
      "properties": {
        "hierarchy": [
          "tgn:7493299",
          "tgn:7001010",
          "tgn:1000004",
          "tgn:1000141",
          "tgn:7029392"
        ],
        "placetype": [
          "aat:300007836"
        ],
        "id": 7493299,
        "name:xx": "Fubei Qiao"
      }
    }
  ]
}
