{
  "type": "FeatureCollection",
  "features": [
    {
      "geometry": {
        "type": "Point",
        "coordinates": [
          -87.166667,
          21.466667
        ]
      },
      "type": "Feature",
      "properties": {
        "hierarchy": [
          "tgn:7401990",
          "tgn:1000001",
          "tgn:1001937",
          "tgn:7005560",
          "tgn:7029392"
        ],
        "placetype": [
          "aat:300386846"
        ],
        "id": 7401990,
        "name:xx": "Noctunich, Punta"
      }
    },
    {
      "geometry": {
        "type": "Point",
        "coordinates": [
          -87.05,
          21.466667
        ]
      },
      "type": "Feature",
      "properties": {
        "hierarchy": [
          "tgn:7401991",
          "tgn:1000001",
          "tgn:1001937",
          "tgn:7005560",
          "tgn:7029392"
        ],
        "placetype": [
          "aat:300008347"
        ],
        "id": 7401991,
        "name:xx": "Solferino"
      }
    },
    {
      "geometry": {
        "type": "Point",
        "coordinates": [
          -87.266667,
          21.516667
        ]
      },
      "type": "Feature",
      "properties": {
        "hierarchy": [
          "tgn:7401992",
          "tgn:1000001",
          "tgn:1001937",
          "tgn:7005560",
          "tgn:7029392"
        ],
        "placetype": [
          "aat:300008347"
        ],
        "id": 7401992,
        "name:xx": "Yoluk"
      }
    },
    {
      "geometry": {
        "type": "Point",
        "coordinates": [
          -89.1875,
          21.133333
        ]
      },
      "type": "Feature",
      "properties": {
        "hierarchy": [
          "tgn:7401993",
          "tgn:1000001",
          "tgn:7005600",
          "tgn:7005560",
          "tgn:7029392"
        ],
        "placetype": [
          "aat:300008347"
        ],
        "id": 7401993,
        "name:xx": "San Pedro Chakabal"
      }
    },
    {
      "geometry": {
        "type": "Point",
        "coordinates": [
          -88.95,
          19.966667
        ]
      },
      "type": "Feature",
      "properties": {
        "hierarchy": [
          "tgn:7401994",
          "tgn:1000001",
          "tgn:7005600",
          "tgn:7005560",
          "tgn:7029392"
        ],
        "placetype": [
          "aat:300008347"
        ],
        "id": 7401994,
        "name:xx": "X-Pechil"
      }
    },
    {
      "geometry": {
        "type": "Point",
        "coordinates": [
          -89.6375,
          21.05
        ]
      },
      "type": "Feature",
      "properties": {
        "hierarchy": [
          "tgn:7401995",
          "tgn:1000001",
          "tgn:7005600",
          "tgn:7005560",
          "tgn:7029392"
        ],
        "placetype": [
          "aat:300007783"
        ],
        "id": 7401995,
        "name:xx": "Estación Cordemex"
      }
    },
    {
      "geometry": {
        "type": "Point",
        "coordinates": [
          -88.395833,
          20.320833
        ]
      },
      "type": "Feature",
      "properties": {
        "hierarchy": [
          "tgn:7401996",
          "tgn:1000001",
          "tgn:7005600",
          "tgn:7005560",
          "tgn:7029392"
        ],
        "placetype": [
          "aat:300008347"
        ],
        "id": 7401996,
        "name:xx": "Poop"
      }
    },
    {
      "geometry": {
        "type": "Point",
        "coordinates": [
          -88.416667,
          20.354167
        ]
      },
      "type": "Feature",
      "properties": {
        "hierarchy": [
          "tgn:7401997",
          "tgn:1000001",
          "tgn:7005600",
          "tgn:7005560",
          "tgn:7029392"
        ],
        "placetype": [
          "aat:300008347"
        ],
        "id": 7401997,
        "name:xx": "San José"
      }
    },
    {
      "geometry": {
        "type": "Point",
        "coordinates": [
          -88.266667,
          20.391667
        ]
      },
      "type": "Feature",
      "properties": {
        "hierarchy": [
          "tgn:7401998",
          "tgn:1000001",
          "tgn:7005600",
          "tgn:7005560",
          "tgn:7029392"
        ],
        "placetype": [
          "aat:300008347"
        ],
        "id": 7401998,
        "name:xx": "Xchac-Hua"
      }
    },
    {
      "geometry": {
        "type": "Point",
        "coordinates": [
          -88.3625,
          20.375
        ]
      },
      "type": "Feature",
      "properties": {
        "hierarchy": [
          "tgn:7401999",
          "tgn:1000001",
          "tgn:7005600",
          "tgn:7005560",
          "tgn:7029392"
        ],
        "placetype": [
          "aat:300008347"
        ],
        "id": 7401999,
        "name:xx": "Yohactún"
      }
    }
  ]
}
