{
  "type": "FeatureCollection",
  "features": [
    {
      "geometry": {
        "type": "Point",
        "coordinates": [
          2.712385,
          50.956817
        ]
      },
      "type": "Feature",
      "properties": {
        "hierarchy": [
          "tgn:7241760",
          "tgn:7003458",
          "tgn:1000003",
          "tgn:1000063",
          "tgn:7018236",
          "tgn:7029392"
        ],
        "placetype": [
          "aat:300008347"
        ],
        "id": 7241760,
        "name:xx": "Linde"
      }
    },
    {
      "geometry": {
        "type": "Point",
        "coordinates": [
          5.321942,
          50.450593
        ]
      },
      "type": "Feature",
      "properties": {
        "hierarchy": [
          "tgn:7241761",
          "tgn:7003460",
          "tgn:1000003",
          "tgn:1000063",
          "tgn:4012014",
          "tgn:7029392"
        ],
        "placetype": [
          "aat:300008347"
        ],
        "id": 7241761,
        "name:xx": "Linchet"
      }
    },
    {
      "geometry": {
        "type": "Point",
        "coordinates": [
          5.633333,
          50.516667
        ]
      },
      "type": "Feature",
      "properties": {
        "hierarchy": [
          "tgn:7241763",
          "tgn:7003460",
          "tgn:1000003",
          "tgn:1000063",
          "tgn:4012014",
          "tgn:7029392"
        ],
        "placetype": [
          "aat:300008347"
        ],
        "id": 7241763,
        "name:xx": "Lincé"
      }
    },
    {
      "geometry": {
        "type": "Point",
        "coordinates": [
          4.466667,
          50.316667
        ]
      },
      "type": "Feature",
      "properties": {
        "hierarchy": [
          "tgn:7241764",
          "tgn:7003466",
          "tgn:1000003",
          "tgn:1000063",
          "tgn:4012014",
          "tgn:7029392"
        ],
        "placetype": [
          "aat:300008347"
        ],
        "id": 7241764,
        "name:xx": "Limsonry"
      }
    },
    {
      "geometry": {
        "type": "Point",
        "coordinates": [
          4.216667,
          50.566667
        ]
      },
      "type": "Feature",
      "properties": {
        "hierarchy": [
          "tgn:7241765",
          "tgn:7007877",
          "tgn:1000003",
          "tgn:1000063",
          "tgn:4012014",
          "tgn:7029392"
        ],
        "placetype": [
          "aat:300000206"
        ],
        "id": 7241765,
        "name:xx": "Limpré"
      }
    },
    {
      "geometry": {
        "type": "Point",
        "coordinates": [
          5.31118,
          50.660289
        ]
      },
      "type": "Feature",
      "properties": {
        "hierarchy": [
          "tgn:7241766",
          "tgn:7003460",
          "tgn:1000003",
          "tgn:1000063",
          "tgn:4012014",
          "tgn:7029392"
        ],
        "placetype": [
          "aat:300008347"
        ],
        "id": 7241766,
        "name:xx": "Limont"
      }
    },
    {
      "geometry": {
        "type": "Point",
        "coordinates": [
          5.494263,
          50.508623
        ]
      },
      "type": "Feature",
      "properties": {
        "hierarchy": [
          "tgn:7241767",
          "tgn:7003460",
          "tgn:1000003",
          "tgn:1000063",
          "tgn:4012014",
          "tgn:7029392"
        ],
        "placetype": [
          "aat:300008347"
        ],
        "id": 7241767,
        "name:xx": "Limont"
      }
    },
    {
      "geometry": {
        "type": "Point",
        "coordinates": [
          4.533333,
          50.65
        ]
      },
      "type": "Feature",
      "properties": {
        "hierarchy": [
          "tgn:7241769",
          "tgn:7018238",
          "tgn:1000003",
          "tgn:1000063",
          "tgn:4012014",
          "tgn:7029392"
        ],
        "placetype": [
          "aat:300008347"
        ],
        "id": 7241769,
        "name:xx": "Limoges"
      }
    }
  ]
}
