{
  "type": "FeatureCollection",
  "features": [
    {
      "geometry": {
        "type": "Point",
        "coordinates": [
          120.179527,
          23.446907
        ]
      },
      "type": "Feature",
      "properties": {
        "hierarchy": [
          "tgn:7481640",
          "tgn:7468018",
          "tgn:1000004",
          "tgn:1000141",
          "tgn:7029392"
        ],
        "placetype": [
          "aat:300387033"
        ],
        "id": 7481640,
        "name:xx": "Houbu"
      }
    },
    {
      "geometry": {
        "type": "Point",
        "coordinates": [
          121.741909,
          24.421864
        ]
      },
      "type": "Feature",
      "properties": {
        "hierarchy": [
          "tgn:7481641",
          "tgn:1000004",
          "tgn:7489179",
          "tgn:1000141",
          "tgn:7029392"
        ],
        "placetype": [
          "aat:300008699"
        ],
        "id": 7481641,
        "name:xx": "Zhongyue Xi"
      }
    },
    {
      "geometry": {
        "type": "Point",
        "coordinates": [
          121.742203,
          24.420865
        ]
      },
      "type": "Feature",
      "properties": {
        "hierarchy": [
          "tgn:7481642",
          "tgn:1000004",
          "tgn:7489179",
          "tgn:1000141",
          "tgn:7029392"
        ],
        "placetype": [
          "aat:300266755"
        ],
        "id": 7481642,
        "name:xx": "Jinyang Gongmu"
      }
    },
    {
      "geometry": {
        "type": "Point",
        "coordinates": [
          121.130556,
          24.971389
        ]
      },
      "type": "Feature",
      "properties": {
        "hierarchy": [
          "tgn:7481644",
          "tgn:1000004",
          "tgn:7001013",
          "tgn:1000141",
          "tgn:7029392"
        ],
        "placetype": [
          "aat:300008347"
        ],
        "id": 7481644,
        "name:xx": "Beishi"
      }
    },
    {
      "geometry": {
        "type": "Point",
        "coordinates": [
          121.026667,
          24.94
        ]
      },
      "type": "Feature",
      "properties": {
        "hierarchy": [
          "tgn:7481646",
          "tgn:1000004",
          "tgn:7001013",
          "tgn:1000141",
          "tgn:7029392"
        ],
        "placetype": [
          "aat:300008699"
        ],
        "id": 7481646,
        "name:xx": "Liugu Xi"
      }
    },
    {
      "geometry": {
        "type": "Point",
        "coordinates": [
          121.256111,
          24.924167
        ]
      },
      "type": "Feature",
      "properties": {
        "hierarchy": [
          "tgn:7481647",
          "tgn:1000004",
          "tgn:7001013",
          "tgn:1000141",
          "tgn:7029392"
        ],
        "placetype": [
          "aat:300008347"
        ],
        "id": 7481647,
        "name:xx": "Yingqu"
      }
    },
    {
      "geometry": {
        "type": "Point",
        "coordinates": [
          121.0125,
          24.96
        ]
      },
      "type": "Feature",
      "properties": {
        "hierarchy": [
          "tgn:7481648",
          "tgn:1000004",
          "tgn:7001013",
          "tgn:1000141",
          "tgn:7029392"
        ],
        "placetype": [
          "aat:300008347"
        ],
        "id": 7481648,
        "name:xx": "Wangwudian"
      }
    },
    {
      "geometry": {
        "type": "Point",
        "coordinates": [
          121.0825,
          24.984444
        ]
      },
      "type": "Feature",
      "properties": {
        "hierarchy": [
          "tgn:7481649",
          "tgn:1000004",
          "tgn:7001013",
          "tgn:1000141",
          "tgn:7029392"
        ],
        "placetype": [
          "aat:300008347"
        ],
        "id": 7481649,
        "name:xx": "Hewu"
      }
    }
  ]
}
