{
  "type": "FeatureCollection",
  "features": [
    {
      "geometry": {
        "type": "Point",
        "coordinates": [
          120.865796,
          23.929912
        ]
      },
      "type": "Feature",
      "properties": {
        "hierarchy": [
          "tgn:7477470",
          "tgn:7488858",
          "tgn:1000004",
          "tgn:1000141",
          "tgn:7029392"
        ],
        "placetype": [
          "aat:300008347"
        ],
        "id": 7477470,
        "name:xx": "Lianshengxiang"
      }
    },
    {
      "geometry": {
        "type": "Point",
        "coordinates": [
          120.975922,
          23.915323
        ]
      },
      "type": "Feature",
      "properties": {
        "hierarchy": [
          "tgn:7477471",
          "tgn:7488858",
          "tgn:1000004",
          "tgn:1000141",
          "tgn:7029392"
        ],
        "placetype": [
          "aat:300008347"
        ],
        "id": 7477471,
        "name:xx": "Jiadaokeng"
      }
    },
    {
      "geometry": {
        "type": "Point",
        "coordinates": [
          120.843246,
          23.778068
        ]
      },
      "type": "Feature",
      "properties": {
        "hierarchy": [
          "tgn:7477472",
          "tgn:7488858",
          "tgn:1000004",
          "tgn:1000141",
          "tgn:7029392"
        ],
        "placetype": [
          "aat:300008347"
        ],
        "id": 7477472,
        "name:xx": "Xiapinglin"
      }
    },
    {
      "geometry": {
        "type": "Point",
        "coordinates": [
          120.797126,
          23.909628
        ]
      },
      "type": "Feature",
      "properties": {
        "hierarchy": [
          "tgn:7477473",
          "tgn:7488858",
          "tgn:1000004",
          "tgn:1000141",
          "tgn:7029392"
        ],
        "placetype": [
          "aat:300008347"
        ],
        "id": 7477473,
        "name:xx": "Xiandongping"
      }
    },
    {
      "geometry": {
        "type": "Point",
        "coordinates": [
          120.82677,
          23.827674
        ]
      },
      "type": "Feature",
      "properties": {
        "hierarchy": [
          "tgn:7477474",
          "tgn:7488858",
          "tgn:1000004",
          "tgn:1000141",
          "tgn:7029392"
        ],
        "placetype": [
          "aat:300007595"
        ],
        "id": 7477474,
        "name:xx": "Cide Si"
      }
    },
    {
      "geometry": {
        "type": "Point",
        "coordinates": [
          120.890895,
          23.888432
        ]
      },
      "type": "Feature",
      "properties": {
        "hierarchy": [
          "tgn:7477475",
          "tgn:7488858",
          "tgn:1000004",
          "tgn:1000141",
          "tgn:7029392"
        ],
        "placetype": [
          "aat:300008347"
        ],
        "id": 7477475,
        "name:xx": "Dingwucheng"
      }
    },
    {
      "geometry": {
        "type": "Point",
        "coordinates": [
          120.890685,
          23.884122
        ]
      },
      "type": "Feature",
      "properties": {
        "hierarchy": [
          "tgn:7477476",
          "tgn:7488858",
          "tgn:1000004",
          "tgn:1000141",
          "tgn:7029392"
        ],
        "placetype": [
          "aat:300008347"
        ],
        "id": 7477476,
        "name:xx": "Wuchengkou"
      }
    },
    {
      "geometry": {
        "type": "Point",
        "coordinates": [
          120.898724,
          23.981972
        ]
      },
      "type": "Feature",
      "properties": {
        "hierarchy": [
          "tgn:7477477",
          "tgn:7488858",
          "tgn:1000004",
          "tgn:1000141",
          "tgn:7029392"
        ],
        "placetype": [
          "aat:300007836"
        ],
        "id": 7477477,
        "name:xx": "Jin'an Erhao Qiao"
      }
    },
    {
      "geometry": {
        "type": "Point",
        "coordinates": [
          120.924371,
          23.911435
        ]
      },
      "type": "Feature",
      "properties": {
        "hierarchy": [
          "tgn:7477478",
          "tgn:7488858",
          "tgn:1000004",
          "tgn:1000141",
          "tgn:7029392"
        ],
        "placetype": [
          "aat:300008798"
        ],
        "id": 7477478,
        "name:xx": "Xincheng Shan"
      }
    },
    {
      "geometry": {
        "type": "Point",
        "coordinates": [
          120.817357,
          23.832768
        ]
      },
      "type": "Feature",
      "properties": {
        "hierarchy": [
          "tgn:7477479",
          "tgn:7488858",
          "tgn:1000004",
          "tgn:1000141",
          "tgn:7029392"
        ],
        "placetype": [
          "aat:300007836"
        ],
        "id": 7477479,
        "name:xx": "Fushan Qiao"
      }
    }
  ]
}
