{
  "type": "FeatureCollection",
  "features": [
    {
      "geometry": {
        "type": "Point",
        "coordinates": [
          121.309955,
          24.992573
        ]
      },
      "type": "Feature",
      "properties": {
        "hierarchy": [
          "tgn:7495390",
          "tgn:1000004",
          "tgn:7001013",
          "tgn:1000141",
          "tgn:7029392"
        ],
        "placetype": [
          "aat:300006495"
        ],
        "id": 7495390,
        "name:xx": "Taoyuan Guoxiao"
      }
    },
    {
      "geometry": {
        "type": "Point",
        "coordinates": [
          121.313194,
          24.989
        ]
      },
      "type": "Feature",
      "properties": {
        "hierarchy": [
          "tgn:7495391",
          "tgn:1000004",
          "tgn:7001013",
          "tgn:1000141",
          "tgn:7029392"
        ],
        "placetype": [
          "aat:300007783"
        ],
        "id": 7495391,
        "name:xx": "Taoyuan Chezhan"
      }
    },
    {
      "geometry": {
        "type": "Point",
        "coordinates": [
          121.263943,
          24.773465
        ]
      },
      "type": "Feature",
      "properties": {
        "hierarchy": [
          "tgn:7495393",
          "tgn:1000004",
          "tgn:7471332",
          "tgn:1000141",
          "tgn:7029392"
        ],
        "placetype": [
          "aat:300008187"
        ],
        "id": 7495393,
        "name:xx": "Jinniaohaizu Leyuan"
      }
    },
    {
      "geometry": {
        "type": "Point",
        "coordinates": [
          121.286508,
          24.782168
        ]
      },
      "type": "Feature",
      "properties": {
        "hierarchy": [
          "tgn:7495394",
          "tgn:1000004",
          "tgn:7001013",
          "tgn:1000141",
          "tgn:7029392"
        ],
        "placetype": [
          "aat:300008798"
        ],
        "id": 7495394,
        "name:xx": "Guangcheng Shan"
      }
    },
    {
      "geometry": {
        "type": "Point",
        "coordinates": [
          121.312106,
          24.796354
        ]
      },
      "type": "Feature",
      "properties": {
        "hierarchy": [
          "tgn:7495395",
          "tgn:1000004",
          "tgn:7001013",
          "tgn:1000141",
          "tgn:7029392"
        ],
        "placetype": [
          "aat:300007836"
        ],
        "id": 7495395,
        "name:xx": "Changxing Sihao Qiao"
      }
    },
    {
      "geometry": {
        "type": "Point",
        "coordinates": [
          121.305353,
          24.799713
        ]
      },
      "type": "Feature",
      "properties": {
        "hierarchy": [
          "tgn:7495396",
          "tgn:1000004",
          "tgn:7001013",
          "tgn:1000141",
          "tgn:7029392"
        ],
        "placetype": [
          "aat:300007836"
        ],
        "id": 7495396,
        "name:xx": "Changxing Sanhao Qiao"
      }
    },
    {
      "geometry": {
        "type": "Point",
        "coordinates": [
          121.3023,
          24.796971
        ]
      },
      "type": "Feature",
      "properties": {
        "hierarchy": [
          "tgn:7495397",
          "tgn:1000004",
          "tgn:7001013",
          "tgn:1000141",
          "tgn:7029392"
        ],
        "placetype": [
          "aat:300007836"
        ],
        "id": 7495397,
        "name:xx": "Changxing Erhao Qiao"
      }
    },
    {
      "geometry": {
        "type": "Point",
        "coordinates": [
          121.30176,
          24.797578
        ]
      },
      "type": "Feature",
      "properties": {
        "hierarchy": [
          "tgn:7495398",
          "tgn:1000004",
          "tgn:7001013",
          "tgn:1000141",
          "tgn:7029392"
        ],
        "placetype": [
          "aat:300007836"
        ],
        "id": 7495398,
        "name:xx": "Changxing Yihao Qiao"
      }
    },
    {
      "geometry": {
        "type": "Point",
        "coordinates": [
          121.289678,
          24.799447
        ]
      },
      "type": "Feature",
      "properties": {
        "hierarchy": [
          "tgn:7495399",
          "tgn:1000004",
          "tgn:7001013",
          "tgn:1000141",
          "tgn:7029392"
        ],
        "placetype": [
          "aat:300007836"
        ],
        "id": 7495399,
        "name:xx": "Gaorao Sanhao Qiao"
      }
    }
  ]
}
