{
  "type": "FeatureCollection",
  "features": [
    {
      "geometry": {
        "type": "Point",
        "coordinates": [
          120.5433,
          23.9045
        ]
      },
      "type": "Feature",
      "properties": {
        "hierarchy": [
          "tgn:7472160",
          "tgn:1000004",
          "tgn:7467799",
          "tgn:1000141",
          "tgn:7029392"
        ],
        "placetype": [
          "aat:300387173"
        ],
        "id": 7472160,
        "name:xx": "Wufu Cun"
      }
    },
    {
      "geometry": {
        "type": "Point",
        "coordinates": [
          120.225833,
          23.687778
        ]
      },
      "type": "Feature",
      "properties": {
        "hierarchy": [
          "tgn:7472161",
          "tgn:1000004",
          "tgn:7001014",
          "tgn:1000141",
          "tgn:7029392"
        ],
        "placetype": [
          "aat:300008347"
        ],
        "id": 7472161,
        "name:xx": "Wukuaicuo"
      }
    },
    {
      "geometry": {
        "type": "Point",
        "coordinates": [
          121.780678,
          25.07098
        ]
      },
      "type": "Feature",
      "properties": {
        "hierarchy": [
          "tgn:7472162",
          "tgn:1000004",
          "tgn:1000454",
          "tgn:1000141",
          "tgn:7029392"
        ],
        "placetype": [
          "aat:300008795"
        ],
        "id": 7472162,
        "name:xx": "Wufen Shan"
      }
    },
    {
      "geometry": {
        "type": "Point",
        "coordinates": [
          121.576874,
          25.04167
        ]
      },
      "type": "Feature",
      "properties": {
        "hierarchy": [
          "tgn:7472163",
          "tgn:1000004",
          "tgn:1000959",
          "tgn:1000141",
          "tgn:7029392"
        ],
        "placetype": [
          "aat:300000745"
        ],
        "id": 7472163,
        "name:xx": "Wufenbu"
      }
    },
    {
      "geometry": {
        "type": "Point",
        "coordinates": [
          121.80274,
          25.0636
        ]
      },
      "type": "Feature",
      "properties": {
        "hierarchy": [
          "tgn:7472164",
          "tgn:1000004",
          "tgn:1000454",
          "tgn:1000141",
          "tgn:7029392"
        ],
        "placetype": [
          "aat:300008347"
        ],
        "id": 7472164,
        "name:xx": "Wufenliao"
      }
    },
    {
      "geometry": {
        "type": "Point",
        "coordinates": [
          120.533333,
          23.45
        ]
      },
      "type": "Feature",
      "properties": {
        "hierarchy": [
          "tgn:7472165",
          "tgn:7468018",
          "tgn:1000004",
          "tgn:1000141",
          "tgn:7029392"
        ],
        "placetype": [
          "aat:300008347"
        ],
        "id": 7472165,
        "name:xx": "Wufengdian"
      }
    },
    {
      "geometry": {
        "type": "Point",
        "coordinates": [
          120.540544,
          23.446197
        ]
      },
      "type": "Feature",
      "properties": {
        "hierarchy": [
          "tgn:7472166",
          "tgn:7468018",
          "tgn:1000004",
          "tgn:1000141",
          "tgn:7029392"
        ],
        "placetype": [
          "aat:300007595"
        ],
        "id": 7472166,
        "name:xx": "Wufeng Miao"
      }
    },
    {
      "geometry": {
        "type": "Point",
        "coordinates": [
          121.133333,
          24.583333
        ]
      },
      "type": "Feature",
      "properties": {
        "hierarchy": [
          "tgn:7472167",
          "tgn:1000004",
          "tgn:7471332",
          "tgn:1000141",
          "tgn:7029392"
        ],
        "placetype": [
          "aat:300387173"
        ],
        "id": 7472167,
        "name:xx": "Wufeng Xiang"
      }
    },
    {
      "geometry": {
        "type": "Point",
        "coordinates": [
          120.716667,
          24.05
        ]
      },
      "type": "Feature",
      "properties": {
        "hierarchy": [
          "tgn:7472168",
          "tgn:1000004",
          "tgn:7001009",
          "tgn:1000141",
          "tgn:7029392"
        ],
        "placetype": [
          "aat:300387173"
        ],
        "id": 7472168,
        "name:xx": "Wufeng Xiang"
      }
    },
    {
      "geometry": {
        "type": "Point",
        "coordinates": [
          120.766667,
          23.45
        ]
      },
      "type": "Feature",
      "properties": {
        "hierarchy": [
          "tgn:7472169",
          "tgn:7468018",
          "tgn:1000004",
          "tgn:1000141",
          "tgn:7029392"
        ],
        "placetype": [
          "aat:300387173"
        ],
        "id": 7472169,
        "name:xx": "Wufeng Xiang"
      }
    }
  ]
}
