{
  "type": "FeatureCollection",
  "features": [
    {
      "geometry": {
        "type": "Point",
        "coordinates": [
          30.768614,
          31.206099
        ]
      },
      "type": "Feature",
      "properties": {
        "hierarchy": [
          "tgn:7530180",
          "tgn:7001242",
          "tgn:7016833",
          "tgn:1001335",
          "tgn:7029392"
        ],
        "placetype": [
          "aat:300008347"
        ],
        "name:en": "'Izbat ath Thamānīn",
        "id": 7530180
      }
    },
    {
      "geometry": {
        "type": "Point",
        "coordinates": [
          34.3825,
          30.805833
        ]
      },
      "type": "Feature",
      "properties": {
        "hierarchy": [
          "tgn:7530181",
          "tgn:7001242",
          "tgn:7016833",
          "tgn:7001335",
          "tgn:7029392"
        ],
        "placetype": [
          "aat:300387200"
        ],
        "id": 7530181,
        "name:xx": "Al 'Amrū"
      }
    },
    {
      "geometry": {
        "type": "Point",
        "coordinates": [
          34.419079,
          30.781999
        ]
      },
      "type": "Feature",
      "properties": {
        "hierarchy": [
          "tgn:7530182",
          "tgn:7001242",
          "tgn:7016833",
          "tgn:7001335",
          "tgn:7029392"
        ],
        "placetype": [
          "aat:300379998"
        ],
        "id": 7530182,
        "name:xx": "'Uyûg, Wâdi el-"
      }
    },
    {
      "geometry": {
        "type": "Point",
        "coordinates": [
          34.32955,
          30.845654
        ]
      },
      "type": "Feature",
      "properties": {
        "hierarchy": [
          "tgn:7530183",
          "tgn:7001242",
          "tgn:7016833",
          "tgn:7001335",
          "tgn:7029392"
        ],
        "placetype": [
          "aat:300379998"
        ],
        "id": 7530183,
        "name:xx": "Rabişī, Wādī ar"
      }
    },
    {
      "geometry": {
        "type": "Point",
        "coordinates": [
          34.327357,
          30.804879
        ]
      },
      "type": "Feature",
      "properties": {
        "hierarchy": [
          "tgn:7530184",
          "tgn:7001242",
          "tgn:7016833",
          "tgn:7001335",
          "tgn:7029392"
        ],
        "placetype": [
          "aat:300379998"
        ],
        "id": 7530184,
        "name:xx": "Abu en-Nigm, Wâdi"
      }
    },
    {
      "geometry": {
        "type": "Point",
        "coordinates": [
          34.324487,
          30.784259
        ]
      },
      "type": "Feature",
      "properties": {
        "hierarchy": [
          "tgn:7530185",
          "tgn:7001242",
          "tgn:7016833",
          "tgn:7001335",
          "tgn:7029392"
        ],
        "placetype": [
          "aat:300379998"
        ],
        "id": 7530185,
        "name:xx": "Umm Muqayr, Wādī"
      }
    },
    {
      "geometry": {
        "type": "Point",
        "coordinates": [
          34.318959,
          30.775159
        ]
      },
      "type": "Feature",
      "properties": {
        "hierarchy": [
          "tgn:7530186",
          "tgn:7001242",
          "tgn:7016833",
          "tgn:7001335",
          "tgn:7029392"
        ],
        "placetype": [
          "aat:300379998"
        ],
        "id": 7530186,
        "name:xx": "Malḥi, Wâdi el-"
      }
    },
    {
      "geometry": {
        "type": "Point",
        "coordinates": [
          34.317028,
          30.774601
        ]
      },
      "type": "Feature",
      "properties": {
        "hierarchy": [
          "tgn:7530187",
          "tgn:7001242",
          "tgn:7016833",
          "tgn:7001335",
          "tgn:7029392"
        ],
        "placetype": [
          "aat:300379998"
        ],
        "id": 7530187,
        "name:xx": "A'shâ, Wâdi el-"
      }
    },
    {
      "geometry": {
        "type": "Point",
        "coordinates": [
          34.28776,
          30.81964
        ]
      },
      "type": "Feature",
      "properties": {
        "hierarchy": [
          "tgn:7530188",
          "tgn:7001242",
          "tgn:7016833",
          "tgn:7001335",
          "tgn:7029392"
        ],
        "placetype": [
          "aat:300379998"
        ],
        "id": 7530188,
        "name:xx": "Umm Bayāḑ, Wādī"
      }
    },
    {
      "geometry": {
        "type": "Point",
        "coordinates": [
          34.252996,
          30.822128
        ]
      },
      "type": "Feature",
      "properties": {
        "hierarchy": [
          "tgn:7530189",
          "tgn:7001242",
          "tgn:7016833",
          "tgn:7001335",
          "tgn:7029392"
        ],
        "placetype": [
          "aat:300379998"
        ],
        "id": 7530189,
        "name:xx": "Miḥrab, Wâdi el-"
      }
    }
  ]
}
