{
  "type": "FeatureCollection",
  "features": [
    {
      "geometry": {
        "type": "Point",
        "coordinates": [
          33.758345,
          25.770881
        ]
      },
      "type": "Feature",
      "properties": {
        "hierarchy": [
          "tgn:7534060",
          "tgn:7001242",
          "tgn:7001311",
          "tgn:7016833",
          "tgn:7029392"
        ],
        "placetype": [
          "aat:300379998"
        ],
        "name:en": "Maghrabîya, Wâdi el-",
        "id": 7534060
      }
    },
    {
      "geometry": {
        "type": "Point",
        "coordinates": [
          31.785025,
          29.393444
        ]
      },
      "type": "Feature",
      "properties": {
        "hierarchy": [
          "tgn:7534061",
          "tgn:7001242",
          "tgn:7016833",
          "tgn:7029392"
        ],
        "placetype": [
          "aat:300379998"
        ],
        "id": 7534061,
        "name:xx": "Maghra, Wādī al-"
      }
    },
    {
      "geometry": {
        "type": "Point",
        "coordinates": [
          29.906469,
          29.073381
        ]
      },
      "type": "Feature",
      "properties": {
        "hierarchy": [
          "tgn:7534062",
          "tgn:7001242",
          "tgn:7001105",
          "tgn:7016833",
          "tgn:7029392"
        ],
        "placetype": [
          "aat:300008777"
        ],
        "name:en": "Maghnîni, Qâret",
        "id": 7534062
      }
    },
    {
      "geometry": {
        "type": "Point",
        "coordinates": [
          30.527651,
          29.198405
        ]
      },
      "type": "Feature",
      "properties": {
        "hierarchy": [
          "tgn:7534063",
          "tgn:7001242",
          "tgn:7001105",
          "tgn:7016833",
          "tgn:7029392"
        ],
        "placetype": [
          "aat:300008777"
        ],
        "name:en": "Jibāl al Masākhīţ,'Ilwat",
        "id": 7534063
      }
    },
    {
      "geometry": {
        "type": "Point",
        "coordinates": [
          32.434194,
          29.800898
        ]
      },
      "type": "Feature",
      "properties": {
        "hierarchy": [
          "tgn:7534064",
          "tgn:7001242",
          "tgn:7016833",
          "tgn:1001110",
          "tgn:7029392"
        ],
        "placetype": [
          "aat:300379998"
        ],
        "name:en": "Jimāl, Wādī",
        "id": 7534064
      }
    },
    {
      "geometry": {
        "type": "Point",
        "coordinates": [
          35.095541,
          24.666586
        ]
      },
      "type": "Feature",
      "properties": {
        "hierarchy": [
          "tgn:7534065",
          "tgn:7001242",
          "tgn:7001311",
          "tgn:7016833",
          "tgn:7029392"
        ],
        "placetype": [
          "aat:300379998"
        ],
        "name:en": "Jimāl, Wādī",
        "id": 7534065
      }
    },
    {
      "geometry": {
        "type": "Point",
        "coordinates": [
          34.853697,
          23.109709
        ]
      },
      "type": "Feature",
      "properties": {
        "hierarchy": [
          "tgn:7534066",
          "tgn:7001242",
          "tgn:7001311",
          "tgn:7016833",
          "tgn:7029392"
        ],
        "placetype": [
          "aat:300379998"
        ],
        "name:en": "Jimāl, Wādī",
        "id": 7534066
      }
    },
    {
      "geometry": {
        "type": "Point",
        "coordinates": [
          34.87069,
          23.726941
        ]
      },
      "type": "Feature",
      "properties": {
        "hierarchy": [
          "tgn:7534067",
          "tgn:7001242",
          "tgn:7001311",
          "tgn:7016833",
          "tgn:7029392"
        ],
        "placetype": [
          "aat:300008795"
        ],
        "name:en": "Jimāl, 'Urf al",
        "id": 7534067
      }
    },
    {
      "geometry": {
        "type": "Point",
        "coordinates": [
          30.066667,
          30.583333
        ]
      },
      "type": "Feature",
      "properties": {
        "hierarchy": [
          "tgn:7534068",
          "tgn:7001242",
          "tgn:1001075",
          "tgn:7016833",
          "tgn:7029392"
        ],
        "placetype": [
          "aat:300008777"
        ],
        "name:en": "Jill, Tall al",
        "id": 7534068
      }
    },
    {
      "geometry": {
        "type": "Point",
        "coordinates": [
          25.941764,
          23.68222
        ]
      },
      "type": "Feature",
      "properties": {
        "hierarchy": [
          "tgn:7534069",
          "tgn:7001242",
          "tgn:7016833",
          "tgn:7001334",
          "tgn:7029392"
        ],
        "placetype": [
          "aat:300132339"
        ],
        "name:en": "Jilf al Kabīr, Haḑabat al",
        "id": 7534069
      }
    }
  ]
}
