{
  "type": "FeatureCollection",
  "features": [
    {
      "geometry": {
        "type": "Point",
        "coordinates": [
          31.486851,
          31.272583
        ]
      },
      "type": "Feature",
      "properties": {
        "hierarchy": [
          "tgn:7535590",
          "tgn:7001242",
          "tgn:1001059",
          "tgn:7016833",
          "tgn:7029392"
        ],
        "placetype": [
          "aat:300008347"
        ],
        "id": 7535590,
        "name:xx": "Kafr al Ḩājj Shirbīnī"
      }
    },
    {
      "geometry": {
        "type": "Point",
        "coordinates": [
          31.489973,
          30.786097
        ]
      },
      "type": "Feature",
      "properties": {
        "hierarchy": [
          "tgn:7535591",
          "tgn:7001242",
          "tgn:1001059",
          "tgn:7016833",
          "tgn:7029392"
        ],
        "placetype": [
          "aat:300008347"
        ],
        "name:en": "Kafr al Ḩājj Ḩasan",
        "id": 7535591
      }
    },
    {
      "geometry": {
        "type": "Point",
        "coordinates": [
          31.108193,
          30.672389
        ]
      },
      "type": "Feature",
      "properties": {
        "hierarchy": [
          "tgn:7535592",
          "tgn:7001242",
          "tgn:7016833",
          "tgn:7001312",
          "tgn:7029392"
        ],
        "placetype": [
          "aat:300008347"
        ],
        "name:en": "Kafr al Ḩājj Dā'ūd",
        "id": 7535592
      }
    },
    {
      "geometry": {
        "type": "Point",
        "coordinates": [
          31.816667,
          30.716667
        ]
      },
      "type": "Feature",
      "properties": {
        "hierarchy": [
          "tgn:7535593",
          "tgn:7001242",
          "tgn:7016833",
          "tgn:1001113",
          "tgn:7029392"
        ],
        "placetype": [
          "aat:300008347"
        ],
        "name:en": "Kafr al Ḩājjah 'Alīyah",
        "id": 7535593
      }
    },
    {
      "geometry": {
        "type": "Point",
        "coordinates": [
          30.617253,
          30.94083
        ]
      },
      "type": "Feature",
      "properties": {
        "hierarchy": [
          "tgn:7535594",
          "tgn:7001242",
          "tgn:1001075",
          "tgn:7016833",
          "tgn:7029392"
        ],
        "placetype": [
          "aat:300008347"
        ],
        "name:en": "Kafr al Ḩājjah",
        "id": 7535594
      }
    },
    {
      "geometry": {
        "type": "Point",
        "coordinates": [
          31.661219,
          30.875889
        ]
      },
      "type": "Feature",
      "properties": {
        "hierarchy": [
          "tgn:7535595",
          "tgn:7001242",
          "tgn:7016833",
          "tgn:1001113",
          "tgn:7029392"
        ],
        "placetype": [
          "aat:300008347"
        ],
        "id": 7535595,
        "name:xx": "Kafr al Ḩadīdī"
      }
    },
    {
      "geometry": {
        "type": "Point",
        "coordinates": [
          31.203344,
          30.366761
        ]
      },
      "type": "Feature",
      "properties": {
        "hierarchy": [
          "tgn:7535596",
          "tgn:7001242",
          "tgn:7016833",
          "tgn:1001092",
          "tgn:7029392"
        ],
        "placetype": [
          "aat:300008347"
        ],
        "id": 7535596,
        "name:xx": "Kafr al Ḩaddādīn"
      }
    },
    {
      "geometry": {
        "type": "Point",
        "coordinates": [
          30.932575,
          30.354896
        ]
      },
      "type": "Feature",
      "properties": {
        "hierarchy": [
          "tgn:7535597",
          "tgn:7001242",
          "tgn:7016833",
          "tgn:1001087",
          "tgn:7029392"
        ],
        "placetype": [
          "aat:300008347"
        ],
        "name:en": "Kafr al Ghurayyib",
        "id": 7535597
      }
    },
    {
      "geometry": {
        "type": "Point",
        "coordinates": [
          31.326087,
          30.492611
        ]
      },
      "type": "Feature",
      "properties": {
        "hierarchy": [
          "tgn:7535598",
          "tgn:7001242",
          "tgn:7016833",
          "tgn:1001113",
          "tgn:7029392"
        ],
        "placetype": [
          "aat:300008347"
        ],
        "name:en": "Kafr al Ghunaymī",
        "id": 7535598
      }
    },
    {
      "geometry": {
        "type": "Point",
        "coordinates": [
          28.616667,
          28.916667
        ]
      },
      "type": "Feature",
      "properties": {
        "hierarchy": [
          "tgn:7535599",
          "tgn:7001242",
          "tgn:7016833",
          "tgn:1001083",
          "tgn:7029392"
        ],
        "placetype": [
          "aat:300008777"
        ],
        "name:en": "Ghorûd, 'Ilw el-",
        "id": 7535599
      }
    }
  ]
}
