{
  "type": "FeatureCollection",
  "features": [
    {
      "geometry": {
        "type": "Point",
        "coordinates": [
          76.816667,
          9.383333
        ]
      },
      "type": "Feature",
      "properties": {
        "hierarchy": [
          "tgn:7557720",
          "tgn:1000004",
          "tgn:7000198",
          "tgn:1001886",
          "tgn:7029392"
        ],
        "placetype": [
          "aat:300008347"
        ],
        "name:en": "R훮n카",
        "id": 7557720
      }
    },
    {
      "geometry": {
        "type": "Point",
        "coordinates": [
          91.384714,
          25.339315
        ]
      },
      "type": "Feature",
      "properties": {
        "hierarchy": [
          "tgn:7557721",
          "tgn:1000004",
          "tgn:7000198",
          "tgn:1003539",
          "tgn:7029392"
        ],
        "placetype": [
          "aat:300008347"
        ],
        "name:en": "Rangthong",
        "id": 7557721
      }
    },
    {
      "geometry": {
        "type": "Point",
        "coordinates": [
          82.275254,
          21.215827
        ]
      },
      "type": "Feature",
      "properties": {
        "hierarchy": [
          "tgn:7557722",
          "tgn:1000004",
          "tgn:7031781",
          "tgn:7000198",
          "tgn:7029392"
        ],
        "placetype": [
          "aat:300008347"
        ],
        "name:en": "Patewa",
        "id": 7557722
      }
    },
    {
      "geometry": {
        "type": "Point",
        "coordinates": [
          84.800333,
          25.917464
        ]
      },
      "type": "Feature",
      "properties": {
        "hierarchy": [
          "tgn:7557723",
          "tgn:1000004",
          "tgn:1001842",
          "tgn:7000198",
          "tgn:7029392"
        ],
        "placetype": [
          "aat:300007783"
        ],
        "name:en": "Paterhi",
        "id": 7557723
      }
    },
    {
      "geometry": {
        "type": "Point",
        "coordinates": [
          79.686574,
          23.996189
        ]
      },
      "type": "Feature",
      "properties": {
        "hierarchy": [
          "tgn:7557724",
          "tgn:1000004",
          "tgn:7000198",
          "tgn:1001894",
          "tgn:7029392"
        ],
        "placetype": [
          "aat:300008347"
        ],
        "name:en": "Patera",
        "id": 7557724
      }
    },
    {
      "geometry": {
        "type": "Point",
        "coordinates": [
          88.871569,
          27.062957
        ]
      },
      "type": "Feature",
      "properties": {
        "hierarchy": [
          "tgn:7557725",
          "tgn:1000004",
          "tgn:7000198",
          "tgn:1001977",
          "tgn:7029392"
        ],
        "placetype": [
          "aat:300008347"
        ],
        "name:en": "Paten",
        "id": 7557725
      }
    },
    {
      "geometry": {
        "type": "Point",
        "coordinates": [
          81.155833,
          20.553889
        ]
      },
      "type": "Feature",
      "properties": {
        "hierarchy": [
          "tgn:7557726",
          "tgn:1000004",
          "tgn:7031781",
          "tgn:7000198",
          "tgn:7029392"
        ],
        "placetype": [
          "aat:300008347"
        ],
        "name:en": "Pateli",
        "id": 7557726
      }
    },
    {
      "geometry": {
        "type": "Point",
        "coordinates": [
          87.461653,
          26.251642
        ]
      },
      "type": "Feature",
      "properties": {
        "hierarchy": [
          "tgn:7557727",
          "tgn:1000004",
          "tgn:1001842",
          "tgn:7000198",
          "tgn:7029392"
        ],
        "placetype": [
          "aat:300008347"
        ],
        "name:en": "Pategna",
        "id": 7557727
      }
    },
    {
      "geometry": {
        "type": "Point",
        "coordinates": [
          82.45,
          20.35
        ]
      },
      "type": "Feature",
      "properties": {
        "hierarchy": [
          "tgn:7557728",
          "tgn:1000004",
          "tgn:7000198",
          "tgn:7016694",
          "tgn:7029392"
        ],
        "placetype": [
          "aat:300008347"
        ],
        "name:en": "P훮tdarha",
        "id": 7557728
      }
    },
    {
      "geometry": {
        "type": "Point",
        "coordinates": [
          78.483333,
          12.583333
        ]
      },
      "type": "Feature",
      "properties": {
        "hierarchy": [
          "tgn:7557729",
          "tgn:1000004",
          "tgn:7000198",
          "tgn:7001797",
          "tgn:7029392"
        ],
        "placetype": [
          "aat:300008347"
        ],
        "name:en": "Patch큰r",
        "id": 7557729
      }
    }
  ]
}
