{
  "type": "FeatureCollection",
  "features": [
    {
      "geometry": {
        "type": "Point",
        "coordinates": [
          -100.179167,
          26.781111
        ]
      },
      "type": "Feature",
      "properties": {
        "hierarchy": [
          "tgn:7419591",
          "tgn:1000001",
          "tgn:7005589",
          "tgn:7005560",
          "tgn:7029392"
        ],
        "placetype": [
          "aat:300008347"
        ],
        "id": 7419591,
        "name:es": "El Secuestado"
      }
    },
    {
      "geometry": {
        "type": "Point",
        "coordinates": [
          -100.125,
          26.849167
        ]
      },
      "type": "Feature",
      "properties": {
        "hierarchy": [
          "tgn:7419592",
          "tgn:1000001",
          "tgn:7005589",
          "tgn:7005560",
          "tgn:7029392"
        ],
        "placetype": [
          "aat:300008347"
        ],
        "id": 7419592,
        "name:es": "San Antonio de Lajitas"
      }
    },
    {
      "geometry": {
        "type": "Point",
        "coordinates": [
          -100.251389,
          26.859167
        ]
      },
      "type": "Feature",
      "properties": {
        "hierarchy": [
          "tgn:7419593",
          "tgn:1000001",
          "tgn:7005589",
          "tgn:7005560",
          "tgn:7029392"
        ],
        "placetype": [
          "aat:300008347"
        ],
        "id": 7419593,
        "name:es": "San Salvador"
      }
    },
    {
      "geometry": {
        "type": "Point",
        "coordinates": [
          -100.305556,
          26.843611
        ]
      },
      "type": "Feature",
      "properties": {
        "hierarchy": [
          "tgn:7419594",
          "tgn:1000001",
          "tgn:7005589",
          "tgn:7005560",
          "tgn:7029392"
        ],
        "placetype": [
          "aat:300008798"
        ],
        "id": 7419594,
        "name:es": "Treviño, Pico"
      }
    },
    {
      "geometry": {
        "type": "Point",
        "coordinates": [
          -100.449444,
          26.798056
        ]
      },
      "type": "Feature",
      "properties": {
        "hierarchy": [
          "tgn:7419595",
          "tgn:1000001",
          "tgn:7005589",
          "tgn:7005560",
          "tgn:7029392"
        ],
        "placetype": [
          "aat:300008347"
        ],
        "id": 7419595,
        "name:es": "El Sauz"
      }
    },
    {
      "geometry": {
        "type": "Point",
        "coordinates": [
          -100.750833,
          26.781111
        ]
      },
      "type": "Feature",
      "properties": {
        "hierarchy": [
          "tgn:7419596",
          "tgn:1000001",
          "tgn:7005589",
          "tgn:7005560",
          "tgn:7029392"
        ],
        "placetype": [
          "aat:300008699"
        ],
        "id": 7419596,
        "name:es": "La Víbora, Río"
      }
    },
    {
      "geometry": {
        "type": "Point",
        "coordinates": [
          -100.554167,
          26.840833
        ]
      },
      "type": "Feature",
      "properties": {
        "hierarchy": [
          "tgn:7419597",
          "tgn:1000001",
          "tgn:7005589",
          "tgn:7005560",
          "tgn:7029392"
        ],
        "placetype": [
          "aat:300008347"
        ],
        "id": 7419597,
        "name:es": "San Andrés"
      }
    },
    {
      "geometry": {
        "type": "Point",
        "coordinates": [
          -100.531111,
          26.823611
        ]
      },
      "type": "Feature",
      "properties": {
        "hierarchy": [
          "tgn:7419598",
          "tgn:1000001",
          "tgn:7005589",
          "tgn:7005560",
          "tgn:7029392"
        ],
        "placetype": [
          "aat:300008347"
        ],
        "id": 7419598,
        "name:es": "El Jaguey"
      }
    },
    {
      "geometry": {
        "type": "Point",
        "coordinates": [
          -100.561111,
          26.751389
        ]
      },
      "type": "Feature",
      "properties": {
        "hierarchy": [
          "tgn:7419599",
          "tgn:1000001",
          "tgn:7005589",
          "tgn:7005560",
          "tgn:7029392"
        ],
        "placetype": [
          "aat:300008347"
        ],
        "id": 7419599,
        "name:es": "Piedras Iman"
      }
    }
  ]
}
