{
  "type": "FeatureCollection",
  "features": [
    {
      "geometry": {
        "type": "Point",
        "coordinates": [
          120.681667,
          24.413333
        ]
      },
      "type": "Feature",
      "properties": {
        "hierarchy": [
          "tgn:7483420",
          "tgn:7487020",
          "tgn:1000004",
          "tgn:1000141",
          "tgn:7029392"
        ],
        "placetype": [
          "aat:300007836"
        ],
        "id": 7483420,
        "name:xx": "Dexi Qiao"
      }
    },
    {
      "geometry": {
        "type": "Point",
        "coordinates": [
          120.671111,
          24.414167
        ]
      },
      "type": "Feature",
      "properties": {
        "hierarchy": [
          "tgn:7483421",
          "tgn:7487020",
          "tgn:1000004",
          "tgn:1000141",
          "tgn:7029392"
        ],
        "placetype": [
          "aat:300007836"
        ],
        "id": 7483421,
        "name:xx": "Xingwang Qiao"
      }
    },
    {
      "geometry": {
        "type": "Point",
        "coordinates": [
          120.6575,
          24.416111
        ]
      },
      "type": "Feature",
      "properties": {
        "hierarchy": [
          "tgn:7483422",
          "tgn:7487020",
          "tgn:1000004",
          "tgn:1000141",
          "tgn:7029392"
        ],
        "placetype": [
          "aat:300007836"
        ],
        "id": 7483422,
        "name:xx": "Tianxin Yihao Qiao"
      }
    },
    {
      "geometry": {
        "type": "Point",
        "coordinates": [
          120.620278,
          24.416944
        ]
      },
      "type": "Feature",
      "properties": {
        "hierarchy": [
          "tgn:7483423",
          "tgn:7487020",
          "tgn:1000004",
          "tgn:1000141",
          "tgn:7029392"
        ],
        "placetype": [
          "aat:300007836"
        ],
        "id": 7483423,
        "name:xx": "Renhe Qiao"
      }
    },
    {
      "geometry": {
        "type": "Point",
        "coordinates": [
          120.613889,
          24.413333
        ]
      },
      "type": "Feature",
      "properties": {
        "hierarchy": [
          "tgn:7483424",
          "tgn:7487020",
          "tgn:1000004",
          "tgn:1000141",
          "tgn:7029392"
        ],
        "placetype": [
          "aat:300007595"
        ],
        "id": 7483424,
        "name:xx": "Jianxing Gong"
      }
    },
    {
      "geometry": {
        "type": "Point",
        "coordinates": [
          120.615,
          24.414167
        ]
      },
      "type": "Feature",
      "properties": {
        "hierarchy": [
          "tgn:7483425",
          "tgn:7487020",
          "tgn:1000004",
          "tgn:1000141",
          "tgn:7029392"
        ],
        "placetype": [
          "aat:300007836"
        ],
        "id": 7483425,
        "name:xx": "Jianxing Qiao"
      }
    },
    {
      "geometry": {
        "type": "Point",
        "coordinates": [
          120.643333,
          24.408611
        ]
      },
      "type": "Feature",
      "properties": {
        "hierarchy": [
          "tgn:7483426",
          "tgn:7487020",
          "tgn:1000004",
          "tgn:1000141",
          "tgn:7029392"
        ],
        "placetype": [
          "aat:300007836"
        ],
        "id": 7483426,
        "name:xx": "Wulipai Qiao"
      }
    },
    {
      "geometry": {
        "type": "Point",
        "coordinates": [
          120.662222,
          24.411389
        ]
      },
      "type": "Feature",
      "properties": {
        "hierarchy": [
          "tgn:7483427",
          "tgn:7487020",
          "tgn:1000004",
          "tgn:1000141",
          "tgn:7029392"
        ],
        "placetype": [
          "aat:300007836"
        ],
        "id": 7483427,
        "name:xx": "Yixin Qiao"
      }
    },
    {
      "geometry": {
        "type": "Point",
        "coordinates": [
          120.692222,
          24.474722
        ]
      },
      "type": "Feature",
      "properties": {
        "hierarchy": [
          "tgn:7483428",
          "tgn:7487020",
          "tgn:1000004",
          "tgn:1000141",
          "tgn:7029392"
        ],
        "placetype": [
          "aat:300007836"
        ],
        "id": 7483428,
        "name:xx": "Fude Qiao"
      }
    },
    {
      "geometry": {
        "type": "Point",
        "coordinates": [
          120.695556,
          24.403611
        ]
      },
      "type": "Feature",
      "properties": {
        "hierarchy": [
          "tgn:7483429",
          "tgn:7487020",
          "tgn:1000004",
          "tgn:1000141",
          "tgn:7029392"
        ],
        "placetype": [
          "aat:300007836"
        ],
        "id": 7483429,
        "name:xx": "Shinan Qiao"
      }
    }
  ]
}
