{
  "type": "FeatureCollection",
  "features": [
    {
      "geometry": {
        "type": "Point",
        "coordinates": [
          120.618889,
          23.126944
        ]
      },
      "type": "Feature",
      "properties": {
        "hierarchy": [
          "tgn:7484710",
          "tgn:7001004",
          "tgn:1000004",
          "tgn:1000141",
          "tgn:7029392"
        ],
        "placetype": [
          "aat:300008347"
        ],
        "id": 7484710,
        "name:xx": "Dongheliguan"
      }
    },
    {
      "geometry": {
        "type": "Point",
        "coordinates": [
          120.613889,
          23.119444
        ]
      },
      "type": "Feature",
      "properties": {
        "hierarchy": [
          "tgn:7484711",
          "tgn:7001004",
          "tgn:1000004",
          "tgn:1000141",
          "tgn:7029392"
        ],
        "placetype": [
          "aat:300008347"
        ],
        "id": 7484711,
        "name:xx": "Neixiongjiao"
      }
    },
    {
      "geometry": {
        "type": "Point",
        "coordinates": [
          120.601944,
          23.121667
        ]
      },
      "type": "Feature",
      "properties": {
        "hierarchy": [
          "tgn:7484712",
          "tgn:7001004",
          "tgn:1000004",
          "tgn:1000141",
          "tgn:7029392"
        ],
        "placetype": [
          "aat:300007836"
        ],
        "id": 7484712,
        "name:xx": "Ying Qiao"
      }
    },
    {
      "geometry": {
        "type": "Point",
        "coordinates": [
          120.605278,
          23.119722
        ]
      },
      "type": "Feature",
      "properties": {
        "hierarchy": [
          "tgn:7484713",
          "tgn:7001004",
          "tgn:1000004",
          "tgn:1000141",
          "tgn:7029392"
        ],
        "placetype": [
          "aat:300007836"
        ],
        "id": 7484713,
        "name:xx": "Guanxing Qiao"
      }
    },
    {
      "geometry": {
        "type": "Point",
        "coordinates": [
          120.583889,
          23.613611
        ]
      },
      "type": "Feature",
      "properties": {
        "hierarchy": [
          "tgn:7484714",
          "tgn:1000004",
          "tgn:7001014",
          "tgn:1000141",
          "tgn:7029392"
        ],
        "placetype": [
          "aat:300008347"
        ],
        "id": 7484714,
        "name:xx": "Neiguan"
      }
    },
    {
      "geometry": {
        "type": "Point",
        "coordinates": [
          121.200278,
          24.180833
        ]
      },
      "type": "Feature",
      "properties": {
        "hierarchy": [
          "tgn:7484715",
          "tgn:7488858",
          "tgn:1000004",
          "tgn:1000141",
          "tgn:7029392"
        ],
        "placetype": [
          "aat:300006495"
        ],
        "id": 7484715,
        "name:xx": "Lixing Guoxiao Fenxiao"
      }
    },
    {
      "geometry": {
        "type": "Point",
        "coordinates": [
          121.192778,
          24.190833
        ]
      },
      "type": "Feature",
      "properties": {
        "hierarchy": [
          "tgn:7484716",
          "tgn:7488858",
          "tgn:1000004",
          "tgn:1000141",
          "tgn:7029392"
        ],
        "placetype": [
          "aat:300387033"
        ],
        "id": 7484716,
        "name:xx": "Molike'an Shan"
      }
    },
    {
      "geometry": {
        "type": "Point",
        "coordinates": [
          121.13,
          24.197222
        ]
      },
      "type": "Feature",
      "properties": {
        "hierarchy": [
          "tgn:7484717",
          "tgn:7488858",
          "tgn:1000004",
          "tgn:1000141",
          "tgn:7029392"
        ],
        "placetype": [
          "aat:300008798"
        ],
        "id": 7484717,
        "name:xx": "Baigu Dashan Dongnanfeng"
      }
    },
    {
      "geometry": {
        "type": "Point",
        "coordinates": [
          121.141389,
          24.200556
        ]
      },
      "type": "Feature",
      "properties": {
        "hierarchy": [
          "tgn:7484718",
          "tgn:7488858",
          "tgn:1000004",
          "tgn:1000141",
          "tgn:7029392"
        ],
        "placetype": [
          "aat:300008798"
        ],
        "id": 7484718,
        "name:xx": "Baiguchi Shan"
      }
    },
    {
      "geometry": {
        "type": "Point",
        "coordinates": [
          121.142778,
          24.206111
        ]
      },
      "type": "Feature",
      "properties": {
        "hierarchy": [
          "tgn:7484719",
          "tgn:7488858",
          "tgn:1000004",
          "tgn:1000141",
          "tgn:7029392"
        ],
        "placetype": [
          "aat:300008798"
        ],
        "id": 7484719,
        "name:xx": "Baigu Dashan Zhongfeng"
      }
    }
  ]
}
