{
  "type": "FeatureCollection",
  "features": [
    {
      "geometry": {
        "type": "Point",
        "coordinates": [
          79.459883,
          26.443201
        ]
      },
      "type": "Feature",
      "properties": {
        "hierarchy": [
          "tgn:7565320",
          "tgn:1000004",
          "tgn:7000198",
          "tgn:7016722",
          "tgn:7029392"
        ],
        "placetype": [
          "aat:300008865"
        ],
        "name:en": "Basantpur Reserved Forest",
        "id": 7565320
      }
    },
    {
      "geometry": {
        "type": "Point",
        "coordinates": [
          79.469863,
          26.441578
        ]
      },
      "type": "Feature",
      "properties": {
        "hierarchy": [
          "tgn:7565321",
          "tgn:1000004",
          "tgn:7000198",
          "tgn:7016722",
          "tgn:7029392"
        ],
        "placetype": [
          "aat:300008865"
        ],
        "name:en": "Kharka Reserved Forest",
        "id": 7565321
      }
    },
    {
      "geometry": {
        "type": "Point",
        "coordinates": [
          79.495668,
          26.443169
        ]
      },
      "type": "Feature",
      "properties": {
        "hierarchy": [
          "tgn:7565322",
          "tgn:1000004",
          "tgn:7000198",
          "tgn:7016722",
          "tgn:7029392"
        ],
        "placetype": [
          "aat:300008347"
        ],
        "name:en": "Qasba Khānpur",
        "id": 7565322
      }
    },
    {
      "geometry": {
        "type": "Point",
        "coordinates": [
          79.48407,
          26.448429
        ]
      },
      "type": "Feature",
      "properties": {
        "hierarchy": [
          "tgn:7565323",
          "tgn:1000004",
          "tgn:7000198",
          "tgn:7016722",
          "tgn:7029392"
        ],
        "placetype": [
          "aat:300008347"
        ],
        "name:en": "Paighambarpur",
        "id": 7565323
      }
    },
    {
      "geometry": {
        "type": "Point",
        "coordinates": [
          79.49602,
          26.467922
        ]
      },
      "type": "Feature",
      "properties": {
        "hierarchy": [
          "tgn:7565324",
          "tgn:1000004",
          "tgn:7000198",
          "tgn:7016722",
          "tgn:7029392"
        ],
        "placetype": [
          "aat:300008347"
        ],
        "name:en": "Samrathpur",
        "id": 7565324
      }
    },
    {
      "geometry": {
        "type": "Point",
        "coordinates": [
          79.476234,
          26.457969
        ]
      },
      "type": "Feature",
      "properties": {
        "hierarchy": [
          "tgn:7565325",
          "tgn:1000004",
          "tgn:7000198",
          "tgn:7016722",
          "tgn:7029392"
        ],
        "placetype": [
          "aat:300008347"
        ],
        "name:en": "Dwārkāpur Auraiya",
        "id": 7565325
      }
    },
    {
      "geometry": {
        "type": "Point",
        "coordinates": [
          79.479073,
          26.468067
        ]
      },
      "type": "Feature",
      "properties": {
        "hierarchy": [
          "tgn:7565326",
          "tgn:1000004",
          "tgn:7000198",
          "tgn:7016722",
          "tgn:7029392"
        ],
        "placetype": [
          "aat:300008347"
        ],
        "name:en": "Ānepur",
        "id": 7565326
      }
    },
    {
      "geometry": {
        "type": "Point",
        "coordinates": [
          79.47329,
          26.45895
        ]
      },
      "type": "Feature",
      "properties": {
        "hierarchy": [
          "tgn:7565327",
          "tgn:1000004",
          "tgn:7000198",
          "tgn:7016722",
          "tgn:7029392"
        ],
        "placetype": [
          "aat:300008347"
        ],
        "name:en": "Mariyan Purwa",
        "id": 7565327
      }
    },
    {
      "geometry": {
        "type": "Point",
        "coordinates": [
          79.46985,
          26.461029
        ]
      },
      "type": "Feature",
      "properties": {
        "hierarchy": [
          "tgn:7565328",
          "tgn:1000004",
          "tgn:7000198",
          "tgn:7016722",
          "tgn:7029392"
        ],
        "placetype": [
          "aat:300008347"
        ],
        "name:en": "Kharka",
        "id": 7565328
      }
    },
    {
      "geometry": {
        "type": "Point",
        "coordinates": [
          79.466402,
          26.466403
        ]
      },
      "type": "Feature",
      "properties": {
        "hierarchy": [
          "tgn:7565329",
          "tgn:1000004",
          "tgn:7000198",
          "tgn:7016722",
          "tgn:7029392"
        ],
        "placetype": [
          "aat:300008347"
        ],
        "name:en": "Gohānān",
        "id": 7565329
      }
    }
  ]
}
