{
  "type": "FeatureCollection",
  "features": [
    {
      "geometry": {
        "type": "Point",
        "coordinates": [
          79.702884,
          27.513696
        ]
      },
      "type": "Feature",
      "properties": {
        "hierarchy": [
          "tgn:7561130",
          "tgn:1000004",
          "tgn:7000198",
          "tgn:7016722",
          "tgn:7029392"
        ],
        "placetype": [
          "aat:300008347"
        ],
        "name:en": "Ghatausa",
        "id": 7561130
      }
    },
    {
      "geometry": {
        "type": "Point",
        "coordinates": [
          79.699856,
          27.516529
        ]
      },
      "type": "Feature",
      "properties": {
        "hierarchy": [
          "tgn:7561131",
          "tgn:1000004",
          "tgn:7000198",
          "tgn:7016722",
          "tgn:7029392"
        ],
        "placetype": [
          "aat:300008347"
        ],
        "name:en": "Rāmpālpur",
        "id": 7561131
      }
    },
    {
      "geometry": {
        "type": "Point",
        "coordinates": [
          79.70155,
          27.539533
        ]
      },
      "type": "Feature",
      "properties": {
        "hierarchy": [
          "tgn:7561132",
          "tgn:1000004",
          "tgn:7000198",
          "tgn:7016722",
          "tgn:7029392"
        ],
        "placetype": [
          "aat:300008347"
        ],
        "name:en": "Gurdāspur",
        "id": 7561132
      }
    },
    {
      "geometry": {
        "type": "Point",
        "coordinates": [
          79.711249,
          27.54566
        ]
      },
      "type": "Feature",
      "properties": {
        "hierarchy": [
          "tgn:7561133",
          "tgn:1000004",
          "tgn:7000198",
          "tgn:7016722",
          "tgn:7029392"
        ],
        "placetype": [
          "aat:300008347"
        ],
        "name:en": "Gauntia",
        "id": 7561133
      }
    },
    {
      "geometry": {
        "type": "Point",
        "coordinates": [
          79.708967,
          27.554601
        ]
      },
      "type": "Feature",
      "properties": {
        "hierarchy": [
          "tgn:7561134",
          "tgn:1000004",
          "tgn:7000198",
          "tgn:7016722",
          "tgn:7029392"
        ],
        "placetype": [
          "aat:300008347"
        ],
        "name:en": "Gauntia Patti",
        "id": 7561134
      }
    },
    {
      "geometry": {
        "type": "Point",
        "coordinates": [
          79.696953,
          27.550041
        ]
      },
      "type": "Feature",
      "properties": {
        "hierarchy": [
          "tgn:7561135",
          "tgn:1000004",
          "tgn:7000198",
          "tgn:7016722",
          "tgn:7029392"
        ],
        "placetype": [
          "aat:300008347"
        ],
        "name:en": "Islāmganj",
        "id": 7561135
      }
    },
    {
      "geometry": {
        "type": "Point",
        "coordinates": [
          79.691195,
          27.553203
        ]
      },
      "type": "Feature",
      "properties": {
        "hierarchy": [
          "tgn:7561136",
          "tgn:1000004",
          "tgn:7000198",
          "tgn:7016722",
          "tgn:7029392"
        ],
        "placetype": [
          "aat:300008347"
        ],
        "name:en": "Mazra Islāmganj",
        "id": 7561136
      }
    },
    {
      "geometry": {
        "type": "Point",
        "coordinates": [
          79.694725,
          27.559984
        ]
      },
      "type": "Feature",
      "properties": {
        "hierarchy": [
          "tgn:7561137",
          "tgn:1000004",
          "tgn:7000198",
          "tgn:7016722",
          "tgn:7029392"
        ],
        "placetype": [
          "aat:300008347"
        ],
        "name:en": "Rāmnagar",
        "id": 7561137
      }
    },
    {
      "geometry": {
        "type": "Point",
        "coordinates": [
          79.68818,
          27.566431
        ]
      },
      "type": "Feature",
      "properties": {
        "hierarchy": [
          "tgn:7561138",
          "tgn:1000004",
          "tgn:7000198",
          "tgn:7016722",
          "tgn:7029392"
        ],
        "placetype": [
          "aat:300008347"
        ],
        "name:en": "Rājpur Kurāna",
        "id": 7561138
      }
    },
    {
      "geometry": {
        "type": "Point",
        "coordinates": [
          79.707439,
          27.564151
        ]
      },
      "type": "Feature",
      "properties": {
        "hierarchy": [
          "tgn:7561139",
          "tgn:1000004",
          "tgn:7000198",
          "tgn:7016722",
          "tgn:7029392"
        ],
        "placetype": [
          "aat:300008347"
        ],
        "name:en": "Bichola",
        "id": 7561139
      }
    }
  ]
}
