{
  "type": "FeatureCollection",
  "features": [
    {
      "geometry": {
        "type": "Point",
        "coordinates": [
          120.533607,
          22.8199
        ]
      },
      "type": "Feature",
      "properties": {
        "hierarchy": [
          "tgn:7498330",
          "tgn:1000004",
          "tgn:7492971",
          "tgn:1000141",
          "tgn:7029392"
        ],
        "placetype": [
          "aat:300008347"
        ],
        "id": 7498330,
        "name:xx": "Dingyuancun"
      }
    },
    {
      "geometry": {
        "type": "Point",
        "coordinates": [
          120.579847,
          22.869135
        ]
      },
      "type": "Feature",
      "properties": {
        "hierarchy": [
          "tgn:7498331",
          "tgn:1000004",
          "tgn:7492971",
          "tgn:1000141",
          "tgn:7029392"
        ],
        "placetype": [
          "aat:300007836"
        ],
        "id": 7498331,
        "name:xx": "Zhumen Qiao"
      }
    },
    {
      "geometry": {
        "type": "Point",
        "coordinates": [
          120.578678,
          22.865998
        ]
      },
      "type": "Feature",
      "properties": {
        "hierarchy": [
          "tgn:7498332",
          "tgn:1000004",
          "tgn:7492971",
          "tgn:1000141",
          "tgn:7029392"
        ],
        "placetype": [
          "aat:300007836"
        ],
        "id": 7498332,
        "name:xx": "Zhuguang Qiao"
      }
    },
    {
      "geometry": {
        "type": "Point",
        "coordinates": [
          120.537219,
          22.926076
        ]
      },
      "type": "Feature",
      "properties": {
        "hierarchy": [
          "tgn:7498333",
          "tgn:7001004",
          "tgn:1000004",
          "tgn:1000141",
          "tgn:7029392"
        ],
        "placetype": [
          "aat:300008798"
        ],
        "id": 7498333,
        "name:xx": "Shungfeng Shan"
      }
    },
    {
      "geometry": {
        "type": "Point",
        "coordinates": [
          120.522885,
          24.197118
        ]
      },
      "type": "Feature",
      "properties": {
        "hierarchy": [
          "tgn:7498334",
          "tgn:1000004",
          "tgn:7001009",
          "tgn:1000141",
          "tgn:7029392"
        ],
        "placetype": [
          "aat:300007836"
        ],
        "id": 7498334,
        "name:xx": "Longjing Erhao Qiao"
      }
    },
    {
      "geometry": {
        "type": "Point",
        "coordinates": [
          120.5237,
          24.2083
        ]
      },
      "type": "Feature",
      "properties": {
        "hierarchy": [
          "tgn:7498335",
          "tgn:1000004",
          "tgn:7001009",
          "tgn:1000141",
          "tgn:7029392"
        ],
        "placetype": [
          "aat:300007836"
        ],
        "id": 7498335,
        "name:xx": "Longjing Sanhao Qiao"
      }
    },
    {
      "geometry": {
        "type": "Point",
        "coordinates": [
          120.541981,
          24.20575
        ]
      },
      "type": "Feature",
      "properties": {
        "hierarchy": [
          "tgn:7498336",
          "tgn:1000004",
          "tgn:7001009",
          "tgn:1000141",
          "tgn:7029392"
        ],
        "placetype": [
          "aat:300007836"
        ],
        "id": 7498336,
        "name:xx": "Longshan Qiao"
      }
    },
    {
      "geometry": {
        "type": "Point",
        "coordinates": [
          120.5488,
          24.2061
        ]
      },
      "type": "Feature",
      "properties": {
        "hierarchy": [
          "tgn:7498337",
          "tgn:1000004",
          "tgn:7001009",
          "tgn:1000141",
          "tgn:7029392"
        ],
        "placetype": [
          "aat:300007836"
        ],
        "id": 7498337,
        "name:xx": "Lushan Qiao"
      }
    },
    {
      "geometry": {
        "type": "Point",
        "coordinates": [
          120.5705,
          24.214567
        ]
      },
      "type": "Feature",
      "properties": {
        "hierarchy": [
          "tgn:7498338",
          "tgn:1000004",
          "tgn:7001009",
          "tgn:1000141",
          "tgn:7029392"
        ],
        "placetype": [
          "aat:300007836"
        ],
        "id": 7498338,
        "name:xx": "Buzi Yihao Qiao"
      }
    },
    {
      "geometry": {
        "type": "Point",
        "coordinates": [
          120.542114,
          24.219228
        ]
      },
      "type": "Feature",
      "properties": {
        "hierarchy": [
          "tgn:7498339",
          "tgn:1000004",
          "tgn:7001009",
          "tgn:1000141",
          "tgn:7029392"
        ],
        "placetype": [
          "aat:300007836"
        ],
        "id": 7498339,
        "name:xx": "Anliang Qiao"
      }
    }
  ]
}
