{
  "type": "FeatureCollection",
  "features": [
    {
      "geometry": {
        "type": "Point",
        "coordinates": [
          -93.75,
          17.754167
        ]
      },
      "type": "Feature",
      "properties": {
        "hierarchy": [
          "tgn:7412350",
          "tgn:1000001",
          "tgn:7005596",
          "tgn:7005560",
          "tgn:7029392"
        ],
        "placetype": [
          "aat:300008347"
        ],
        "id": 7412350,
        "name:es": "El Recibo"
      }
    },
    {
      "geometry": {
        "type": "Point",
        "coordinates": [
          -93.775,
          17.754167
        ]
      },
      "type": "Feature",
      "properties": {
        "hierarchy": [
          "tgn:7412351",
          "tgn:1000001",
          "tgn:7005596",
          "tgn:7005560",
          "tgn:7029392"
        ],
        "placetype": [
          "aat:300007783"
        ],
        "id": 7412351,
        "name:es": "Estación Gaytán"
      }
    },
    {
      "geometry": {
        "type": "Point",
        "coordinates": [
          -93.804167,
          17.766667
        ]
      },
      "type": "Feature",
      "properties": {
        "hierarchy": [
          "tgn:7412352",
          "tgn:1000001",
          "tgn:7005596",
          "tgn:7005560",
          "tgn:7029392"
        ],
        "placetype": [
          "aat:300007783"
        ],
        "id": 7412352,
        "name:es": "Estación Héroe de Nacozari"
      }
    },
    {
      "geometry": {
        "type": "Point",
        "coordinates": [
          -93.829167,
          17.75
        ]
      },
      "type": "Feature",
      "properties": {
        "hierarchy": [
          "tgn:7412353",
          "tgn:1000001",
          "tgn:7005596",
          "tgn:7005560",
          "tgn:7029392"
        ],
        "placetype": [
          "aat:300008347"
        ],
        "id": 7412353,
        "name:es": "Gaytán"
      }
    },
    {
      "geometry": {
        "type": "Point",
        "coordinates": [
          -93.866667,
          17.754167
        ]
      },
      "type": "Feature",
      "properties": {
        "hierarchy": [
          "tgn:7412354",
          "tgn:1000001",
          "tgn:7005596",
          "tgn:7005560",
          "tgn:7029392"
        ],
        "placetype": [
          "aat:300008347"
        ],
        "id": 7412354,
        "name:es": "Guadalupe Victoria"
      }
    },
    {
      "geometry": {
        "type": "Point",
        "coordinates": [
          -93.9125,
          17.754167
        ]
      },
      "type": "Feature",
      "properties": {
        "hierarchy": [
          "tgn:7412355",
          "tgn:1000001",
          "tgn:7005596",
          "tgn:7005560",
          "tgn:7029392"
        ],
        "placetype": [
          "aat:300008347"
        ],
        "id": 7412355,
        "name:es": "El Relajo"
      }
    },
    {
      "geometry": {
        "type": "Point",
        "coordinates": [
          -93.8375,
          17.725
        ]
      },
      "type": "Feature",
      "properties": {
        "hierarchy": [
          "tgn:7412356",
          "tgn:1000001",
          "tgn:7005596",
          "tgn:7005560",
          "tgn:7029392"
        ],
        "placetype": [
          "aat:300008347"
        ],
        "id": 7412356,
        "name:es": "Francisco Martínez Gaytán"
      }
    },
    {
      "geometry": {
        "type": "Point",
        "coordinates": [
          -93.941667,
          17.770833
        ]
      },
      "type": "Feature",
      "properties": {
        "hierarchy": [
          "tgn:7412357",
          "tgn:1000001",
          "tgn:7005596",
          "tgn:7005560",
          "tgn:7029392"
        ],
        "placetype": [
          "aat:300008347"
        ],
        "id": 7412357,
        "name:es": "El Fronterizo"
      }
    },
    {
      "geometry": {
        "type": "Point",
        "coordinates": [
          -93.908333,
          17.779167
        ]
      },
      "type": "Feature",
      "properties": {
        "hierarchy": [
          "tgn:7412358",
          "tgn:1000001",
          "tgn:7005596",
          "tgn:7005560",
          "tgn:7029392"
        ],
        "placetype": [
          "aat:300008347"
        ],
        "id": 7412358,
        "name:es": "Francisco Villa"
      }
    },
    {
      "geometry": {
        "type": "Point",
        "coordinates": [
          -93.791667,
          17.779167
        ]
      },
      "type": "Feature",
      "properties": {
        "hierarchy": [
          "tgn:7412359",
          "tgn:1000001",
          "tgn:7005596",
          "tgn:7005560",
          "tgn:7029392"
        ],
        "placetype": [
          "aat:300008699"
        ],
        "id": 7412359,
        "name:es": "Prieto, Arroyo"
      }
    }
  ]
}
