{
  "type": "FeatureCollection",
  "features": [
    {
      "geometry": {
        "type": "Point",
        "coordinates": [
          78.845556,
          17.515556
        ]
      },
      "type": "Feature",
      "properties": {
        "hierarchy": [
          "tgn:7570040",
          "tgn:1001828",
          "tgn:1000004",
          "tgn:7000198",
          "tgn:7029392"
        ],
        "placetype": [
          "aat:300008347"
        ],
        "name:en": "Anantāram",
        "id": 7570040
      }
    },
    {
      "geometry": {
        "type": "Point",
        "coordinates": [
          78.750833,
          17.998611
        ]
      },
      "type": "Feature",
      "properties": {
        "hierarchy": [
          "tgn:7570041",
          "tgn:1001828",
          "tgn:1000004",
          "tgn:7000198",
          "tgn:7029392"
        ],
        "placetype": [
          "aat:300008347"
        ],
        "name:en": "Anantagiripalli",
        "id": 7570041
      }
    },
    {
      "geometry": {
        "type": "Point",
        "coordinates": [
          78.652778,
          17.948333
        ]
      },
      "type": "Feature",
      "properties": {
        "hierarchy": [
          "tgn:7570042",
          "tgn:1001828",
          "tgn:1000004",
          "tgn:7000198",
          "tgn:7029392"
        ],
        "placetype": [
          "aat:300008347"
        ],
        "name:en": "Anājpur",
        "id": 7570042
      }
    },
    {
      "geometry": {
        "type": "Point",
        "coordinates": [
          78.24,
          17.941389
        ]
      },
      "type": "Feature",
      "properties": {
        "hierarchy": [
          "tgn:7570043",
          "tgn:1001828",
          "tgn:1000004",
          "tgn:7000198",
          "tgn:7029392"
        ],
        "placetype": [
          "aat:300008347"
        ],
        "name:en": "Amsānpalli",
        "id": 7570043
      }
    },
    {
      "geometry": {
        "type": "Point",
        "coordinates": [
          78.571667,
          17.776667
        ]
      },
      "type": "Feature",
      "properties": {
        "hierarchy": [
          "tgn:7570044",
          "tgn:1001828",
          "tgn:1000004",
          "tgn:7000198",
          "tgn:7029392"
        ],
        "placetype": [
          "aat:300008347"
        ],
        "name:en": "Ambarpet",
        "id": 7570044
      }
    },
    {
      "geometry": {
        "type": "Point",
        "coordinates": [
          78.398889,
          17.509444
        ]
      },
      "type": "Feature",
      "properties": {
        "hierarchy": [
          "tgn:7570045",
          "tgn:1001828",
          "tgn:1000004",
          "tgn:7000198",
          "tgn:7029392"
        ],
        "placetype": [
          "aat:300008680"
        ],
        "name:en": "Ambīr Cheruvu",
        "id": 7570045
      }
    },
    {
      "geometry": {
        "type": "Point",
        "coordinates": [
          78.514167,
          17.518611
        ]
      },
      "type": "Feature",
      "properties": {
        "hierarchy": [
          "tgn:7570046",
          "tgn:1001828",
          "tgn:1000004",
          "tgn:7000198",
          "tgn:7029392"
        ],
        "placetype": [
          "aat:300007783"
        ],
        "name:en": "Alwāl Railroad Station",
        "id": 7570046
      }
    },
    {
      "geometry": {
        "type": "Point",
        "coordinates": [
          78.081667,
          17.548611
        ]
      },
      "type": "Feature",
      "properties": {
        "hierarchy": [
          "tgn:7570047",
          "tgn:1001828",
          "tgn:1000004",
          "tgn:7000198",
          "tgn:7029392"
        ],
        "placetype": [
          "aat:300008347"
        ],
        "name:en": "Alūr",
        "id": 7570047
      }
    },
    {
      "geometry": {
        "type": "Point",
        "coordinates": [
          78.094167,
          17.776389
        ]
      },
      "type": "Feature",
      "properties": {
        "hierarchy": [
          "tgn:7570048",
          "tgn:1001828",
          "tgn:1000004",
          "tgn:7000198",
          "tgn:7029392"
        ],
        "placetype": [
          "aat:300008347"
        ],
        "name:en": "Almaipet",
        "id": 7570048
      }
    },
    {
      "geometry": {
        "type": "Point",
        "coordinates": [
          78.781389,
          17.787222
        ]
      },
      "type": "Feature",
      "properties": {
        "hierarchy": [
          "tgn:7570049",
          "tgn:1001828",
          "tgn:1000004",
          "tgn:7000198",
          "tgn:7029392"
        ],
        "placetype": [
          "aat:300008347"
        ],
        "name:en": "Alirājāpet",
        "id": 7570049
      }
    }
  ]
}
