{
  "type": "FeatureCollection",
  "features": [
    {
      "geometry": {
        "type": "Point",
        "coordinates": [
          76.939534,
          30.521103
        ]
      },
      "type": "Feature",
      "properties": {
        "hierarchy": [
          "tgn:7582260",
          "tgn:1000004",
          "tgn:1001871",
          "tgn:7000198",
          "tgn:7029392"
        ],
        "placetype": [
          "aat:300008347"
        ],
        "name:en": "Nay훮gaon",
        "id": 7582260
      }
    },
    {
      "geometry": {
        "type": "Point",
        "coordinates": [
          76.973853,
          30.53063
        ]
      },
      "type": "Feature",
      "properties": {
        "hierarchy": [
          "tgn:7582261",
          "tgn:1000004",
          "tgn:1001871",
          "tgn:7000198",
          "tgn:7029392"
        ],
        "placetype": [
          "aat:300008347"
        ],
        "name:en": "Sati",
        "id": 7582261
      }
    },
    {
      "geometry": {
        "type": "Point",
        "coordinates": [
          76.975757,
          30.528473
        ]
      },
      "type": "Feature",
      "properties": {
        "hierarchy": [
          "tgn:7582262",
          "tgn:1000004",
          "tgn:1001871",
          "tgn:7000198",
          "tgn:7029392"
        ],
        "placetype": [
          "aat:300008347"
        ],
        "name:en": "Mauli",
        "id": 7582262
      }
    },
    {
      "geometry": {
        "type": "Point",
        "coordinates": [
          76.986894,
          30.506152
        ]
      },
      "type": "Feature",
      "properties": {
        "hierarchy": [
          "tgn:7582263",
          "tgn:1000004",
          "tgn:1001871",
          "tgn:7000198",
          "tgn:7029392"
        ],
        "placetype": [
          "aat:300008347"
        ],
        "name:en": "Golpura",
        "id": 7582263
      }
    },
    {
      "geometry": {
        "type": "Point",
        "coordinates": [
          76.981116,
          30.500588
        ]
      },
      "type": "Feature",
      "properties": {
        "hierarchy": [
          "tgn:7582264",
          "tgn:1000004",
          "tgn:1001871",
          "tgn:7000198",
          "tgn:7029392"
        ],
        "placetype": [
          "aat:300008347"
        ],
        "name:en": "Bahbalpur",
        "id": 7582264
      }
    },
    {
      "geometry": {
        "type": "Point",
        "coordinates": [
          76.954432,
          30.50578
        ]
      },
      "type": "Feature",
      "properties": {
        "hierarchy": [
          "tgn:7582265",
          "tgn:1000004",
          "tgn:1001871",
          "tgn:7000198",
          "tgn:7029392"
        ],
        "placetype": [
          "aat:300008347"
        ],
        "name:en": "Sati",
        "id": 7582265
      }
    },
    {
      "geometry": {
        "type": "Point",
        "coordinates": [
          76.954762,
          30.506795
        ]
      },
      "type": "Feature",
      "properties": {
        "hierarchy": [
          "tgn:7582266",
          "tgn:1000004",
          "tgn:1001871",
          "tgn:7000198",
          "tgn:7029392"
        ],
        "placetype": [
          "aat:300008347"
        ],
        "name:en": "Natw훮l",
        "id": 7582266
      }
    },
    {
      "geometry": {
        "type": "Point",
        "coordinates": [
          76.94881,
          30.500978
        ]
      },
      "type": "Feature",
      "properties": {
        "hierarchy": [
          "tgn:7582267",
          "tgn:1000004",
          "tgn:1001871",
          "tgn:7000198",
          "tgn:7029392"
        ],
        "placetype": [
          "aat:300008347"
        ],
        "name:en": "Toda",
        "id": 7582267
      }
    },
    {
      "geometry": {
        "type": "Point",
        "coordinates": [
          76.924501,
          30.509657
        ]
      },
      "type": "Feature",
      "properties": {
        "hierarchy": [
          "tgn:7582268",
          "tgn:1000004",
          "tgn:7000198",
          "tgn:7016883",
          "tgn:7029392"
        ],
        "placetype": [
          "aat:300008347"
        ],
        "name:en": "Har카pur",
        "id": 7582268
      }
    },
    {
      "geometry": {
        "type": "Point",
        "coordinates": [
          76.911772,
          30.510845
        ]
      },
      "type": "Feature",
      "properties": {
        "hierarchy": [
          "tgn:7582269",
          "tgn:1000004",
          "tgn:7000198",
          "tgn:7016883",
          "tgn:7029392"
        ],
        "placetype": [
          "aat:300008347"
        ],
        "name:en": "Bh큰khri",
        "id": 7582269
      }
    }
  ]
}
