{
  "type": "FeatureCollection",
  "features": [
    {
      "geometry": {
        "type": "Point",
        "coordinates": [
          -97.638333,
          16.546944
        ]
      },
      "type": "Feature",
      "properties": {
        "hierarchy": [
          "tgn:7417380",
          "tgn:1000001",
          "tgn:7005591",
          "tgn:7005560",
          "tgn:7029392"
        ],
        "placetype": [
          "aat:300008347"
        ],
        "id": 7417380,
        "name:es": "El Guamuchil"
      }
    },
    {
      "geometry": {
        "type": "Point",
        "coordinates": [
          -97.4425,
          16.499444
        ]
      },
      "type": "Feature",
      "properties": {
        "hierarchy": [
          "tgn:7417381",
          "tgn:1000001",
          "tgn:7005591",
          "tgn:7005560",
          "tgn:7029392"
        ],
        "placetype": [
          "aat:300008347"
        ],
        "id": 7417381,
        "name:es": "San Lucas"
      }
    },
    {
      "geometry": {
        "type": "Point",
        "coordinates": [
          -97.659167,
          16.4525
        ]
      },
      "type": "Feature",
      "properties": {
        "hierarchy": [
          "tgn:7417382",
          "tgn:1000001",
          "tgn:7005591",
          "tgn:7005560",
          "tgn:7029392"
        ],
        "placetype": [
          "aat:300008347"
        ],
        "id": 7417382,
        "name:es": "La Soledad"
      }
    },
    {
      "geometry": {
        "type": "Point",
        "coordinates": [
          -97.656111,
          16.413889
        ]
      },
      "type": "Feature",
      "properties": {
        "hierarchy": [
          "tgn:7417383",
          "tgn:1000001",
          "tgn:7005591",
          "tgn:7005560",
          "tgn:7029392"
        ],
        "placetype": [
          "aat:300008347"
        ],
        "id": 7417383,
        "name:es": "San Isidro del Parral"
      }
    },
    {
      "geometry": {
        "type": "Point",
        "coordinates": [
          -97.553056,
          16.415833
        ]
      },
      "type": "Feature",
      "properties": {
        "hierarchy": [
          "tgn:7417384",
          "tgn:1000001",
          "tgn:7005591",
          "tgn:7005560",
          "tgn:7029392"
        ],
        "placetype": [
          "aat:300008347"
        ],
        "id": 7417384,
        "name:es": "Cofradía"
      }
    },
    {
      "geometry": {
        "type": "Point",
        "coordinates": [
          -97.531111,
          16.449167
        ]
      },
      "type": "Feature",
      "properties": {
        "hierarchy": [
          "tgn:7417385",
          "tgn:1000001",
          "tgn:7005591",
          "tgn:7005560",
          "tgn:7029392"
        ],
        "placetype": [
          "aat:300008347"
        ],
        "id": 7417385,
        "name:es": "Llano Vibora"
      }
    },
    {
      "geometry": {
        "type": "Point",
        "coordinates": [
          -97.501111,
          16.46
        ]
      },
      "type": "Feature",
      "properties": {
        "hierarchy": [
          "tgn:7417386",
          "tgn:1000001",
          "tgn:7005591",
          "tgn:7005560",
          "tgn:7029392"
        ],
        "placetype": [
          "aat:300008347"
        ],
        "id": 7417386,
        "name:es": "Santa Maía"
      }
    },
    {
      "geometry": {
        "type": "Point",
        "coordinates": [
          -97.531111,
          16.516111
        ]
      },
      "type": "Feature",
      "properties": {
        "hierarchy": [
          "tgn:7417387",
          "tgn:1000001",
          "tgn:7005591",
          "tgn:7005560",
          "tgn:7029392"
        ],
        "placetype": [
          "aat:300008347"
        ],
        "id": 7417387,
        "name:es": "Quincuaná"
      }
    },
    {
      "geometry": {
        "type": "Point",
        "coordinates": [
          -97.447222,
          16.531111
        ]
      },
      "type": "Feature",
      "properties": {
        "hierarchy": [
          "tgn:7417388",
          "tgn:1000001",
          "tgn:7005591",
          "tgn:7005560",
          "tgn:7029392"
        ],
        "placetype": [
          "aat:300008347"
        ],
        "id": 7417388,
        "name:es": "Carrizal"
      }
    },
    {
      "geometry": {
        "type": "Point",
        "coordinates": [
          -101.093611,
          20.641667
        ]
      },
      "type": "Feature",
      "properties": {
        "hierarchy": [
          "tgn:7417389",
          "tgn:7005584",
          "tgn:1000001",
          "tgn:7005560",
          "tgn:7029392"
        ],
        "placetype": [
          "aat:300008347"
        ],
        "id": 7417389,
        "name:xx": "Majadas de Arcón"
      }
    }
  ]
}
