{
  "type": "FeatureCollection",
  "features": [
    {
      "geometry": {
        "type": "Point",
        "coordinates": [
          75.183333,
          19.166667
        ]
      },
      "type": "Feature",
      "properties": {
        "hierarchy": [
          "tgn:7557840",
          "tgn:1000004",
          "tgn:7000198",
          "tgn:1001895",
          "tgn:7029392"
        ],
        "placetype": [
          "aat:300008347"
        ],
        "name:en": "Pāthardi",
        "id": 7557840
      }
    },
    {
      "geometry": {
        "type": "Point",
        "coordinates": [
          83.922911,
          26.568554
        ]
      },
      "type": "Feature",
      "properties": {
        "hierarchy": [
          "tgn:7557841",
          "tgn:1000004",
          "tgn:7000198",
          "tgn:7016722",
          "tgn:7029392"
        ],
        "placetype": [
          "aat:300008347"
        ],
        "name:en": "Pathardewa",
        "id": 7557841
      }
    },
    {
      "geometry": {
        "type": "Point",
        "coordinates": [
          76.783333,
          9.266667
        ]
      },
      "type": "Feature",
      "properties": {
        "hierarchy": [
          "tgn:7557842",
          "tgn:1000004",
          "tgn:7000198",
          "tgn:1001886",
          "tgn:7029392"
        ],
        "placetype": [
          "aat:300008347"
        ],
        "name:en": "Pathanāmthitta",
        "id": 7557842
      }
    },
    {
      "geometry": {
        "type": "Point",
        "coordinates": [
          88.068424,
          26.399471
        ]
      },
      "type": "Feature",
      "properties": {
        "hierarchy": [
          "tgn:7557843",
          "tgn:1000004",
          "tgn:1001842",
          "tgn:7000198",
          "tgn:7029392"
        ],
        "placetype": [
          "aat:300008347"
        ],
        "name:en": "Pathāmāri",
        "id": 7557843
      }
    },
    {
      "geometry": {
        "type": "Point",
        "coordinates": [
          94.293297,
          27.425504
        ]
      },
      "type": "Feature",
      "properties": {
        "hierarchy": [
          "tgn:7557844",
          "tgn:1000004",
          "tgn:1001832",
          "tgn:7000198",
          "tgn:7029392"
        ],
        "placetype": [
          "aat:300008347"
        ],
        "name:en": "Pathālipām",
        "id": 7557844
      }
    },
    {
      "geometry": {
        "type": "Point",
        "coordinates": [
          77.013985,
          25.851718
        ]
      },
      "type": "Feature",
      "properties": {
        "hierarchy": [
          "tgn:7557846",
          "tgn:1000004",
          "tgn:7000198",
          "tgn:1001894",
          "tgn:7029392"
        ],
        "placetype": [
          "aat:300008347"
        ],
        "name:en": "Pathāko",
        "id": 7557846
      }
    },
    {
      "geometry": {
        "type": "Point",
        "coordinates": [
          78.67955,
          24.49935
        ]
      },
      "type": "Feature",
      "properties": {
        "hierarchy": [
          "tgn:7557847",
          "tgn:1000004",
          "tgn:7000198",
          "tgn:7016722",
          "tgn:7029392"
        ],
        "placetype": [
          "aat:300008347"
        ],
        "name:en": "Patha",
        "id": 7557847
      }
    },
    {
      "geometry": {
        "type": "Point",
        "coordinates": [
          90.230993,
          26.569455
        ]
      },
      "type": "Feature",
      "properties": {
        "hierarchy": [
          "tgn:7557848",
          "tgn:1000004",
          "tgn:1001832",
          "tgn:7000198",
          "tgn:7029392"
        ],
        "placetype": [
          "aat:300008347"
        ],
        "name:en": "Pātgaon",
        "id": 7557848
      }
    },
    {
      "geometry": {
        "type": "Point",
        "coordinates": [
          73.95,
          16.116667
        ]
      },
      "type": "Feature",
      "properties": {
        "hierarchy": [
          "tgn:7557849",
          "tgn:1000004",
          "tgn:7000198",
          "tgn:1001895",
          "tgn:7029392"
        ],
        "placetype": [
          "aat:300008347"
        ],
        "name:en": "Pātgaon",
        "id": 7557849
      }
    }
  ]
}
