{
  "type": "FeatureCollection",
  "features": [
    {
      "geometry": {
        "type": "Point",
        "coordinates": [
          120.111389,
          23.237222
        ]
      },
      "type": "Feature",
      "properties": {
        "hierarchy": [
          "tgn:7482500",
          "tgn:1000004",
          "tgn:7490934",
          "tgn:1000141",
          "tgn:7029392"
        ],
        "placetype": [
          "aat:300007595"
        ],
        "id": 7482500,
        "name:xx": "Cilong Gong"
      }
    },
    {
      "geometry": {
        "type": "Point",
        "coordinates": [
          120.503056,
          24.294722
        ]
      },
      "type": "Feature",
      "properties": {
        "hierarchy": [
          "tgn:7482501",
          "tgn:1000004",
          "tgn:7001009",
          "tgn:1000141",
          "tgn:7029392"
        ],
        "placetype": [
          "aat:300006137"
        ],
        "id": 7482501,
        "name:xx": "Bei Fangboti"
      }
    },
    {
      "geometry": {
        "type": "Point",
        "coordinates": [
          120.502778,
          24.286111
        ]
      },
      "type": "Feature",
      "properties": {
        "hierarchy": [
          "tgn:7482502",
          "tgn:1000004",
          "tgn:7001009",
          "tgn:1000141",
          "tgn:7029392"
        ],
        "placetype": [
          "aat:300006137"
        ],
        "id": 7482502,
        "name:xx": "Nan Fangboti"
      }
    },
    {
      "geometry": {
        "type": "Point",
        "coordinates": [
          118.23596,
          24.410785
        ]
      },
      "type": "Feature",
      "properties": {
        "hierarchy": [
          "tgn:7482503",
          "tgn:7469009",
          "tgn:1000004",
          "tgn:1000141",
          "tgn:7029392"
        ],
        "placetype": [
          "aat:300387036"
        ],
        "id": 7482503,
        "name:xx": "Xiaojinmen Tan"
      }
    },
    {
      "geometry": {
        "type": "Point",
        "coordinates": [
          118.410139,
          24.487547
        ]
      },
      "type": "Feature",
      "properties": {
        "hierarchy": [
          "tgn:7482504",
          "tgn:7469009",
          "tgn:1000004",
          "tgn:1000141",
          "tgn:7029392"
        ],
        "placetype": [
          "aat:300008680"
        ],
        "id": 7482504,
        "name:xx": "Rong Hu"
      }
    },
    {
      "geometry": {
        "type": "Point",
        "coordinates": [
          118.396207,
          24.490527
        ]
      },
      "type": "Feature",
      "properties": {
        "hierarchy": [
          "tgn:7482505",
          "tgn:7469009",
          "tgn:1000004",
          "tgn:1000141",
          "tgn:7029392"
        ],
        "placetype": [
          "aat:300008347"
        ],
        "id": 7482505,
        "name:xx": "Yingshan"
      }
    },
    {
      "geometry": {
        "type": "Point",
        "coordinates": [
          118.232077,
          24.418826
        ]
      },
      "type": "Feature",
      "properties": {
        "hierarchy": [
          "tgn:7482506",
          "tgn:7469009",
          "tgn:1000004",
          "tgn:1000141",
          "tgn:7029392"
        ],
        "placetype": [
          "aat:300008347"
        ],
        "id": 7482506,
        "name:xx": "Yangcuo"
      }
    },
    {
      "geometry": {
        "type": "Point",
        "coordinates": [
          118.392,
          24.492917
        ]
      },
      "type": "Feature",
      "properties": {
        "hierarchy": [
          "tgn:7482507",
          "tgn:7469009",
          "tgn:1000004",
          "tgn:1000141",
          "tgn:7029392"
        ],
        "placetype": [
          "aat:300132316"
        ],
        "id": 7482507,
        "name:xx": "Yangshan Wan"
      }
    },
    {
      "geometry": {
        "type": "Point",
        "coordinates": [
          118.212381,
          24.412205
        ]
      },
      "type": "Feature",
      "properties": {
        "hierarchy": [
          "tgn:7482508",
          "tgn:7469009",
          "tgn:1000004",
          "tgn:1000141",
          "tgn:7029392"
        ],
        "placetype": [
          "aat:300008347"
        ],
        "id": 7482508,
        "name:xx": "Wuzuiwei"
      }
    },
    {
      "geometry": {
        "type": "Point",
        "coordinates": [
          118.295278,
          24.468056
        ]
      },
      "type": "Feature",
      "properties": {
        "hierarchy": [
          "tgn:7482509",
          "tgn:7469009",
          "tgn:1000004",
          "tgn:1000141",
          "tgn:7029392"
        ],
        "placetype": [
          "aat:300008347"
        ],
        "id": 7482509,
        "name:xx": "Wushazui"
      }
    }
  ]
}
