{
  "type": "FeatureCollection",
  "features": [
    {
      "geometry": {
        "type": "Point",
        "coordinates": [
          78.933333,
          17.265
        ]
      },
      "type": "Feature",
      "properties": {
        "hierarchy": [
          "tgn:7569330",
          "tgn:1001828",
          "tgn:1000004",
          "tgn:7000198",
          "tgn:7029392"
        ],
        "placetype": [
          "aat:300008347"
        ],
        "name:en": "Lingojiguda",
        "id": 7569330
      }
    },
    {
      "geometry": {
        "type": "Point",
        "coordinates": [
          78.882778,
          17.268333
        ]
      },
      "type": "Feature",
      "properties": {
        "hierarchy": [
          "tgn:7569331",
          "tgn:1001828",
          "tgn:1000004",
          "tgn:7000198",
          "tgn:7029392"
        ],
        "placetype": [
          "aat:300008347"
        ],
        "name:en": "Lakk훮ram",
        "id": 7569331
      }
    },
    {
      "geometry": {
        "type": "Point",
        "coordinates": [
          78.840833,
          17.2675
        ]
      },
      "type": "Feature",
      "properties": {
        "hierarchy": [
          "tgn:7569332",
          "tgn:1001828",
          "tgn:1000004",
          "tgn:7000198",
          "tgn:7029392"
        ],
        "placetype": [
          "aat:300008347"
        ],
        "name:en": "Yellargiri",
        "id": 7569332
      }
    },
    {
      "geometry": {
        "type": "Point",
        "coordinates": [
          78.84,
          17.286389
        ]
      },
      "type": "Feature",
      "properties": {
        "hierarchy": [
          "tgn:7569333",
          "tgn:1001828",
          "tgn:1000004",
          "tgn:7000198",
          "tgn:7029392"
        ],
        "placetype": [
          "aat:300008347"
        ],
        "name:en": "Antammagudam",
        "id": 7569333
      }
    },
    {
      "geometry": {
        "type": "Point",
        "coordinates": [
          78.808611,
          17.3225
        ]
      },
      "type": "Feature",
      "properties": {
        "hierarchy": [
          "tgn:7569334",
          "tgn:1001828",
          "tgn:1000004",
          "tgn:7000198",
          "tgn:7029392"
        ],
        "placetype": [
          "aat:300008347"
        ],
        "name:en": "T큰rkaguda",
        "id": 7569334
      }
    },
    {
      "geometry": {
        "type": "Point",
        "coordinates": [
          78.776389,
          17.342778
        ]
      },
      "type": "Feature",
      "properties": {
        "hierarchy": [
          "tgn:7569335",
          "tgn:1001828",
          "tgn:1000004",
          "tgn:7000198",
          "tgn:7029392"
        ],
        "placetype": [
          "aat:300008347"
        ],
        "name:en": "Chintalbh훮wi",
        "id": 7569335
      }
    },
    {
      "geometry": {
        "type": "Point",
        "coordinates": [
          78.822778,
          17.349167
        ]
      },
      "type": "Feature",
      "properties": {
        "hierarchy": [
          "tgn:7569336",
          "tgn:1001828",
          "tgn:1000004",
          "tgn:7000198",
          "tgn:7029392"
        ],
        "placetype": [
          "aat:300008347"
        ],
        "name:en": "Pochampalli",
        "id": 7569336
      }
    },
    {
      "geometry": {
        "type": "Point",
        "coordinates": [
          78.765556,
          17.358889
        ]
      },
      "type": "Feature",
      "properties": {
        "hierarchy": [
          "tgn:7569337",
          "tgn:1001828",
          "tgn:1000004",
          "tgn:7000198",
          "tgn:7029392"
        ],
        "placetype": [
          "aat:300008347"
        ],
        "name:en": "Jagatpalli",
        "id": 7569337
      }
    },
    {
      "geometry": {
        "type": "Point",
        "coordinates": [
          78.875556,
          17.3875
        ]
      },
      "type": "Feature",
      "properties": {
        "hierarchy": [
          "tgn:7569338",
          "tgn:1001828",
          "tgn:1000004",
          "tgn:7000198",
          "tgn:7029392"
        ],
        "placetype": [
          "aat:300008347"
        ],
        "name:en": "Indr훮l",
        "id": 7569338
      }
    },
    {
      "geometry": {
        "type": "Point",
        "coordinates": [
          78.835833,
          17.376111
        ]
      },
      "type": "Feature",
      "properties": {
        "hierarchy": [
          "tgn:7569339",
          "tgn:1001828",
          "tgn:1000004",
          "tgn:7000198",
          "tgn:7029392"
        ],
        "placetype": [
          "aat:300008347"
        ],
        "name:en": "Ghouskunda",
        "id": 7569339
      }
    }
  ]
}
