{
  "type": "FeatureCollection",
  "features": [
    {
      "geometry": {
        "type": "Point",
        "coordinates": [
          31.200432,
          30.035707
        ]
      },
      "type": "Feature",
      "properties": {
        "hierarchy": [
          "tgn:7531220",
          "tgn:7001242",
          "tgn:7016833",
          "tgn:1001083",
          "tgn:7029392"
        ],
        "placetype": [
          "aat:300007780"
        ],
        "id": 7531220,
        "name:xx": "Al Buḩūth"
      }
    },
    {
      "geometry": {
        "type": "Point",
        "coordinates": [
          31.206679,
          30.03266
        ]
      },
      "type": "Feature",
      "properties": {
        "hierarchy": [
          "tgn:7531221",
          "tgn:7001242",
          "tgn:7016833",
          "tgn:1001083",
          "tgn:7029392"
        ],
        "placetype": [
          "aat:300000745"
        ],
        "id": 7531221,
        "name:xx": "Al Madīnah al Jām'īyah"
      }
    },
    {
      "geometry": {
        "type": "Point",
        "coordinates": [
          31.210457,
          30.023151
        ]
      },
      "type": "Feature",
      "properties": {
        "hierarchy": [
          "tgn:7531222",
          "tgn:7001242",
          "tgn:7016833",
          "tgn:1001083",
          "tgn:7029392"
        ],
        "placetype": [
          "aat:300006495"
        ],
        "id": 7531222,
        "name:xx": "Madrasat as Sa'īdīyah"
      }
    },
    {
      "geometry": {
        "type": "Point",
        "coordinates": [
          31.197931,
          30.022032
        ]
      },
      "type": "Feature",
      "properties": {
        "hierarchy": [
          "tgn:7531223",
          "tgn:7001242",
          "tgn:7016833",
          "tgn:1001083",
          "tgn:7029392"
        ],
        "placetype": [
          "aat:300004792"
        ],
        "id": 7531223,
        "name:xx": "Jam'īyah at Ta'hīl al Ijtimā'ī lil Mu'awwaqīn"
      }
    },
    {
      "geometry": {
        "type": "Point",
        "coordinates": [
          31.192509,
          30.0403
        ]
      },
      "type": "Feature",
      "properties": {
        "hierarchy": [
          "tgn:7531224",
          "tgn:7001242",
          "tgn:7016833",
          "tgn:1001083",
          "tgn:7029392"
        ],
        "placetype": [
          "aat:300007544"
        ],
        "id": 7531224,
        "name:xx": "Masjid 'Umar Bin al Khaţţāb"
      }
    },
    {
      "geometry": {
        "type": "Point",
        "coordinates": [
          31.183839,
          30.071542
        ]
      },
      "type": "Feature",
      "properties": {
        "hierarchy": [
          "tgn:7531225",
          "tgn:7001242",
          "tgn:7016833",
          "tgn:1001083",
          "tgn:7029392"
        ],
        "placetype": [
          "aat:300004792"
        ],
        "id": 7531225,
        "name:xx": "Shirkat an Nīl lil Kibrīt"
      }
    },
    {
      "geometry": {
        "type": "Point",
        "coordinates": [
          31.184525,
          30.074563
        ]
      },
      "type": "Feature",
      "properties": {
        "hierarchy": [
          "tgn:7531226",
          "tgn:7001242",
          "tgn:7016833",
          "tgn:1001083",
          "tgn:7029392"
        ],
        "placetype": [
          "aat:300006075"
        ],
        "id": 7531226,
        "name:xx": "Tur'at al Bashtīl"
      }
    },
    {
      "geometry": {
        "type": "Point",
        "coordinates": [
          31.193561,
          30.058491
        ]
      },
      "type": "Feature",
      "properties": {
        "hierarchy": [
          "tgn:7531227",
          "tgn:7001242",
          "tgn:7016833",
          "tgn:1001083",
          "tgn:7029392"
        ],
        "placetype": [
          "aat:300004792"
        ],
        "id": 7531227,
        "name:xx": "Al Mulḩaq ath Thaqāfī li Sulţanat 'Umān"
      }
    },
    {
      "geometry": {
        "type": "Point",
        "coordinates": [
          31.393092,
          30.078663
        ]
      },
      "type": "Feature",
      "properties": {
        "hierarchy": [
          "tgn:7531228",
          "tgn:7001242",
          "tgn:7016833",
          "tgn:1001091",
          "tgn:7029392"
        ],
        "placetype": [
          "aat:300004792"
        ],
        "id": 7531228,
        "name:xx": "Qiyādat Ţarīq al Qāhirah as Suways"
      }
    },
    {
      "geometry": {
        "type": "Point",
        "coordinates": [
          31.197346,
          30.059484
        ]
      },
      "type": "Feature",
      "properties": {
        "hierarchy": [
          "tgn:7531229",
          "tgn:7001242",
          "tgn:7016833",
          "tgn:1001083",
          "tgn:7029392"
        ],
        "placetype": [
          "aat:300007544"
        ],
        "id": 7531229,
        "name:xx": "Masjid al Ḩamd al Islāmī"
      }
    }
  ]
}
