{
  "type": "FeatureCollection",
  "features": [
    {
      "geometry": {
        "type": "Point",
        "coordinates": [
          30.967536,
          29.207546
        ]
      },
      "type": "Feature",
      "properties": {
        "hierarchy": [
          "tgn:1095490",
          "tgn:7001242",
          "tgn:7001105",
          "tgn:7016833",
          "tgn:7029392"
        ],
        "placetype": [
          "aat:300008347"
        ],
        "name:en": "Hawwārat 'Adlān",
        "id": 1095490
      }
    },
    {
      "geometry": {
        "type": "Point",
        "coordinates": [
          30.895761,
          29.257289
        ]
      },
      "type": "Feature",
      "properties": {
        "hierarchy": [
          "tgn:1095491",
          "tgn:7001242",
          "tgn:7001105",
          "tgn:7016833",
          "tgn:7029392"
        ],
        "placetype": [
          "aat:300008347"
        ],
        "name:en": "Hawwārat al Maqţa'",
        "id": 1095491
      }
    },
    {
      "geometry": {
        "type": "Point",
        "coordinates": [
          31.588012,
          30.671303
        ]
      },
      "type": "Feature",
      "properties": {
        "hierarchy": [
          "tgn:1095492",
          "tgn:7001242",
          "tgn:7016833",
          "tgn:1001113",
          "tgn:7029392"
        ],
        "placetype": [
          "aat:300008347"
        ],
        "id": 1095492,
        "name:xx": "Hihyā"
      }
    },
    {
      "geometry": {
        "type": "Point",
        "coordinates": [
          30.789438,
          29.237603
        ]
      },
      "type": "Feature",
      "properties": {
        "hierarchy": [
          "tgn:1095493",
          "tgn:7001242",
          "tgn:7001105",
          "tgn:7016833",
          "tgn:7029392"
        ],
        "placetype": [
          "aat:300008347"
        ],
        "id": 1095493,
        "name:xx": "Iṭsa"
      }
    },
    {
      "geometry": {
        "type": "Point",
        "coordinates": [
          31.11718,
          30.569082
        ]
      },
      "type": "Feature",
      "properties": {
        "hierarchy": [
          "tgn:1095494",
          "tgn:7001242",
          "tgn:7016833",
          "tgn:1001087",
          "tgn:7029392"
        ],
        "placetype": [
          "aat:300008347"
        ],
        "name:en": "Ibnahs",
        "id": 1095494
      }
    },
    {
      "geometry": {
        "type": "Point",
        "coordinates": [
          31.163771,
          31.16782
        ]
      },
      "type": "Feature",
      "properties": {
        "hierarchy": [
          "tgn:1095495",
          "tgn:7001242",
          "tgn:7016833",
          "tgn:1001335",
          "tgn:7029392"
        ],
        "placetype": [
          "aat:300008347"
        ],
        "name:en": "Ibshân",
        "id": 1095495
      }
    },
    {
      "geometry": {
        "type": "Point",
        "coordinates": [
          30.681422,
          29.358045
        ]
      },
      "type": "Feature",
      "properties": {
        "hierarchy": [
          "tgn:1095496",
          "tgn:7001242",
          "tgn:7001105",
          "tgn:7016833",
          "tgn:7029392"
        ],
        "placetype": [
          "aat:300008347"
        ],
        "name:en": "Ibshawāy",
        "id": 1095496
      }
    },
    {
      "geometry": {
        "type": "Point",
        "coordinates": [
          30.515501,
          31.292983
        ]
      },
      "type": "Feature",
      "properties": {
        "hierarchy": [
          "tgn:1095497",
          "tgn:7001242",
          "tgn:1001075",
          "tgn:7016833",
          "tgn:7029392"
        ],
        "placetype": [
          "aat:300008347"
        ],
        "name:en": "Idfīnā",
        "id": 1095497
      }
    },
    {
      "geometry": {
        "type": "Point",
        "coordinates": [
          30.299008,
          31.307823
        ]
      },
      "type": "Feature",
      "properties": {
        "hierarchy": [
          "tgn:1095499",
          "tgn:7001242",
          "tgn:1001075",
          "tgn:7016833",
          "tgn:7029392"
        ],
        "placetype": [
          "aat:300008347"
        ],
        "name:en": "Idkū",
        "id": 1095499
      }
    }
  ]
}
