{
  "type": "FeatureCollection",
  "features": [
    {
      "geometry": {
        "type": "Point",
        "coordinates": [
          -99.945833,
          25.296667
        ]
      },
      "type": "Feature",
      "properties": {
        "hierarchy": [
          "tgn:7421440",
          "tgn:1000001",
          "tgn:7005589",
          "tgn:7005560",
          "tgn:7029392"
        ],
        "placetype": [
          "aat:300008347"
        ],
        "id": 7421440,
        "name:es": "El Porvenir"
      }
    },
    {
      "geometry": {
        "type": "Point",
        "coordinates": [
          -99.843611,
          25.311111
        ]
      },
      "type": "Feature",
      "properties": {
        "hierarchy": [
          "tgn:7421441",
          "tgn:1000001",
          "tgn:7005589",
          "tgn:7005560",
          "tgn:7029392"
        ],
        "placetype": [
          "aat:300008347"
        ],
        "id": 7421441,
        "name:es": "Valle Hidalgo"
      }
    },
    {
      "geometry": {
        "type": "Point",
        "coordinates": [
          -99.749444,
          25.313889
        ]
      },
      "type": "Feature",
      "properties": {
        "hierarchy": [
          "tgn:7421442",
          "tgn:1000001",
          "tgn:7005589",
          "tgn:7005560",
          "tgn:7029392"
        ],
        "placetype": [
          "aat:300008347"
        ],
        "id": 7421442,
        "name:es": "California"
      }
    },
    {
      "geometry": {
        "type": "Point",
        "coordinates": [
          -99.567222,
          25.297222
        ]
      },
      "type": "Feature",
      "properties": {
        "hierarchy": [
          "tgn:7421443",
          "tgn:1000001",
          "tgn:7005589",
          "tgn:7005560",
          "tgn:7029392"
        ],
        "placetype": [
          "aat:300008347"
        ],
        "id": 7421443,
        "name:es": "El Toro"
      }
    },
    {
      "geometry": {
        "type": "Point",
        "coordinates": [
          -99.476944,
          25.278333
        ]
      },
      "type": "Feature",
      "properties": {
        "hierarchy": [
          "tgn:7421444",
          "tgn:1000001",
          "tgn:7005589",
          "tgn:7005560",
          "tgn:7029392"
        ],
        "placetype": [
          "aat:300008347"
        ],
        "id": 7421444,
        "name:es": "La Tendida"
      }
    },
    {
      "geometry": {
        "type": "Point",
        "coordinates": [
          -99.414444,
          25.308333
        ]
      },
      "type": "Feature",
      "properties": {
        "hierarchy": [
          "tgn:7421445",
          "tgn:1000001",
          "tgn:7005589",
          "tgn:7005560",
          "tgn:7029392"
        ],
        "placetype": [
          "aat:300008347"
        ],
        "id": 7421445,
        "name:es": "Santa Fe"
      }
    },
    {
      "geometry": {
        "type": "Point",
        "coordinates": [
          -99.411111,
          25.264167
        ]
      },
      "type": "Feature",
      "properties": {
        "hierarchy": [
          "tgn:7421446",
          "tgn:1000001",
          "tgn:7005589",
          "tgn:7005560",
          "tgn:7029392"
        ],
        "placetype": [
          "aat:300008347"
        ],
        "id": 7421446,
        "name:es": "Santa Isabel"
      }
    },
    {
      "geometry": {
        "type": "Point",
        "coordinates": [
          -99.266667,
          25.35
        ]
      },
      "type": "Feature",
      "properties": {
        "hierarchy": [
          "tgn:7421447",
          "tgn:1000001",
          "tgn:7005589",
          "tgn:7005560",
          "tgn:7029392"
        ],
        "placetype": [
          "aat:300008347"
        ],
        "id": 7421447,
        "name:es": "San Pedro de Juajal"
      }
    },
    {
      "geometry": {
        "type": "Point",
        "coordinates": [
          -99.261111,
          25.28
        ]
      },
      "type": "Feature",
      "properties": {
        "hierarchy": [
          "tgn:7421448",
          "tgn:1000001",
          "tgn:7005589",
          "tgn:7005560",
          "tgn:7029392"
        ],
        "placetype": [
          "aat:300008347"
        ],
        "id": 7421448,
        "name:es": "San Miguel"
      }
    },
    {
      "geometry": {
        "type": "Point",
        "coordinates": [
          -99.222222,
          25.281111
        ]
      },
      "type": "Feature",
      "properties": {
        "hierarchy": [
          "tgn:7421449",
          "tgn:1000001",
          "tgn:7005589",
          "tgn:7005560",
          "tgn:7029392"
        ],
        "placetype": [
          "aat:300008347"
        ],
        "id": 7421449,
        "name:es": "Los Rosales"
      }
    }
  ]
}
