{
  "type": "FeatureCollection",
  "features": [
    {
      "geometry": {
        "type": "Point",
        "coordinates": [
          121.112222,
          24.441111
        ]
      },
      "type": "Feature",
      "properties": {
        "hierarchy": [
          "tgn:7486590",
          "tgn:7487020",
          "tgn:1000004",
          "tgn:1000141",
          "tgn:7029392"
        ],
        "placetype": [
          "aat:300008699"
        ],
        "id": 7486590,
        "name:xx": "Madala Xi"
      }
    },
    {
      "geometry": {
        "type": "Point",
        "coordinates": [
          121.419443,
          23.434765
        ]
      },
      "type": "Feature",
      "properties": {
        "hierarchy": [
          "tgn:7486591",
          "tgn:1000004",
          "tgn:7491221",
          "tgn:1000141",
          "tgn:7029392"
        ],
        "placetype": [
          "aat:300008798"
        ],
        "id": 7486591,
        "name:xx": "Matailin Shan"
      }
    },
    {
      "geometry": {
        "type": "Point",
        "coordinates": [
          121.389803,
          23.449364
        ]
      },
      "type": "Feature",
      "properties": {
        "hierarchy": [
          "tgn:7486592",
          "tgn:7001010",
          "tgn:1000004",
          "tgn:1000141",
          "tgn:7029392"
        ],
        "placetype": [
          "aat:300008347"
        ],
        "id": 7486592,
        "name:xx": "Tailin"
      }
    },
    {
      "geometry": {
        "type": "Point",
        "coordinates": [
          121.434768,
          23.662385
        ]
      },
      "type": "Feature",
      "properties": {
        "hierarchy": [
          "tgn:7486593",
          "tgn:7001010",
          "tgn:1000004",
          "tgn:1000141",
          "tgn:7029392"
        ],
        "placetype": [
          "aat:300007836"
        ],
        "id": 7486593,
        "name:xx": "Matai'an Xi Qiao"
      }
    },
    {
      "geometry": {
        "type": "Point",
        "coordinates": [
          121.411542,
          23.683656
        ]
      },
      "type": "Feature",
      "properties": {
        "hierarchy": [
          "tgn:7486595",
          "tgn:7001010",
          "tgn:1000004",
          "tgn:1000141",
          "tgn:7029392"
        ],
        "placetype": [
          "aat:300008347"
        ],
        "id": 7486595,
        "name:xx": "Matai'an"
      }
    },
    {
      "geometry": {
        "type": "Point",
        "coordinates": [
          121.195278,
          24.671944
        ]
      },
      "type": "Feature",
      "properties": {
        "hierarchy": [
          "tgn:7486596",
          "tgn:1000004",
          "tgn:7471332",
          "tgn:1000141",
          "tgn:7029392"
        ],
        "placetype": [
          "aat:300008347"
        ],
        "id": 7486596,
        "name:xx": "Matai"
      }
    },
    {
      "geometry": {
        "type": "Point",
        "coordinates": [
          121.646637,
          25.182638
        ]
      },
      "type": "Feature",
      "properties": {
        "hierarchy": [
          "tgn:7486598",
          "tgn:1000004",
          "tgn:1000454",
          "tgn:1000141",
          "tgn:7029392"
        ],
        "placetype": [
          "aat:300008347"
        ],
        "id": 7486598,
        "name:xx": "Masilin"
      }
    },
    {
      "geometry": {
        "type": "Point",
        "coordinates": [
          120.240556,
          23.715833
        ]
      },
      "type": "Feature",
      "properties": {
        "hierarchy": [
          "tgn:7486599",
          "tgn:1000004",
          "tgn:7001014",
          "tgn:1000141",
          "tgn:7029392"
        ],
        "placetype": [
          "aat:300008347"
        ],
        "id": 7486599,
        "name:xx": "Mashancuo"
      }
    }
  ]
}
