{
  "type": "FeatureCollection",
  "features": [
    {
      "geometry": {
        "type": "Point",
        "coordinates": [
          72.054391,
          23.365219
        ]
      },
      "type": "Feature",
      "properties": {
        "hierarchy": [
          "tgn:7578430",
          "tgn:1000004",
          "tgn:1001869",
          "tgn:7000198",
          "tgn:7029392"
        ],
        "placetype": [
          "aat:300008347"
        ],
        "name:en": "Vithalpur",
        "id": 7578430
      }
    },
    {
      "geometry": {
        "type": "Point",
        "coordinates": [
          71.966667,
          22.983333
        ]
      },
      "type": "Feature",
      "properties": {
        "hierarchy": [
          "tgn:7578431",
          "tgn:1000004",
          "tgn:1001869",
          "tgn:7000198",
          "tgn:7029392"
        ],
        "placetype": [
          "aat:300008347"
        ],
        "name:en": "Vithalgadh",
        "id": 7578431
      }
    },
    {
      "geometry": {
        "type": "Point",
        "coordinates": [
          94.14633,
          25.560738
        ]
      },
      "type": "Feature",
      "properties": {
        "hierarchy": [
          "tgn:7578433",
          "tgn:1000004",
          "tgn:7000198",
          "tgn:1001997",
          "tgn:7029392"
        ],
        "placetype": [
          "aat:300008347"
        ],
        "name:en": "Viswema",
        "id": 7578433
      }
    },
    {
      "geometry": {
        "type": "Point",
        "coordinates": [
          80.783333,
          16.95
        ]
      },
      "type": "Feature",
      "properties": {
        "hierarchy": [
          "tgn:7578434",
          "tgn:1001828",
          "tgn:1000004",
          "tgn:7000198",
          "tgn:7029392"
        ],
        "placetype": [
          "aat:300008347"
        ],
        "name:en": "Vissannapeta",
        "id": 7578434
      }
    },
    {
      "geometry": {
        "type": "Point",
        "coordinates": [
          79.416667,
          17.633333
        ]
      },
      "type": "Feature",
      "properties": {
        "hierarchy": [
          "tgn:7578435",
          "tgn:1001828",
          "tgn:1000004",
          "tgn:7000198",
          "tgn:7029392"
        ],
        "placetype": [
          "aat:300008347"
        ],
        "name:en": "Visn큰r",
        "id": 7578435
      }
    },
    {
      "geometry": {
        "type": "Point",
        "coordinates": [
          73.166667,
          22.283333
        ]
      },
      "type": "Feature",
      "properties": {
        "hierarchy": [
          "tgn:7578437",
          "tgn:1000004",
          "tgn:1001869",
          "tgn:7000198",
          "tgn:7029392"
        ],
        "placetype": [
          "aat:300007783"
        ],
        "name:en": "Vishv훮mitri",
        "id": 7578437
      }
    },
    {
      "geometry": {
        "type": "Point",
        "coordinates": [
          79.566667,
          30.566667
        ]
      },
      "type": "Feature",
      "properties": {
        "hierarchy": [
          "tgn:7578438",
          "tgn:1000004",
          "tgn:7000198",
          "tgn:7031786",
          "tgn:7029392"
        ],
        "placetype": [
          "aat:300008347"
        ],
        "name:en": "Vishnupray훮g",
        "id": 7578438
      }
    },
    {
      "geometry": {
        "type": "Point",
        "coordinates": [
          79.283333,
          12.933333
        ]
      },
      "type": "Feature",
      "properties": {
        "hierarchy": [
          "tgn:7578439",
          "tgn:1000004",
          "tgn:7000198",
          "tgn:7001797",
          "tgn:7029392"
        ],
        "placetype": [
          "aat:300008347"
        ],
        "name:en": "Vish훮ram",
        "id": 7578439
      }
    }
  ]
}
