{
  "type": "FeatureCollection",
  "features": [
    {
      "geometry": {
        "type": "Point",
        "coordinates": [
          80.316667,
          20.266667
        ]
      },
      "type": "Feature",
      "properties": {
        "hierarchy": [
          "tgn:7549720",
          "tgn:1000004",
          "tgn:7000198",
          "tgn:1001895",
          "tgn:7029392"
        ],
        "placetype": [
          "aat:300008347"
        ],
        "name:en": "Dhanora",
        "id": 7549720
      }
    },
    {
      "geometry": {
        "type": "Point",
        "coordinates": [
          81.45,
          20.016667
        ]
      },
      "type": "Feature",
      "properties": {
        "hierarchy": [
          "tgn:7549721",
          "tgn:1000004",
          "tgn:7031781",
          "tgn:7000198",
          "tgn:7029392"
        ],
        "placetype": [
          "aat:300008347"
        ],
        "name:en": "Dhanora",
        "id": 7549721
      }
    },
    {
      "geometry": {
        "type": "Point",
        "coordinates": [
          82.816667,
          21.466667
        ]
      },
      "type": "Feature",
      "properties": {
        "hierarchy": [
          "tgn:7549722",
          "tgn:1000004",
          "tgn:7031781",
          "tgn:7000198",
          "tgn:7029392"
        ],
        "placetype": [
          "aat:300008347"
        ],
        "name:en": "Chanāt",
        "id": 7549722
      }
    },
    {
      "geometry": {
        "type": "Point",
        "coordinates": [
          76.345205,
          30.518118
        ]
      },
      "type": "Feature",
      "properties": {
        "hierarchy": [
          "tgn:7549724",
          "tgn:1000004",
          "tgn:7000198",
          "tgn:7016883",
          "tgn:7029392"
        ],
        "placetype": [
          "aat:300008347"
        ],
        "name:en": "Chānarthal",
        "id": 7549724
      }
    },
    {
      "geometry": {
        "type": "Point",
        "coordinates": [
          83.79591,
          24.916177
        ]
      },
      "type": "Feature",
      "properties": {
        "hierarchy": [
          "tgn:7549725",
          "tgn:1000004",
          "tgn:1001842",
          "tgn:7000198",
          "tgn:7029392"
        ],
        "placetype": [
          "aat:300008347"
        ],
        "name:en": "Chanāri",
        "id": 7549725
      }
    },
    {
      "geometry": {
        "type": "Point",
        "coordinates": [
          73.961824,
          30.361753
        ]
      },
      "type": "Feature",
      "properties": {
        "hierarchy": [
          "tgn:7549726",
          "tgn:1000004",
          "tgn:7000198",
          "tgn:7016883",
          "tgn:7029392"
        ],
        "placetype": [
          "aat:300007783"
        ],
        "name:en": "Chānanwāla",
        "id": 7549726
      }
    },
    {
      "geometry": {
        "type": "Point",
        "coordinates": [
          79.883333,
          19.933333
        ]
      },
      "type": "Feature",
      "properties": {
        "hierarchy": [
          "tgn:7549727",
          "tgn:1000004",
          "tgn:7000198",
          "tgn:1001895",
          "tgn:7029392"
        ],
        "placetype": [
          "aat:300008347"
        ],
        "name:en": "Chāmursi",
        "id": 7549727
      }
    },
    {
      "geometry": {
        "type": "Point",
        "coordinates": [
          76.683333,
          12.266667
        ]
      },
      "type": "Feature",
      "properties": {
        "hierarchy": [
          "tgn:7549728",
          "tgn:1000004",
          "tgn:7000198",
          "tgn:1001882",
          "tgn:7029392"
        ],
        "placetype": [
          "aat:300000745"
        ],
        "name:en": "Chāmundi Puram",
        "id": 7549728
      }
    },
    {
      "geometry": {
        "type": "Point",
        "coordinates": [
          76.683333,
          12.266667
        ]
      },
      "type": "Feature",
      "properties": {
        "hierarchy": [
          "tgn:7549729",
          "tgn:1000004",
          "tgn:7000198",
          "tgn:1001882",
          "tgn:7029392"
        ],
        "placetype": [
          "aat:300008777"
        ],
        "name:en": "Chāmundi Hill",
        "id": 7549729
      }
    }
  ]
}
