{
  "type": "FeatureCollection",
  "features": [
    {
      "geometry": {
        "type": "Point",
        "coordinates": [
          77.782773,
          30.42781
        ]
      },
      "type": "Feature",
      "properties": {
        "hierarchy": [
          "tgn:7591440",
          "tgn:1000004",
          "tgn:7000198",
          "tgn:7031786",
          "tgn:7029392"
        ],
        "placetype": [
          "aat:300008347"
        ],
        "name:en": "Jāmankhāta",
        "id": 7591440
      }
    },
    {
      "geometry": {
        "type": "Point",
        "coordinates": [
          77.776366,
          30.427556
        ]
      },
      "type": "Feature",
      "properties": {
        "hierarchy": [
          "tgn:7591441",
          "tgn:1000004",
          "tgn:7000198",
          "tgn:7031786",
          "tgn:7029392"
        ],
        "placetype": [
          "aat:300008347"
        ],
        "name:en": "Lambarpur",
        "id": 7591441
      }
    },
    {
      "geometry": {
        "type": "Point",
        "coordinates": [
          77.769136,
          30.418502
        ]
      },
      "type": "Feature",
      "properties": {
        "hierarchy": [
          "tgn:7591442",
          "tgn:1000004",
          "tgn:7000198",
          "tgn:7031786",
          "tgn:7029392"
        ],
        "placetype": [
          "aat:300008347"
        ],
        "name:en": "Jassūwāla",
        "id": 7591442
      }
    },
    {
      "geometry": {
        "type": "Point",
        "coordinates": [
          77.758984,
          30.424059
        ]
      },
      "type": "Feature",
      "properties": {
        "hierarchy": [
          "tgn:7591443",
          "tgn:1000004",
          "tgn:7000198",
          "tgn:7031786",
          "tgn:7029392"
        ],
        "placetype": [
          "aat:300008347"
        ],
        "name:en": "Lakhanwāla",
        "id": 7591443
      }
    },
    {
      "geometry": {
        "type": "Point",
        "coordinates": [
          77.75765,
          30.432139
        ]
      },
      "type": "Feature",
      "properties": {
        "hierarchy": [
          "tgn:7591444",
          "tgn:1000004",
          "tgn:7000198",
          "tgn:7031786",
          "tgn:7029392"
        ],
        "placetype": [
          "aat:300008347"
        ],
        "name:en": "Asanbāgh",
        "id": 7591444
      }
    },
    {
      "geometry": {
        "type": "Point",
        "coordinates": [
          77.986111,
          30.433056
        ]
      },
      "type": "Feature",
      "properties": {
        "hierarchy": [
          "tgn:7591445",
          "tgn:1000004",
          "tgn:7000198",
          "tgn:7031786",
          "tgn:7029392"
        ],
        "placetype": [
          "aat:300008347"
        ],
        "name:en": "Patti",
        "id": 7591445
      }
    },
    {
      "geometry": {
        "type": "Point",
        "coordinates": [
          77.979896,
          30.434547
        ]
      },
      "type": "Feature",
      "properties": {
        "hierarchy": [
          "tgn:7591446",
          "tgn:1000004",
          "tgn:7000198",
          "tgn:7031786",
          "tgn:7029392"
        ],
        "placetype": [
          "aat:300008347"
        ],
        "name:en": "Misrās Patti",
        "id": 7591446
      }
    },
    {
      "geometry": {
        "type": "Point",
        "coordinates": [
          77.978357,
          30.438862
        ]
      },
      "type": "Feature",
      "properties": {
        "hierarchy": [
          "tgn:7591447",
          "tgn:1000004",
          "tgn:7000198",
          "tgn:7031786",
          "tgn:7029392"
        ],
        "placetype": [
          "aat:300008347"
        ],
        "name:en": "Bhārapur",
        "id": 7591447
      }
    },
    {
      "geometry": {
        "type": "Point",
        "coordinates": [
          77.973056,
          30.439167
        ]
      },
      "type": "Feature",
      "properties": {
        "hierarchy": [
          "tgn:7591448",
          "tgn:1000004",
          "tgn:7000198",
          "tgn:7031786",
          "tgn:7029392"
        ],
        "placetype": [
          "aat:300008347"
        ],
        "name:en": "Thangaon",
        "id": 7591448
      }
    },
    {
      "geometry": {
        "type": "Point",
        "coordinates": [
          77.958211,
          30.436208
        ]
      },
      "type": "Feature",
      "properties": {
        "hierarchy": [
          "tgn:7591449",
          "tgn:1000004",
          "tgn:7000198",
          "tgn:7031786",
          "tgn:7029392"
        ],
        "placetype": [
          "aat:300008863"
        ],
        "name:en": "Batoli Block Reserved Forest",
        "id": 7591449
      }
    }
  ]
}
