{
  "type": "FeatureCollection",
  "features": [
    {
      "geometry": {
        "type": "Point",
        "coordinates": [
          31.443541,
          30.416014
        ]
      },
      "type": "Feature",
      "properties": {
        "hierarchy": [
          "tgn:7540540",
          "tgn:7001242",
          "tgn:7016833",
          "tgn:1001113",
          "tgn:7029392"
        ],
        "placetype": [
          "aat:300008347"
        ],
        "name:en": "Qirimlah",
        "id": 7540540
      }
    },
    {
      "geometry": {
        "type": "Point",
        "coordinates": [
          32.624807,
          28.928538
        ]
      },
      "type": "Feature",
      "properties": {
        "hierarchy": [
          "tgn:7540541",
          "tgn:7001242",
          "tgn:7001311",
          "tgn:7016833",
          "tgn:7029392"
        ],
        "placetype": [
          "aat:300379998"
        ],
        "name:en": "Qirf al Baḩrī, Wādī",
        "id": 7540541
      }
    },
    {
      "geometry": {
        "type": "Point",
        "coordinates": [
          32.666667,
          28.933333
        ]
      },
      "type": "Feature",
      "properties": {
        "hierarchy": [
          "tgn:7540542",
          "tgn:7001242",
          "tgn:7001311",
          "tgn:7016833",
          "tgn:7029392"
        ],
        "placetype": [
          "aat:300379998"
        ],
        "name:en": "Qirf, Wādī",
        "id": 7540542
      }
    },
    {
      "geometry": {
        "type": "Point",
        "coordinates": [
          25.454814,
          31.308819
        ]
      },
      "type": "Feature",
      "properties": {
        "hierarchy": [
          "tgn:7540543",
          "tgn:7001242",
          "tgn:7016833",
          "tgn:1001418",
          "tgn:7029392"
        ],
        "placetype": [
          "aat:300006207"
        ],
        "name:en": "Bir el-Qireisa el-Shimali",
        "id": 7540543
      }
    },
    {
      "geometry": {
        "type": "Point",
        "coordinates": [
          31.948516,
          27.393929
        ]
      },
      "type": "Feature",
      "properties": {
        "hierarchy": [
          "tgn:7540544",
          "tgn:7001242",
          "tgn:7001311",
          "tgn:7016833",
          "tgn:7029392"
        ],
        "placetype": [
          "aat:300379998"
        ],
        "name:en": "Qird al Fa'r, Wādī",
        "id": 7540544
      }
    },
    {
      "geometry": {
        "type": "Point",
        "coordinates": [
          30.246611,
          31.146061
        ]
      },
      "type": "Feature",
      "properties": {
        "hierarchy": [
          "tgn:7540545",
          "tgn:7001242",
          "tgn:1001075",
          "tgn:7016833",
          "tgn:7029392"
        ],
        "placetype": [
          "aat:300000206"
        ],
        "name:en": "'Izbat al Qirdāḩī",
        "id": 7540545
      }
    },
    {
      "geometry": {
        "type": "Point",
        "coordinates": [
          30.25,
          31.133333
        ]
      },
      "type": "Feature",
      "properties": {
        "hierarchy": [
          "tgn:7540546",
          "tgn:7001242",
          "tgn:1001075",
          "tgn:7016833",
          "tgn:7029392"
        ],
        "placetype": [
          "aat:300000206"
        ],
        "name:en": "'Izbat al Qirdāḩī",
        "id": 7540546
      }
    },
    {
      "geometry": {
        "type": "Point",
        "coordinates": [
          30.233333,
          31.133333
        ]
      },
      "type": "Feature",
      "properties": {
        "hierarchy": [
          "tgn:7540547",
          "tgn:7001242",
          "tgn:1001075",
          "tgn:7016833",
          "tgn:7029392"
        ],
        "placetype": [
          "aat:300000206"
        ],
        "name:en": "'Izbat al Qirdāḩī",
        "id": 7540547
      }
    },
    {
      "geometry": {
        "type": "Point",
        "coordinates": [
          30.266667,
          31.016667
        ]
      },
      "type": "Feature",
      "properties": {
        "hierarchy": [
          "tgn:7540548",
          "tgn:7001242",
          "tgn:1001075",
          "tgn:7016833",
          "tgn:7029392"
        ],
        "placetype": [
          "aat:300000206"
        ],
        "name:en": "'Izbat al Qirdāḩī",
        "id": 7540548
      }
    },
    {
      "geometry": {
        "type": "Point",
        "coordinates": [
          25.15,
          31.316667
        ]
      },
      "type": "Feature",
      "properties": {
        "hierarchy": [
          "tgn:7540549",
          "tgn:7001242",
          "tgn:7016833",
          "tgn:1001418",
          "tgn:7029392"
        ],
        "placetype": [
          "aat:300386860"
        ],
        "name:en": "Qira, Deir el",
        "id": 7540549
      }
    }
  ]
}
