{
  "type": "FeatureCollection",
  "features": [
    {
      "geometry": {
        "type": "Point",
        "coordinates": [
          121.43725,
          24.814694
        ]
      },
      "type": "Feature",
      "properties": {
        "hierarchy": [
          "tgn:7493380",
          "tgn:1000004",
          "tgn:1000454",
          "tgn:1000141",
          "tgn:7029392"
        ],
        "placetype": [
          "aat:300008798"
        ],
        "id": 7493380,
        "name:xx": "Laka Shan"
      }
    },
    {
      "geometry": {
        "type": "Point",
        "coordinates": [
          121.365648,
          24.876993
        ]
      },
      "type": "Feature",
      "properties": {
        "hierarchy": [
          "tgn:7493381",
          "tgn:1000004",
          "tgn:1000454",
          "tgn:1000141",
          "tgn:7029392"
        ],
        "placetype": [
          "aat:300008798"
        ],
        "id": 7493381,
        "name:xx": "Wuliao Jian"
      }
    },
    {
      "geometry": {
        "type": "Point",
        "coordinates": [
          121.337172,
          24.918212
        ]
      },
      "type": "Feature",
      "properties": {
        "hierarchy": [
          "tgn:7493382",
          "tgn:1000004",
          "tgn:1000454",
          "tgn:1000141",
          "tgn:7029392"
        ],
        "placetype": [
          "aat:300008777"
        ],
        "id": 7493382,
        "name:xx": "Wushifen Shan"
      }
    },
    {
      "geometry": {
        "type": "Point",
        "coordinates": [
          121.359137,
          24.927654
        ]
      },
      "type": "Feature",
      "properties": {
        "hierarchy": [
          "tgn:7493383",
          "tgn:1000004",
          "tgn:1000454",
          "tgn:1000141",
          "tgn:7029392"
        ],
        "placetype": [
          "aat:300008777"
        ],
        "id": 7493383,
        "name:xx": "Yuanwei Shan"
      }
    },
    {
      "geometry": {
        "type": "Point",
        "coordinates": [
          121.456229,
          24.908431
        ]
      },
      "type": "Feature",
      "properties": {
        "hierarchy": [
          "tgn:7493384",
          "tgn:1000004",
          "tgn:1000454",
          "tgn:1000141",
          "tgn:7029392"
        ],
        "placetype": [
          "aat:300008798"
        ],
        "id": 7493384,
        "name:xx": "Liuliaolun Shan"
      }
    },
    {
      "geometry": {
        "type": "Point",
        "coordinates": [
          121.425618,
          24.938374
        ]
      },
      "type": "Feature",
      "properties": {
        "hierarchy": [
          "tgn:7493385",
          "tgn:1000004",
          "tgn:1000454",
          "tgn:1000141",
          "tgn:7029392"
        ],
        "placetype": [
          "aat:300008798"
        ],
        "id": 7493385,
        "name:xx": "Shibaluohan Qiyan"
      }
    },
    {
      "geometry": {
        "type": "Point",
        "coordinates": [
          121.364981,
          24.964767
        ]
      },
      "type": "Feature",
      "properties": {
        "hierarchy": [
          "tgn:7493386",
          "tgn:1000004",
          "tgn:1000454",
          "tgn:1000141",
          "tgn:7029392"
        ],
        "placetype": [
          "aat:300008777"
        ],
        "id": 7493386,
        "name:xx": "Niuzaokeng Shan"
      }
    },
    {
      "geometry": {
        "type": "Point",
        "coordinates": [
          121.355517,
          24.976176
        ]
      },
      "type": "Feature",
      "properties": {
        "hierarchy": [
          "tgn:7493387",
          "tgn:1000004",
          "tgn:7001013",
          "tgn:1000141",
          "tgn:7029392"
        ],
        "placetype": [
          "aat:300008777"
        ],
        "id": 7493387,
        "name:xx": "Dahu Shan"
      }
    },
    {
      "geometry": {
        "type": "Point",
        "coordinates": [
          121.295844,
          24.858686
        ]
      },
      "type": "Feature",
      "properties": {
        "hierarchy": [
          "tgn:7493388",
          "tgn:1000004",
          "tgn:7001013",
          "tgn:1000141",
          "tgn:7029392"
        ],
        "placetype": [
          "aat:300007595"
        ],
        "id": 7493388,
        "name:xx": "Fu'an Gong"
      }
    },
    {
      "geometry": {
        "type": "Point",
        "coordinates": [
          121.281319,
          24.79531
        ]
      },
      "type": "Feature",
      "properties": {
        "hierarchy": [
          "tgn:7493389",
          "tgn:1000004",
          "tgn:7001013",
          "tgn:1000141",
          "tgn:7029392"
        ],
        "placetype": [
          "aat:300006495"
        ],
        "id": 7493389,
        "name:xx": "Gaorao Guoxiao"
      }
    }
  ]
}
