{
  "type": "FeatureCollection",
  "features": [
    {
      "geometry": {
        "type": "Point",
        "coordinates": [
          121.437383,
          24.852981
        ]
      },
      "type": "Feature",
      "properties": {
        "hierarchy": [
          "tgn:7491431",
          "tgn:1000004",
          "tgn:1000454",
          "tgn:1000141",
          "tgn:7029392"
        ],
        "placetype": [
          "aat:300008347"
        ],
        "id": 7491431,
        "name:xx": "Shuangxi"
      }
    },
    {
      "geometry": {
        "type": "Point",
        "coordinates": [
          120.887375,
          24.607057
        ]
      },
      "type": "Feature",
      "properties": {
        "hierarchy": [
          "tgn:7491433",
          "tgn:7487020",
          "tgn:1000004",
          "tgn:1000141",
          "tgn:7029392"
        ],
        "placetype": [
          "aat:300008347"
        ],
        "id": 7491433,
        "name:xx": "Shuanghewo"
      }
    },
    {
      "geometry": {
        "type": "Point",
        "coordinates": [
          121.875688,
          24.602837
        ]
      },
      "type": "Feature",
      "properties": {
        "hierarchy": [
          "tgn:7491435",
          "tgn:1000004",
          "tgn:7489179",
          "tgn:1000141",
          "tgn:7029392"
        ],
        "placetype": [
          "aat:300008347"
        ],
        "id": 7491435,
        "name:xx": "Beifang'ao"
      }
    },
    {
      "geometry": {
        "type": "Point",
        "coordinates": [
          120.286046,
          23.500011
        ]
      },
      "type": "Feature",
      "properties": {
        "hierarchy": [
          "tgn:7491437",
          "tgn:7468018",
          "tgn:1000004",
          "tgn:1000141",
          "tgn:7029392"
        ],
        "placetype": [
          "aat:300008347"
        ],
        "id": 7491437,
        "name:xx": "Beizhen"
      }
    },
    {
      "geometry": {
        "type": "Point",
        "coordinates": [
          118.436389,
          24.464722
        ]
      },
      "type": "Feature",
      "properties": {
        "hierarchy": [
          "tgn:7491438",
          "tgn:7469009",
          "tgn:1000004",
          "tgn:1000141",
          "tgn:7029392"
        ],
        "placetype": [
          "aat:300008777"
        ],
        "id": 7491438,
        "name:xx": "Beijue Shan"
      }
    },
    {
      "geometry": {
        "type": "Point",
        "coordinates": [
          120.473819,
          23.053506
        ]
      },
      "type": "Feature",
      "properties": {
        "hierarchy": [
          "tgn:7491439",
          "tgn:1000004",
          "tgn:7490934",
          "tgn:1000141",
          "tgn:7029392"
        ],
        "placetype": [
          "aat:300008347"
        ],
        "id": 7491439,
        "name:xx": "Beizhuangzi"
      }
    }
  ]
}
