{
  "type": "FeatureCollection",
  "features": [
    {
      "geometry": {
        "type": "Point",
        "coordinates": [
          79.610069,
          30.117716
        ]
      },
      "type": "Feature",
      "properties": {
        "hierarchy": [
          "tgn:7545390",
          "tgn:1000004",
          "tgn:7000198",
          "tgn:7031786",
          "tgn:7029392"
        ],
        "placetype": [
          "aat:300008347"
        ],
        "name:en": "Bagargād",
        "id": 7545390
      }
    },
    {
      "geometry": {
        "type": "Point",
        "coordinates": [
          75.5005,
          28.1874
        ]
      },
      "type": "Feature",
      "properties": {
        "hierarchy": [
          "tgn:7545391",
          "tgn:1000004",
          "tgn:7000198",
          "tgn:7016788",
          "tgn:7029392"
        ],
        "placetype": [
          "aat:300008347"
        ],
        "name:en": "Bagar",
        "id": 7545391
      }
    },
    {
      "geometry": {
        "type": "Point",
        "coordinates": [
          73.901413,
          25.597526
        ]
      },
      "type": "Feature",
      "properties": {
        "hierarchy": [
          "tgn:7545392",
          "tgn:1000004",
          "tgn:7000198",
          "tgn:7016788",
          "tgn:7029392"
        ],
        "placetype": [
          "aat:300008347"
        ],
        "name:en": "Bagar",
        "id": 7545392
      }
    },
    {
      "geometry": {
        "type": "Point",
        "coordinates": [
          83.518649,
          27.199141
        ]
      },
      "type": "Feature",
      "properties": {
        "hierarchy": [
          "tgn:7545393",
          "tgn:1000004",
          "tgn:7000198",
          "tgn:7016722",
          "tgn:7029392"
        ],
        "placetype": [
          "aat:300008347"
        ],
        "name:en": "Bāgāpār",
        "id": 7545393
      }
    },
    {
      "geometry": {
        "type": "Point",
        "coordinates": [
          76.042579,
          23.106806
        ]
      },
      "type": "Feature",
      "properties": {
        "hierarchy": [
          "tgn:7545394",
          "tgn:1000004",
          "tgn:7000198",
          "tgn:1001894",
          "tgn:7029392"
        ],
        "placetype": [
          "aat:300008347"
        ],
        "name:en": "Bagāna",
        "id": 7545394
      }
    },
    {
      "geometry": {
        "type": "Point",
        "coordinates": [
          76.883333,
          16.05
        ]
      },
      "type": "Feature",
      "properties": {
        "hierarchy": [
          "tgn:7545395",
          "tgn:1000004",
          "tgn:7000198",
          "tgn:1001882",
          "tgn:7029392"
        ],
        "placetype": [
          "aat:300008347"
        ],
        "name:en": "Bāgalwād",
        "id": 7545395
      }
    },
    {
      "geometry": {
        "type": "Point",
        "coordinates": [
          77.866667,
          12.833333
        ]
      },
      "type": "Feature",
      "properties": {
        "hierarchy": [
          "tgn:7545396",
          "tgn:1000004",
          "tgn:7000198",
          "tgn:7001797",
          "tgn:7029392"
        ],
        "placetype": [
          "aat:300008347"
        ],
        "name:en": "Bāgalūr",
        "id": 7545396
      }
    },
    {
      "geometry": {
        "type": "Point",
        "coordinates": [
          76.236483,
          32.743785
        ]
      },
      "type": "Feature",
      "properties": {
        "hierarchy": [
          "tgn:7545398",
          "tgn:1000004",
          "tgn:7000198",
          "tgn:1001996",
          "tgn:7029392"
        ],
        "placetype": [
          "aat:300008347"
        ],
        "name:en": "Bagai Kothi",
        "id": 7545398
      }
    },
    {
      "geometry": {
        "type": "Point",
        "coordinates": [
          84.06603,
          27.129273
        ]
      },
      "type": "Feature",
      "properties": {
        "hierarchy": [
          "tgn:7545399",
          "tgn:1000004",
          "tgn:1001842",
          "tgn:7000198",
          "tgn:7029392"
        ],
        "placetype": [
          "aat:300007783"
        ],
        "name:en": "Bagaha",
        "id": 7545399
      }
    }
  ]
}
