{
  "type": "FeatureCollection",
  "features": [
    {
      "geometry": {
        "type": "Point",
        "coordinates": [
          74.707277,
          24.985462
        ]
      },
      "type": "Feature",
      "properties": {
        "hierarchy": [
          "tgn:7546800",
          "tgn:1000004",
          "tgn:7000198",
          "tgn:7016788",
          "tgn:7029392"
        ],
        "placetype": [
          "aat:300008347"
        ],
        "name:en": "Ānwalkhera",
        "id": 7546800
      }
    },
    {
      "geometry": {
        "type": "Point",
        "coordinates": [
          75.783333,
          20.416667
        ]
      },
      "type": "Feature",
      "properties": {
        "hierarchy": [
          "tgn:7546801",
          "tgn:1000004",
          "tgn:7000198",
          "tgn:1001895",
          "tgn:7029392"
        ],
        "placetype": [
          "aat:300008347"
        ],
        "name:en": "Anva",
        "id": 7546801
      }
    },
    {
      "geometry": {
        "type": "Point",
        "coordinates": [
          76.016667,
          32.066667
        ]
      },
      "type": "Feature",
      "properties": {
        "hierarchy": [
          "tgn:7546802",
          "tgn:1000004",
          "tgn:7000198",
          "tgn:1001996",
          "tgn:7029392"
        ],
        "placetype": [
          "aat:300008347"
        ],
        "name:en": "Anūr",
        "id": 7546802
      }
    },
    {
      "geometry": {
        "type": "Point",
        "coordinates": [
          78.583333,
          27.816667
        ]
      },
      "type": "Feature",
      "properties": {
        "hierarchy": [
          "tgn:7546803",
          "tgn:1000004",
          "tgn:7000198",
          "tgn:7016722",
          "tgn:7029392"
        ],
        "placetype": [
          "aat:300006075"
        ],
        "name:en": "Anūpshahr Branch",
        "id": 7546803
      }
    },
    {
      "geometry": {
        "type": "Point",
        "coordinates": [
          75.210984,
          28.955754
        ]
      },
      "type": "Feature",
      "properties": {
        "hierarchy": [
          "tgn:7546804",
          "tgn:1000004",
          "tgn:7000198",
          "tgn:7016788",
          "tgn:7029392"
        ],
        "placetype": [
          "aat:300008347"
        ],
        "name:en": "Anūpshahr",
        "id": 7546804
      }
    },
    {
      "geometry": {
        "type": "Point",
        "coordinates": [
          81.690834,
          23.103441
        ]
      },
      "type": "Feature",
      "properties": {
        "hierarchy": [
          "tgn:7546806",
          "tgn:1000004",
          "tgn:7000198",
          "tgn:1001894",
          "tgn:7029392"
        ],
        "placetype": [
          "aat:300008347"
        ],
        "name:en": "Anūppur",
        "id": 7546806
      }
    },
    {
      "geometry": {
        "type": "Point",
        "coordinates": [
          77.671842,
          28.98888
        ]
      },
      "type": "Feature",
      "properties": {
        "hierarchy": [
          "tgn:7546807",
          "tgn:1000004",
          "tgn:7000198",
          "tgn:7016722",
          "tgn:7029392"
        ],
        "placetype": [
          "aat:300008347"
        ],
        "name:en": "Anūpnagar",
        "id": 7546807
      }
    },
    {
      "geometry": {
        "type": "Point",
        "coordinates": [
          79.666667,
          12.783333
        ]
      },
      "type": "Feature",
      "properties": {
        "hierarchy": [
          "tgn:7546808",
          "tgn:1000004",
          "tgn:7000198",
          "tgn:7001797",
          "tgn:7029392"
        ],
        "placetype": [
          "aat:300008347"
        ],
        "name:en": "Abdullāpuram",
        "id": 7546808
      }
    },
    {
      "geometry": {
        "type": "Point",
        "coordinates": [
          92.297936,
          24.337385
        ]
      },
      "type": "Feature",
      "properties": {
        "hierarchy": [
          "tgn:7546809",
          "tgn:1000004",
          "tgn:7000198",
          "tgn:1001578",
          "tgn:7029392"
        ],
        "placetype": [
          "aat:300008347"
        ],
        "name:en": "Abdullapur",
        "id": 7546809
      }
    }
  ]
}
