{
  "type": "FeatureCollection",
  "features": [
    {
      "geometry": {
        "type": "Point",
        "coordinates": [
          80.735896,
          27.021529
        ]
      },
      "type": "Feature",
      "properties": {
        "hierarchy": [
          "tgn:7554310",
          "tgn:1000004",
          "tgn:7000198",
          "tgn:7016722",
          "tgn:7029392"
        ],
        "placetype": [
          "aat:300008347"
        ],
        "name:en": "Māl",
        "id": 7554310
      }
    },
    {
      "geometry": {
        "type": "Point",
        "coordinates": [
          75.224311,
          27.95208
        ]
      },
      "type": "Feature",
      "properties": {
        "hierarchy": [
          "tgn:7554311",
          "tgn:1000004",
          "tgn:7000198",
          "tgn:7016788",
          "tgn:7029392"
        ],
        "placetype": [
          "aat:300008347"
        ],
        "name:en": "Mukandgarh",
        "id": 7554311
      }
    },
    {
      "geometry": {
        "type": "Point",
        "coordinates": [
          95.436464,
          27.486521
        ]
      },
      "type": "Feature",
      "properties": {
        "hierarchy": [
          "tgn:7554312",
          "tgn:1000004",
          "tgn:1001832",
          "tgn:7000198",
          "tgn:7029392"
        ],
        "placetype": [
          "aat:300008347"
        ],
        "name:en": "Mākum",
        "id": 7554312
      }
    },
    {
      "geometry": {
        "type": "Point",
        "coordinates": [
          76.145497,
          23.260083
        ]
      },
      "type": "Feature",
      "properties": {
        "hierarchy": [
          "tgn:7554314",
          "tgn:1000004",
          "tgn:7000198",
          "tgn:1001894",
          "tgn:7029392"
        ],
        "placetype": [
          "aat:300008347"
        ],
        "name:en": "Maksi",
        "id": 7554314
      }
    },
    {
      "geometry": {
        "type": "Point",
        "coordinates": [
          93.204393,
          24.700645
        ]
      },
      "type": "Feature",
      "properties": {
        "hierarchy": [
          "tgn:7554315",
          "tgn:1000004",
          "tgn:1001832",
          "tgn:7000198",
          "tgn:7029392"
        ],
        "placetype": [
          "aat:300008699"
        ],
        "name:en": "Makru River",
        "id": 7554315
      }
    },
    {
      "geometry": {
        "type": "Point",
        "coordinates": [
          76.074932,
          23.506618
        ]
      },
      "type": "Feature",
      "properties": {
        "hierarchy": [
          "tgn:7554316",
          "tgn:1000004",
          "tgn:7000198",
          "tgn:1001894",
          "tgn:7029392"
        ],
        "placetype": [
          "aat:300008347"
        ],
        "name:en": "Makron",
        "id": 7554316
      }
    },
    {
      "geometry": {
        "type": "Point",
        "coordinates": [
          76.571634,
          31.033505
        ]
      },
      "type": "Feature",
      "properties": {
        "hierarchy": [
          "tgn:7554319",
          "tgn:1000004",
          "tgn:7000198",
          "tgn:7016883",
          "tgn:7029392"
        ],
        "placetype": [
          "aat:300008347"
        ],
        "name:en": "Nohan",
        "id": 7554319
      }
    }
  ]
}
