{
  "type": "FeatureCollection",
  "features": [
    {
      "geometry": {
        "type": "Point",
        "coordinates": [
          2.3667,
          51.0167
        ]
      },
      "type": "Feature",
      "properties": {
        "hierarchy": [
          "tgn:1035500",
          "tgn:1000003",
          "tgn:7001097",
          "tgn:1000070",
          "tgn:7029392"
        ],
        "placetype": [
          "aat:300008347"
        ],
        "id": 1035500,
        "name:xx": "Saint-Pol"
      }
    },
    {
      "geometry": {
        "type": "Point",
        "coordinates": [
          2.3333,
          50.3833
        ]
      },
      "type": "Feature",
      "properties": {
        "hierarchy": [
          "tgn:1035501",
          "tgn:1000003",
          "tgn:7001097",
          "tgn:1000070",
          "tgn:7029392"
        ],
        "placetype": [
          "aat:300008347"
        ],
        "id": 1035501,
        "name:xx": "Saint Pol-sur-Ternoise"
      }
    },
    {
      "geometry": {
        "type": "Point",
        "coordinates": [
          3.2667,
          46.3167
        ]
      },
      "type": "Feature",
      "properties": {
        "hierarchy": [
          "tgn:1035503",
          "tgn:7002871",
          "tgn:1000003",
          "tgn:1000070",
          "tgn:7029392"
        ],
        "placetype": [
          "aat:300008347"
        ],
        "id": 1035503,
        "name:xx": "Saint-Pourçain-sur-Sioule"
      }
    },
    {
      "geometry": {
        "type": "Point",
        "coordinates": [
          4.3667,
          45.4667
        ]
      },
      "type": "Feature",
      "properties": {
        "hierarchy": [
          "tgn:1035505",
          "tgn:1000003",
          "tgn:1000070",
          "tgn:7002897",
          "tgn:7029392"
        ],
        "placetype": [
          "aat:300008347"
        ],
        "id": 1035505,
        "name:xx": "Saint-Priest-en-Jarez"
      }
    },
    {
      "geometry": {
        "type": "Point",
        "coordinates": [
          2.2667,
          49.0167
        ]
      },
      "type": "Feature",
      "properties": {
        "hierarchy": [
          "tgn:1035506",
          "tgn:1000003",
          "tgn:7002883",
          "tgn:1000070",
          "tgn:7029392"
        ],
        "placetype": [
          "aat:300008347"
        ],
        "id": 1035506,
        "name:xx": "Saint-Prix"
      }
    },
    {
      "geometry": {
        "type": "Point",
        "coordinates": [
          4.8333,
          46.75
        ]
      },
      "type": "Feature",
      "properties": {
        "hierarchy": [
          "tgn:1035508",
          "tgn:1000003",
          "tgn:7002875",
          "tgn:1000070",
          "tgn:7029392"
        ],
        "placetype": [
          "aat:300008347"
        ],
        "id": 1035508,
        "name:xx": "Saint-Rémy"
      }
    }
  ]
}
