{
  "type": "FeatureCollection",
  "features": [
    {
      "geometry": {
        "type": "Point",
        "coordinates": [
          -72.316667,
          -42.483333
        ]
      },
      "type": "Feature",
      "properties": {
        "hierarchy": [
          "tgn:7277010",
          "tgn:1001699",
          "tgn:1000049",
          "tgn:1000002",
          "tgn:7029392"
        ],
        "placetype": [
          "aat:300008699"
        ],
        "id": 7277010,
        "name:xx": "Río Barceló"
      }
    },
    {
      "geometry": {
        "type": "Point",
        "coordinates": [
          -72.1675,
          -42.533889
        ]
      },
      "type": "Feature",
      "properties": {
        "hierarchy": [
          "tgn:7277011",
          "tgn:1001699",
          "tgn:1000049",
          "tgn:1000002",
          "tgn:7029392"
        ],
        "placetype": [
          "aat:300008795"
        ],
        "id": 7277011,
        "name:xx": "Cadena Tres Comadres"
      }
    },
    {
      "geometry": {
        "type": "Point",
        "coordinates": [
          -72.153611,
          -42.494444
        ]
      },
      "type": "Feature",
      "properties": {
        "hierarchy": [
          "tgn:7277012",
          "tgn:1001699",
          "tgn:1000049",
          "tgn:1000002",
          "tgn:7029392"
        ],
        "placetype": [
          "aat:300008699"
        ],
        "id": 7277012,
        "name:xx": "Río Escala"
      }
    },
    {
      "geometry": {
        "type": "Point",
        "coordinates": [
          -72.256667,
          -42.534722
        ]
      },
      "type": "Feature",
      "properties": {
        "hierarchy": [
          "tgn:7277013",
          "tgn:1001699",
          "tgn:1000049",
          "tgn:1000002",
          "tgn:7029392"
        ],
        "placetype": [
          "aat:300008699"
        ],
        "id": 7277013,
        "name:xx": "Río Chico"
      }
    },
    {
      "geometry": {
        "type": "Point",
        "coordinates": [
          -72.266389,
          -42.544444
        ]
      },
      "type": "Feature",
      "properties": {
        "hierarchy": [
          "tgn:7277014",
          "tgn:1001699",
          "tgn:1000049",
          "tgn:1000002",
          "tgn:7029392"
        ],
        "placetype": [
          "aat:300008795"
        ],
        "id": 7277014,
        "name:xx": "Cerro Tres María"
      }
    },
    {
      "geometry": {
        "type": "Point",
        "coordinates": [
          -72.124444,
          -42.614722
        ]
      },
      "type": "Feature",
      "properties": {
        "hierarchy": [
          "tgn:7277015",
          "tgn:1001699",
          "tgn:1000049",
          "tgn:1000002",
          "tgn:7029392"
        ],
        "placetype": [
          "aat:300008795"
        ],
        "id": 7277015,
        "name:xx": "Cerro Barrientos"
      }
    },
    {
      "geometry": {
        "type": "Point",
        "coordinates": [
          -72.216111,
          -42.633611
        ]
      },
      "type": "Feature",
      "properties": {
        "hierarchy": [
          "tgn:7277016",
          "tgn:1001699",
          "tgn:1000049",
          "tgn:1000002",
          "tgn:7029392"
        ],
        "placetype": [
          "aat:300008773"
        ],
        "id": 7277016,
        "name:xx": "Cajón Los Redupes"
      }
    },
    {
      "geometry": {
        "type": "Point",
        "coordinates": [
          -72.298611,
          -42.869722
        ]
      },
      "type": "Feature",
      "properties": {
        "hierarchy": [
          "tgn:7277017",
          "tgn:1001699",
          "tgn:1000049",
          "tgn:1000002",
          "tgn:7029392"
        ],
        "placetype": [
          "aat:300008699"
        ],
        "id": 7277017,
        "name:xx": "Río Michinmahuida"
      }
    },
    {
      "geometry": {
        "type": "Point",
        "coordinates": [
          -72.114167,
          -42.985
        ]
      },
      "type": "Feature",
      "properties": {
        "hierarchy": [
          "tgn:7277018",
          "tgn:1001699",
          "tgn:1000049",
          "tgn:1000002",
          "tgn:7029392"
        ],
        "placetype": [
          "aat:300008699"
        ],
        "id": 7277018,
        "name:xx": "Río Espolón"
      }
    },
    {
      "geometry": {
        "type": "Point",
        "coordinates": [
          -72.106111,
          -43.018333
        ]
      },
      "type": "Feature",
      "properties": {
        "hierarchy": [
          "tgn:7277019",
          "tgn:1001699",
          "tgn:1000049",
          "tgn:1000002",
          "tgn:7029392"
        ],
        "placetype": [
          "aat:300008347"
        ],
        "id": 7277019,
        "name:xx": "San Ramón"
      }
    }
  ]
}
