{
  "type": "FeatureCollection",
  "features": [
    {
      "geometry": {
        "type": "Point",
        "coordinates": [
          31.639604,
          31.088173
        ]
      },
      "type": "Feature",
      "properties": {
        "hierarchy": [
          "tgn:7522890",
          "tgn:7001242",
          "tgn:1001059",
          "tgn:7016833",
          "tgn:7029392"
        ],
        "placetype": [
          "aat:300008347"
        ],
        "name:en": "Ashmūn ar Rummān",
        "id": 7522890
      }
    },
    {
      "geometry": {
        "type": "Point",
        "coordinates": [
          30.898022,
          30.570882
        ]
      },
      "type": "Feature",
      "properties": {
        "hierarchy": [
          "tgn:7522893",
          "tgn:7001242",
          "tgn:7016833",
          "tgn:1001087",
          "tgn:7029392"
        ],
        "placetype": [
          "aat:300008347"
        ],
        "name:en": "'Ashmā",
        "id": 7522893
      }
    },
    {
      "geometry": {
        "type": "Point",
        "coordinates": [
          31.120027,
          30.512036
        ]
      },
      "type": "Feature",
      "properties": {
        "hierarchy": [
          "tgn:7522894",
          "tgn:7001242",
          "tgn:7016833",
          "tgn:1001087",
          "tgn:7029392"
        ],
        "placetype": [
          "aat:300008347"
        ],
        "name:en": "Ashlîm",
        "id": 7522894
      }
    },
    {
      "geometry": {
        "type": "Point",
        "coordinates": [
          31.416667,
          22.016667
        ]
      },
      "type": "Feature",
      "properties": {
        "hierarchy": [
          "tgn:7522895",
          "tgn:7001242",
          "tgn:7016833",
          "tgn:7000122",
          "tgn:7029392"
        ],
        "placetype": [
          "aat:300055621"
        ],
        "name:en": "Ashkît",
        "id": 7522895
      }
    },
    {
      "geometry": {
        "type": "Point",
        "coordinates": [
          31.106667,
          31.574722
        ]
      },
      "type": "Feature",
      "properties": {
        "hierarchy": [
          "tgn:7522897",
          "tgn:7001242",
          "tgn:7016833",
          "tgn:1001335",
          "tgn:7029392"
        ],
        "placetype": [
          "aat:300008057"
        ],
        "name:en": "Tall al Ash'ār",
        "id": 7522897
      }
    },
    {
      "geometry": {
        "type": "Point",
        "coordinates": [
          35.366667,
          24.283333
        ]
      },
      "type": "Feature",
      "properties": {
        "hierarchy": [
          "tgn:7522898",
          "tgn:7001242",
          "tgn:7001311",
          "tgn:7016833",
          "tgn:7029392"
        ],
        "placetype": [
          "aat:300379998"
        ],
        "name:en": "'Ashabah, Rôḍ el-",
        "id": 7522898
      }
    },
    {
      "geometry": {
        "type": "Point",
        "coordinates": [
          32.516667,
          25.433333
        ]
      },
      "type": "Feature",
      "properties": {
        "hierarchy": [
          "tgn:7522899",
          "tgn:7001242",
          "tgn:7016833",
          "tgn:7000123",
          "tgn:7029392"
        ],
        "placetype": [
          "aat:300343519"
        ],
        "name:en": "Aşfūn wa Wādī al Jinn, Ḩawḑ",
        "id": 7522899
      }
    }
  ]
}
