{
  "type": "FeatureCollection",
  "features": [
    {
      "geometry": {
        "type": "Point",
        "coordinates": [
          -99.05,
          17.375
        ]
      },
      "type": "Feature",
      "properties": {
        "hierarchy": [
          "tgn:7403920",
          "tgn:7005585",
          "tgn:1000001",
          "tgn:7005560",
          "tgn:7029392"
        ],
        "placetype": [
          "aat:300008347"
        ],
        "id": 7403920,
        "name:xx": "Epazote"
      }
    },
    {
      "geometry": {
        "type": "Point",
        "coordinates": [
          -99.083333,
          17.366667
        ]
      },
      "type": "Feature",
      "properties": {
        "hierarchy": [
          "tgn:7403921",
          "tgn:7005585",
          "tgn:1000001",
          "tgn:7005560",
          "tgn:7029392"
        ],
        "placetype": [
          "aat:300008347"
        ],
        "id": 7403921,
        "name:xx": "Zalpizaco"
      }
    },
    {
      "geometry": {
        "type": "Point",
        "coordinates": [
          -99.133333,
          17.35
        ]
      },
      "type": "Feature",
      "properties": {
        "hierarchy": [
          "tgn:7403922",
          "tgn:7005585",
          "tgn:1000001",
          "tgn:7005560",
          "tgn:7029392"
        ],
        "placetype": [
          "aat:300008347"
        ],
        "id": 7403922,
        "name:xx": "El Zapote"
      }
    },
    {
      "geometry": {
        "type": "Point",
        "coordinates": [
          -99.133333,
          17.375
        ]
      },
      "type": "Feature",
      "properties": {
        "hierarchy": [
          "tgn:7403923",
          "tgn:7005585",
          "tgn:1000001",
          "tgn:7005560",
          "tgn:7029392"
        ],
        "placetype": [
          "aat:300008347"
        ],
        "id": 7403923,
        "name:xx": "Xinacantla"
      }
    },
    {
      "geometry": {
        "type": "Point",
        "coordinates": [
          -99.166667,
          17.366667
        ]
      },
      "type": "Feature",
      "properties": {
        "hierarchy": [
          "tgn:7403924",
          "tgn:7005585",
          "tgn:1000001",
          "tgn:7005560",
          "tgn:7029392"
        ],
        "placetype": [
          "aat:300008347"
        ],
        "id": 7403924,
        "name:xx": "San Antonio"
      }
    },
    {
      "geometry": {
        "type": "Point",
        "coordinates": [
          -99.158333,
          17.375
        ]
      },
      "type": "Feature",
      "properties": {
        "hierarchy": [
          "tgn:7403925",
          "tgn:7005585",
          "tgn:1000001",
          "tgn:7005560",
          "tgn:7029392"
        ],
        "placetype": [
          "aat:300008347"
        ],
        "id": 7403925,
        "name:xx": "El Aguacate"
      }
    },
    {
      "geometry": {
        "type": "Point",
        "coordinates": [
          -99.816667,
          17.416667
        ]
      },
      "type": "Feature",
      "properties": {
        "hierarchy": [
          "tgn:7403926",
          "tgn:7005585",
          "tgn:1000001",
          "tgn:7005560",
          "tgn:7029392"
        ],
        "placetype": [
          "aat:300008347"
        ],
        "id": 7403926,
        "name:xx": "Huitzapula"
      }
    },
    {
      "geometry": {
        "type": "Point",
        "coordinates": [
          -98.841667,
          17.45
        ]
      },
      "type": "Feature",
      "properties": {
        "hierarchy": [
          "tgn:7403927",
          "tgn:7005585",
          "tgn:1000001",
          "tgn:7005560",
          "tgn:7029392"
        ],
        "placetype": [
          "aat:300008347"
        ],
        "id": 7403927,
        "name:xx": "Cuapala"
      }
    },
    {
      "geometry": {
        "type": "Point",
        "coordinates": [
          -99.016667,
          17.416667
        ]
      },
      "type": "Feature",
      "properties": {
        "hierarchy": [
          "tgn:7403928",
          "tgn:7005585",
          "tgn:1000001",
          "tgn:7005560",
          "tgn:7029392"
        ],
        "placetype": [
          "aat:300008347"
        ],
        "id": 7403928,
        "name:xx": "Tecuapango"
      }
    },
    {
      "geometry": {
        "type": "Point",
        "coordinates": [
          -99.125,
          17.416667
        ]
      },
      "type": "Feature",
      "properties": {
        "hierarchy": [
          "tgn:7403929",
          "tgn:7005585",
          "tgn:1000001",
          "tgn:7005560",
          "tgn:7029392"
        ],
        "placetype": [
          "aat:300008187"
        ],
        "id": 7403929,
        "name:xx": "Parque Natural Grutas de Juxtlahuaca"
      }
    }
  ]
}
