{
  "type": "FeatureCollection",
  "features": [
    {
      "geometry": {
        "type": "Point",
        "coordinates": [
          79.470303,
          27.160678
        ]
      },
      "type": "Feature",
      "properties": {
        "hierarchy": [
          "tgn:7560890",
          "tgn:1000004",
          "tgn:7000198",
          "tgn:7016722",
          "tgn:7029392"
        ],
        "placetype": [
          "aat:300008347"
        ],
        "name:en": "Lareta",
        "id": 7560890
      }
    },
    {
      "geometry": {
        "type": "Point",
        "coordinates": [
          79.454112,
          27.163778
        ]
      },
      "type": "Feature",
      "properties": {
        "hierarchy": [
          "tgn:7560891",
          "tgn:1000004",
          "tgn:7000198",
          "tgn:7016722",
          "tgn:7029392"
        ],
        "placetype": [
          "aat:300008347"
        ],
        "name:en": "Rāmpur Nigoh",
        "id": 7560891
      }
    },
    {
      "geometry": {
        "type": "Point",
        "coordinates": [
          79.455054,
          27.15513
        ]
      },
      "type": "Feature",
      "properties": {
        "hierarchy": [
          "tgn:7560892",
          "tgn:1000004",
          "tgn:7000198",
          "tgn:7016722",
          "tgn:7029392"
        ],
        "placetype": [
          "aat:300008347"
        ],
        "name:en": "Nigoh Khās",
        "id": 7560892
      }
    },
    {
      "geometry": {
        "type": "Point",
        "coordinates": [
          79.475419,
          27.144045
        ]
      },
      "type": "Feature",
      "properties": {
        "hierarchy": [
          "tgn:7560893",
          "tgn:1000004",
          "tgn:7000198",
          "tgn:7016722",
          "tgn:7029392"
        ],
        "placetype": [
          "aat:300008347"
        ],
        "name:en": "Girdharpur",
        "id": 7560893
      }
    },
    {
      "geometry": {
        "type": "Point",
        "coordinates": [
          79.476331,
          27.148798
        ]
      },
      "type": "Feature",
      "properties": {
        "hierarchy": [
          "tgn:7560894",
          "tgn:1000004",
          "tgn:7000198",
          "tgn:7016722",
          "tgn:7029392"
        ],
        "placetype": [
          "aat:300008347"
        ],
        "name:en": "Sikandarpur Nigoh",
        "id": 7560894
      }
    },
    {
      "geometry": {
        "type": "Point",
        "coordinates": [
          79.468359,
          27.145929
        ]
      },
      "type": "Feature",
      "properties": {
        "hierarchy": [
          "tgn:7560895",
          "tgn:1000004",
          "tgn:7000198",
          "tgn:7016722",
          "tgn:7029392"
        ],
        "placetype": [
          "aat:300008347"
        ],
        "name:en": "Nagla Jor",
        "id": 7560895
      }
    },
    {
      "geometry": {
        "type": "Point",
        "coordinates": [
          79.463704,
          27.145168
        ]
      },
      "type": "Feature",
      "properties": {
        "hierarchy": [
          "tgn:7560896",
          "tgn:1000004",
          "tgn:7000198",
          "tgn:7016722",
          "tgn:7029392"
        ],
        "placetype": [
          "aat:300008347"
        ],
        "name:en": "Nagla Līta",
        "id": 7560896
      }
    },
    {
      "geometry": {
        "type": "Point",
        "coordinates": [
          79.456075,
          27.14122
        ]
      },
      "type": "Feature",
      "properties": {
        "hierarchy": [
          "tgn:7560897",
          "tgn:1000004",
          "tgn:7000198",
          "tgn:7016722",
          "tgn:7029392"
        ],
        "placetype": [
          "aat:300008347"
        ],
        "name:en": "Bhogpur Nigoh",
        "id": 7560897
      }
    },
    {
      "geometry": {
        "type": "Point",
        "coordinates": [
          79.449704,
          27.144627
        ]
      },
      "type": "Feature",
      "properties": {
        "hierarchy": [
          "tgn:7560898",
          "tgn:1000004",
          "tgn:7000198",
          "tgn:7016722",
          "tgn:7029392"
        ],
        "placetype": [
          "aat:300008347"
        ],
        "name:en": "Hamīrpur",
        "id": 7560898
      }
    },
    {
      "geometry": {
        "type": "Point",
        "coordinates": [
          79.45248,
          27.151401
        ]
      },
      "type": "Feature",
      "properties": {
        "hierarchy": [
          "tgn:7560899",
          "tgn:1000004",
          "tgn:7000198",
          "tgn:7016722",
          "tgn:7029392"
        ],
        "placetype": [
          "aat:300008680"
        ],
        "name:en": "Nigoh Jhīl",
        "id": 7560899
      }
    }
  ]
}
