{
  "type": "FeatureCollection",
  "features": [
    {
      "geometry": {
        "type": "Point",
        "coordinates": [
          33.429767,
          28.978339
        ]
      },
      "type": "Feature",
      "properties": {
        "hierarchy": [
          "tgn:7541920",
          "tgn:7001242",
          "tgn:7016833",
          "tgn:7001336",
          "tgn:7029392"
        ],
        "placetype": [
          "aat:300008795"
        ],
        "id": 7541920,
        "name:xx": "Marâhil, Gebel"
      }
    },
    {
      "geometry": {
        "type": "Point",
        "coordinates": [
          34.392222,
          29.557222
        ]
      },
      "type": "Feature",
      "properties": {
        "hierarchy": [
          "tgn:7541921",
          "tgn:7001242",
          "tgn:7016833",
          "tgn:7001336",
          "tgn:7029392"
        ],
        "placetype": [
          "aat:300379998"
        ],
        "id": 7541921,
        "name:xx": "Hanayk, Wādī al"
      }
    },
    {
      "geometry": {
        "type": "Point",
        "coordinates": [
          34.344444,
          29.595278
        ]
      },
      "type": "Feature",
      "properties": {
        "hierarchy": [
          "tgn:7541922",
          "tgn:7001242",
          "tgn:7016833",
          "tgn:7001336",
          "tgn:7029392"
        ],
        "placetype": [
          "aat:300379998"
        ],
        "id": 7541922,
        "name:xx": "Umm Ḩamāţah, Wādī"
      }
    },
    {
      "geometry": {
        "type": "Point",
        "coordinates": [
          34.38,
          29.565278
        ]
      },
      "type": "Feature",
      "properties": {
        "hierarchy": [
          "tgn:7541923",
          "tgn:7001242",
          "tgn:7016833",
          "tgn:7001336",
          "tgn:7029392"
        ],
        "placetype": [
          "aat:300379998"
        ],
        "id": 7541923,
        "name:xx": "Mitlā, Wādī al"
      }
    },
    {
      "geometry": {
        "type": "Point",
        "coordinates": [
          34.411389,
          29.628056
        ]
      },
      "type": "Feature",
      "properties": {
        "hierarchy": [
          "tgn:7541924",
          "tgn:7001242",
          "tgn:7016833",
          "tgn:7001336",
          "tgn:7029392"
        ],
        "placetype": [
          "aat:300379998"
        ],
        "id": 7541924,
        "name:xx": "Shakrī, Wādī al"
      }
    },
    {
      "geometry": {
        "type": "Point",
        "coordinates": [
          34.404444,
          29.655833
        ]
      },
      "type": "Feature",
      "properties": {
        "hierarchy": [
          "tgn:7541925",
          "tgn:7001242",
          "tgn:7016833",
          "tgn:7001336",
          "tgn:7029392"
        ],
        "placetype": [
          "aat:300379998"
        ],
        "id": 7541925,
        "name:xx": "Shakāa'ah, Wādī al"
      }
    },
    {
      "geometry": {
        "type": "Point",
        "coordinates": [
          34.330278,
          29.545556
        ]
      },
      "type": "Feature",
      "properties": {
        "hierarchy": [
          "tgn:7541926",
          "tgn:7001242",
          "tgn:7016833",
          "tgn:7001336",
          "tgn:7029392"
        ],
        "placetype": [
          "aat:300008795"
        ],
        "id": 7541926,
        "name:xx": "Maybūn, Jabal al"
      }
    },
    {
      "geometry": {
        "type": "Point",
        "coordinates": [
          34.079722,
          29.503611
        ]
      },
      "type": "Feature",
      "properties": {
        "hierarchy": [
          "tgn:7541927",
          "tgn:7001242",
          "tgn:7016833",
          "tgn:7001336",
          "tgn:7029392"
        ],
        "placetype": [
          "aat:300008798"
        ],
        "id": 7541927,
        "name:xx": "Wādī 'Atab, Ra's"
      }
    },
    {
      "geometry": {
        "type": "Point",
        "coordinates": [
          34.020278,
          29.541111
        ]
      },
      "type": "Feature",
      "properties": {
        "hierarchy": [
          "tgn:7541928",
          "tgn:7001242",
          "tgn:7016833",
          "tgn:7001336",
          "tgn:7029392"
        ],
        "placetype": [
          "aat:300008795"
        ],
        "id": 7541928,
        "name:xx": "Jawz al Mawtam"
      }
    },
    {
      "geometry": {
        "type": "Point",
        "coordinates": [
          34.043056,
          29.576944
        ]
      },
      "type": "Feature",
      "properties": {
        "hierarchy": [
          "tgn:7541929",
          "tgn:7001242",
          "tgn:7016833",
          "tgn:7001336",
          "tgn:7029392"
        ],
        "placetype": [
          "aat:300379998"
        ],
        "id": 7541929,
        "name:xx": "Zaja'īa'ī, Wādī al"
      }
    }
  ]
}
