{
  "type": "FeatureCollection",
  "features": [
    {
      "geometry": {
        "type": "Point",
        "coordinates": [
          120.588541,
          23.854547
        ]
      },
      "type": "Feature",
      "properties": {
        "hierarchy": [
          "tgn:7478370",
          "tgn:1000004",
          "tgn:7467799",
          "tgn:1000141",
          "tgn:7029392"
        ],
        "placetype": [
          "aat:300006495"
        ],
        "id": 7478370,
        "name:xx": "Tianzhong Guoxiao"
      }
    },
    {
      "geometry": {
        "type": "Point",
        "coordinates": [
          120.577258,
          23.819149
        ]
      },
      "type": "Feature",
      "properties": {
        "hierarchy": [
          "tgn:7478372",
          "tgn:1000004",
          "tgn:7467799",
          "tgn:1000141",
          "tgn:7029392"
        ],
        "placetype": [
          "aat:300008347"
        ],
        "id": 7478372,
        "name:xx": "Datong"
      }
    },
    {
      "geometry": {
        "type": "Point",
        "coordinates": [
          120.56657,
          23.81623
        ]
      },
      "type": "Feature",
      "properties": {
        "hierarchy": [
          "tgn:7478373",
          "tgn:1000004",
          "tgn:7467799",
          "tgn:1000141",
          "tgn:7029392"
        ],
        "placetype": [
          "aat:300006495"
        ],
        "id": 7478373,
        "name:xx": "Dazhuang Guoxiao"
      }
    },
    {
      "geometry": {
        "type": "Point",
        "coordinates": [
          120.578749,
          23.764106
        ]
      },
      "type": "Feature",
      "properties": {
        "hierarchy": [
          "tgn:7478375",
          "tgn:1000004",
          "tgn:7001014",
          "tgn:1000141",
          "tgn:7029392"
        ],
        "placetype": [
          "aat:300006495"
        ],
        "id": 7478375,
        "name:xx": "Chongxing Guoxiao"
      }
    },
    {
      "geometry": {
        "type": "Point",
        "coordinates": [
          120.57963,
          23.776366
        ]
      },
      "type": "Feature",
      "properties": {
        "hierarchy": [
          "tgn:7478376",
          "tgn:1000004",
          "tgn:7001014",
          "tgn:1000141",
          "tgn:7029392"
        ],
        "placetype": [
          "aat:300008347"
        ],
        "id": 7478376,
        "name:xx": "Banqiaotou"
      }
    },
    {
      "geometry": {
        "type": "Point",
        "coordinates": [
          120.555854,
          23.749584
        ]
      },
      "type": "Feature",
      "properties": {
        "hierarchy": [
          "tgn:7478377",
          "tgn:1000004",
          "tgn:7001014",
          "tgn:1000141",
          "tgn:7029392"
        ],
        "placetype": [
          "aat:300266755"
        ],
        "id": 7478377,
        "name:xx": "Zhuweizi Gongmu"
      }
    },
    {
      "geometry": {
        "type": "Point",
        "coordinates": [
          120.563012,
          23.768714
        ]
      },
      "type": "Feature",
      "properties": {
        "hierarchy": [
          "tgn:7478378",
          "tgn:1000004",
          "tgn:7001014",
          "tgn:1000141",
          "tgn:7029392"
        ],
        "placetype": [
          "aat:300006495"
        ],
        "id": 7478378,
        "name:xx": "Liuhe Guoxiao"
      }
    },
    {
      "geometry": {
        "type": "Point",
        "coordinates": [
          121.76616,
          24.7023
        ]
      },
      "type": "Feature",
      "properties": {
        "hierarchy": [
          "tgn:7478379",
          "tgn:1000004",
          "tgn:7489179",
          "tgn:1000141",
          "tgn:7029392"
        ],
        "placetype": [
          "aat:300007595"
        ],
        "id": 7478379,
        "name:xx": "Taiyang Gong"
      }
    }
  ]
}
