{
  "type": "FeatureCollection",
  "features": [
    {
      "geometry": {
        "type": "Point",
        "coordinates": [
          31.172309,
          29.373354
        ]
      },
      "type": "Feature",
      "properties": {
        "hierarchy": [
          "tgn:1095600",
          "tgn:7001242",
          "tgn:7016833",
          "tgn:1001142",
          "tgn:7029392"
        ],
        "placetype": [
          "aat:300008347"
        ],
        "name:en": "Maydūm",
        "id": 1095600
      }
    },
    {
      "geometry": {
        "type": "Point",
        "coordinates": [
          31.037304,
          30.595735
        ]
      },
      "type": "Feature",
      "properties": {
        "hierarchy": [
          "tgn:1095601",
          "tgn:7001242",
          "tgn:7016833",
          "tgn:1001087",
          "tgn:7029392"
        ],
        "placetype": [
          "aat:300008347"
        ],
        "name:en": "Milīj",
        "id": 1095601
      }
    },
    {
      "geometry": {
        "type": "Point",
        "coordinates": [
          30.931643,
          30.46579
        ]
      },
      "type": "Feature",
      "properties": {
        "hierarchy": [
          "tgn:1095602",
          "tgn:7001242",
          "tgn:7016833",
          "tgn:1001087",
          "tgn:7029392"
        ],
        "placetype": [
          "aat:300008347",
          "aat:300008375"
        ],
        "name:en": "Minūf",
        "id": 1095602
      }
    },
    {
      "geometry": {
        "type": "Point",
        "coordinates": [
          30.681667,
          28.408753
        ]
      },
      "type": "Feature",
      "properties": {
        "hierarchy": [
          "tgn:1095603",
          "tgn:7001242",
          "tgn:7016833",
          "tgn:1001088",
          "tgn:7029392"
        ],
        "placetype": [
          "aat:300008347"
        ],
        "name:en": "Minbāl",
        "id": 1095603
      }
    },
    {
      "geometry": {
        "type": "Point",
        "coordinates": [
          30.170833,
          31.181667
        ]
      },
      "type": "Feature",
      "properties": {
        "hierarchy": [
          "tgn:1095604",
          "tgn:7001242",
          "tgn:1001075",
          "tgn:7016833",
          "tgn:7029392"
        ],
        "placetype": [
          "aat:300008347"
        ],
        "name:en": "Minshât Bûlîn",
        "id": 1095604
      }
    },
    {
      "geometry": {
        "type": "Point",
        "coordinates": [
          30.922743,
          30.528781
        ]
      },
      "type": "Feature",
      "properties": {
        "hierarchy": [
          "tgn:1095605",
          "tgn:7001242",
          "tgn:7016833",
          "tgn:1001087",
          "tgn:7029392"
        ],
        "placetype": [
          "aat:300008347"
        ],
        "name:en": "Minshāt Sulţān",
        "id": 1095605
      }
    },
    {
      "geometry": {
        "type": "Point",
        "coordinates": [
          30.696277,
          28.002193
        ]
      },
      "type": "Feature",
      "properties": {
        "hierarchy": [
          "tgn:1095606",
          "tgn:7001242",
          "tgn:7016833",
          "tgn:1001088",
          "tgn:7029392"
        ],
        "placetype": [
          "aat:300008347"
        ],
        "id": 1095606,
        "name:xx": "Minshāt adh Dhahab"
      }
    },
    {
      "geometry": {
        "type": "Point",
        "coordinates": [
          31.139844,
          30.019003
        ]
      },
      "type": "Feature",
      "properties": {
        "hierarchy": [
          "tgn:1095607",
          "tgn:7001242",
          "tgn:7016833",
          "tgn:1001083",
          "tgn:7029392"
        ],
        "placetype": [
          "aat:300008347"
        ],
        "id": 1095607,
        "name:xx": "Minshāt al Bakkārī"
      }
    },
    {
      "geometry": {
        "type": "Point",
        "coordinates": [
          31.357171,
          30.931895
        ]
      },
      "type": "Feature",
      "properties": {
        "hierarchy": [
          "tgn:1095608",
          "tgn:7001242",
          "tgn:1001059",
          "tgn:7016833",
          "tgn:7029392"
        ],
        "placetype": [
          "aat:300008347"
        ],
        "name:en": "Minshāt al Ikhwah",
        "id": 1095608
      }
    },
    {
      "geometry": {
        "type": "Point",
        "coordinates": [
          30.78781,
          27.745657
        ]
      },
      "type": "Feature",
      "properties": {
        "hierarchy": [
          "tgn:1095609",
          "tgn:7001242",
          "tgn:7016833",
          "tgn:1001088",
          "tgn:7029392"
        ],
        "placetype": [
          "aat:300008347"
        ],
        "id": 1095609,
        "name:xx": "Minshāt al Mughālaqah"
      }
    }
  ]
}
