{
  "type": "FeatureCollection",
  "features": [
    {
      "geometry": {
        "type": "Point",
        "coordinates": [
          121.184764,
          25.083343
        ]
      },
      "type": "Feature",
      "properties": {
        "hierarchy": [
          "tgn:7468940",
          "tgn:1000004",
          "tgn:7001013",
          "tgn:1000141",
          "tgn:7029392"
        ],
        "placetype": [
          "aat:300008347"
        ],
        "id": 7468940,
        "name:xx": "Zhonghaihu"
      }
    },
    {
      "geometry": {
        "type": "Point",
        "coordinates": [
          121.67798,
          25.166009
        ]
      },
      "type": "Feature",
      "properties": {
        "hierarchy": [
          "tgn:7468941",
          "tgn:1000957",
          "tgn:1000004",
          "tgn:1000141",
          "tgn:7029392"
        ],
        "placetype": [
          "aat:300008347"
        ],
        "id": 7468941,
        "name:xx": "Zhongfu"
      }
    },
    {
      "geometry": {
        "type": "Point",
        "coordinates": [
          120.380062,
          22.346416
        ]
      },
      "type": "Feature",
      "properties": {
        "hierarchy": [
          "tgn:7468942",
          "tgn:1000004",
          "tgn:7492971",
          "tgn:1000141",
          "tgn:7029392"
        ],
        "placetype": [
          "aat:300387173"
        ],
        "id": 7468942,
        "name:xx": "Zhongfu Cun"
      }
    },
    {
      "geometry": {
        "type": "Point",
        "coordinates": [
          121.151111,
          23.050278
        ]
      },
      "type": "Feature",
      "properties": {
        "hierarchy": [
          "tgn:7468943",
          "tgn:1000004",
          "tgn:7491221",
          "tgn:1000141",
          "tgn:7029392"
        ],
        "placetype": [
          "aat:300387173"
        ],
        "id": 7468943,
        "name:xx": "Zhongfu Li"
      }
    },
    {
      "geometry": {
        "type": "Point",
        "coordinates": [
          121.252358,
          25.015714
        ]
      },
      "type": "Feature",
      "properties": {
        "hierarchy": [
          "tgn:7468944",
          "tgn:1000004",
          "tgn:7001013",
          "tgn:1000141",
          "tgn:7029392"
        ],
        "placetype": [
          "aat:300008347"
        ],
        "id": 7468944,
        "name:xx": "Zhongfu"
      }
    },
    {
      "geometry": {
        "type": "Point",
        "coordinates": [
          120.500278,
          22.761667
        ]
      },
      "type": "Feature",
      "properties": {
        "hierarchy": [
          "tgn:7468945",
          "tgn:1000004",
          "tgn:7492971",
          "tgn:1000141",
          "tgn:7029392"
        ],
        "placetype": [
          "aat:300008347"
        ],
        "id": 7468945,
        "name:xx": "Changrong"
      }
    },
    {
      "geometry": {
        "type": "Point",
        "coordinates": [
          120.380947,
          23.673805
        ]
      },
      "type": "Feature",
      "properties": {
        "hierarchy": [
          "tgn:7468946",
          "tgn:1000004",
          "tgn:7001014",
          "tgn:1000141",
          "tgn:7029392"
        ],
        "placetype": [
          "aat:300008347"
        ],
        "id": 7468946,
        "name:xx": "Zhongwei"
      }
    },
    {
      "geometry": {
        "type": "Point",
        "coordinates": [
          120.554999,
          23.85983
        ]
      },
      "type": "Feature",
      "properties": {
        "hierarchy": [
          "tgn:7468947",
          "tgn:1000004",
          "tgn:7467799",
          "tgn:1000141",
          "tgn:7029392"
        ],
        "placetype": [
          "aat:300008347"
        ],
        "id": 7468947,
        "name:xx": "Zhongzhen"
      }
    },
    {
      "geometry": {
        "type": "Point",
        "coordinates": [
          120.483333,
          23.466667
        ]
      },
      "type": "Feature",
      "properties": {
        "hierarchy": [
          "tgn:7468948",
          "tgn:7468018",
          "tgn:1000004",
          "tgn:1000141",
          "tgn:7029392"
        ],
        "placetype": [
          "aat:300008347"
        ],
        "id": 7468948,
        "name:xx": "Zhongchuzhiso"
      }
    },
    {
      "geometry": {
        "type": "Point",
        "coordinates": [
          120.535376,
          24.086474
        ]
      },
      "type": "Feature",
      "properties": {
        "hierarchy": [
          "tgn:7468949",
          "tgn:1000004",
          "tgn:7467799",
          "tgn:1000141",
          "tgn:7029392"
        ],
        "placetype": [
          "aat:300000745"
        ],
        "id": 7468949,
        "name:xx": "Zhongquanzhuang"
      }
    }
  ]
}
