{
  "type": "FeatureCollection",
  "features": [
    {
      "geometry": {
        "type": "Point",
        "coordinates": [
          119.465833,
          23.348056
        ]
      },
      "type": "Feature",
      "properties": {
        "hierarchy": [
          "tgn:7488830",
          "tgn:1000004",
          "tgn:7004300",
          "tgn:1000141",
          "tgn:7029392"
        ],
        "placetype": [
          "aat:300008791"
        ],
        "id": 7488830,
        "name:xx": "Nanwen"
      }
    },
    {
      "geometry": {
        "type": "Point",
        "coordinates": [
          119.341944,
          23.308056
        ]
      },
      "type": "Feature",
      "properties": {
        "hierarchy": [
          "tgn:7488831",
          "tgn:1000004",
          "tgn:7004300",
          "tgn:1000141",
          "tgn:7029392"
        ],
        "placetype": [
          "aat:300008791"
        ],
        "id": 7488831,
        "name:xx": "Nanwen"
      }
    },
    {
      "geometry": {
        "type": "Point",
        "coordinates": [
          120.525371,
          24.054044
        ]
      },
      "type": "Feature",
      "properties": {
        "hierarchy": [
          "tgn:7488832",
          "tgn:1000004",
          "tgn:7467799",
          "tgn:1000141",
          "tgn:7029392"
        ],
        "placetype": [
          "aat:300008347"
        ],
        "id": 7488832,
        "name:xx": "Nanwei"
      }
    },
    {
      "geometry": {
        "type": "Point",
        "coordinates": [
          121.153056,
          23.903611
        ]
      },
      "type": "Feature",
      "properties": {
        "hierarchy": [
          "tgn:7488834",
          "tgn:7488858",
          "tgn:1000004",
          "tgn:1000141",
          "tgn:7029392"
        ],
        "placetype": [
          "aat:300008798"
        ],
        "id": 7488834,
        "name:xx": "Nanwanda Shan"
      }
    },
    {
      "geometry": {
        "type": "Point",
        "coordinates": [
          120.57329,
          24.11302
        ]
      },
      "type": "Feature",
      "properties": {
        "hierarchy": [
          "tgn:7488835",
          "tgn:1000004",
          "tgn:7001009",
          "tgn:1000141",
          "tgn:7029392"
        ],
        "placetype": [
          "aat:300008347"
        ],
        "id": 7488835,
        "name:xx": "Nanwangtian"
      }
    },
    {
      "geometry": {
        "type": "Point",
        "coordinates": [
          120.508108,
          22.495877
        ]
      },
      "type": "Feature",
      "properties": {
        "hierarchy": [
          "tgn:7488836",
          "tgn:1000004",
          "tgn:7492971",
          "tgn:1000141",
          "tgn:7029392"
        ],
        "placetype": [
          "aat:300008347"
        ],
        "id": 7488836,
        "name:xx": "Nanwang'an"
      }
    },
    {
      "geometry": {
        "type": "Point",
        "coordinates": [
          121.1156,
          22.7862
        ]
      },
      "type": "Feature",
      "properties": {
        "hierarchy": [
          "tgn:7488837",
          "tgn:1000004",
          "tgn:7491221",
          "tgn:1000141",
          "tgn:7029392"
        ],
        "placetype": [
          "aat:300008347"
        ],
        "id": 7488837,
        "name:xx": "Nanwang"
      }
    },
    {
      "geometry": {
        "type": "Point",
        "coordinates": [
          120.913925,
          24.4127
        ]
      },
      "type": "Feature",
      "properties": {
        "hierarchy": [
          "tgn:7488838",
          "tgn:7487020",
          "tgn:1000004",
          "tgn:1000141",
          "tgn:7029392"
        ],
        "placetype": [
          "aat:300008347"
        ],
        "id": 7488838,
        "name:xx": "Nanwan"
      }
    },
    {
      "geometry": {
        "type": "Point",
        "coordinates": [
          120.769167,
          21.963611
        ]
      },
      "type": "Feature",
      "properties": {
        "hierarchy": [
          "tgn:7488839",
          "tgn:1000004",
          "tgn:7492971",
          "tgn:1000141",
          "tgn:7029392"
        ],
        "placetype": [
          "aat:300387173"
        ],
        "id": 7488839,
        "name:xx": "Nanwan Li"
      }
    }
  ]
}
