{
  "type": "FeatureCollection",
  "features": [
    {
      "geometry": {
        "type": "Point",
        "coordinates": [
          120.553601,
          22.61437
        ]
      },
      "type": "Feature",
      "properties": {
        "hierarchy": [
          "tgn:7492290",
          "tgn:1000004",
          "tgn:7492971",
          "tgn:1000141",
          "tgn:7029392"
        ],
        "placetype": [
          "aat:300008347"
        ],
        "id": 7492290,
        "name:xx": "Tangdu"
      }
    },
    {
      "geometry": {
        "type": "Point",
        "coordinates": [
          118.414068,
          24.516017
        ]
      },
      "type": "Feature",
      "properties": {
        "hierarchy": [
          "tgn:7492291",
          "tgn:7469009",
          "tgn:1000004",
          "tgn:1000141",
          "tgn:7029392"
        ],
        "placetype": [
          "aat:300008347"
        ],
        "id": 7492291,
        "name:xx": "Tangtou"
      }
    },
    {
      "geometry": {
        "type": "Point",
        "coordinates": [
          121.187778,
          24.844722
        ]
      },
      "type": "Feature",
      "properties": {
        "hierarchy": [
          "tgn:7492292",
          "tgn:1000004",
          "tgn:7001013",
          "tgn:1000141",
          "tgn:7029392"
        ],
        "placetype": [
          "aat:300008347"
        ],
        "id": 7492292,
        "name:xx": "Dangdishui"
      }
    },
    {
      "geometry": {
        "type": "Point",
        "coordinates": [
          120.935712,
          24.609619
        ]
      },
      "type": "Feature",
      "properties": {
        "hierarchy": [
          "tgn:7492293",
          "tgn:7487020",
          "tgn:1000004",
          "tgn:1000141",
          "tgn:7029392"
        ],
        "placetype": [
          "aat:300008347"
        ],
        "id": 7492293,
        "name:xx": "Tangbu"
      }
    },
    {
      "geometry": {
        "type": "Point",
        "coordinates": [
          121.073456,
          25.028628
        ]
      },
      "type": "Feature",
      "properties": {
        "hierarchy": [
          "tgn:7492295",
          "tgn:1000004",
          "tgn:7001013",
          "tgn:1000141",
          "tgn:7029392"
        ],
        "placetype": [
          "aat:300008347"
        ],
        "id": 7492295,
        "name:xx": "Tangbei"
      }
    },
    {
      "geometry": {
        "type": "Point",
        "coordinates": [
          120.848831,
          24.455132
        ]
      },
      "type": "Feature",
      "properties": {
        "hierarchy": [
          "tgn:7492296",
          "tgn:7487020",
          "tgn:1000004",
          "tgn:1000141",
          "tgn:7029392"
        ],
        "placetype": [
          "aat:300008347"
        ],
        "id": 7492296,
        "name:xx": "Dangbatu"
      }
    },
    {
      "geometry": {
        "type": "Point",
        "coordinates": [
          121.761481,
          25.102627
        ]
      },
      "type": "Feature",
      "properties": {
        "hierarchy": [
          "tgn:7492297",
          "tgn:1000004",
          "tgn:1000454",
          "tgn:1000141",
          "tgn:7029392"
        ],
        "placetype": [
          "aat:300007783"
        ],
        "id": 7492297,
        "name:xx": "Sijiaoting Zhan"
      }
    },
    {
      "geometry": {
        "type": "Point",
        "coordinates": [
          120.575125,
          23.852687
        ]
      },
      "type": "Feature",
      "properties": {
        "hierarchy": [
          "tgn:7492299",
          "tgn:1000004",
          "tgn:7467799",
          "tgn:1000141",
          "tgn:7029392"
        ],
        "placetype": [
          "aat:300008347"
        ],
        "id": 7492299,
        "name:xx": "Sijiaoting"
      }
    }
  ]
}
