{
  "type": "FeatureCollection",
  "features": [
    {
      "geometry": {
        "type": "Point",
        "coordinates": [
          81.916667,
          20.05
        ]
      },
      "type": "Feature",
      "properties": {
        "hierarchy": [
          "tgn:7574450",
          "tgn:1000004",
          "tgn:7031781",
          "tgn:7000198",
          "tgn:7029392"
        ],
        "placetype": [
          "aat:300008347"
        ],
        "name:en": "Kundei",
        "id": 7574450
      }
    },
    {
      "geometry": {
        "type": "Point",
        "coordinates": [
          76.458506,
          32.751786
        ]
      },
      "type": "Feature",
      "properties": {
        "hierarchy": [
          "tgn:7574451",
          "tgn:1000004",
          "tgn:7000198",
          "tgn:1001996",
          "tgn:7029392"
        ],
        "placetype": [
          "aat:300008347"
        ],
        "name:en": "Kund Bāra",
        "id": 7574451
      }
    },
    {
      "geometry": {
        "type": "Point",
        "coordinates": [
          80.816667,
          17.633333
        ]
      },
      "type": "Feature",
      "properties": {
        "hierarchy": [
          "tgn:7574452",
          "tgn:1001828",
          "tgn:1000004",
          "tgn:7000198",
          "tgn:7029392"
        ],
        "placetype": [
          "aat:300008699"
        ],
        "name:en": "Kinnarasāni",
        "id": 7574452
      }
    },
    {
      "geometry": {
        "type": "Point",
        "coordinates": [
          73.483333,
          19.35
        ]
      },
      "type": "Feature",
      "properties": {
        "hierarchy": [
          "tgn:7574453",
          "tgn:1000004",
          "tgn:7000198",
          "tgn:1001895",
          "tgn:7029392"
        ],
        "placetype": [
          "aat:300008347"
        ],
        "name:en": "Kinlivli",
        "id": 7574453
      }
    },
    {
      "geometry": {
        "type": "Point",
        "coordinates": [
          77.416667,
          20.65
        ]
      },
      "type": "Feature",
      "properties": {
        "hierarchy": [
          "tgn:7574454",
          "tgn:1000004",
          "tgn:7000198",
          "tgn:1001895",
          "tgn:7029392"
        ],
        "placetype": [
          "aat:300007783"
        ],
        "name:en": "Kinkhed",
        "id": 7574454
      }
    },
    {
      "geometry": {
        "type": "Point",
        "coordinates": [
          84.828731,
          25.218471
        ]
      },
      "type": "Feature",
      "properties": {
        "hierarchy": [
          "tgn:7574455",
          "tgn:1000004",
          "tgn:1001842",
          "tgn:7000198",
          "tgn:7029392"
        ],
        "placetype": [
          "aat:300008347"
        ],
        "name:en": "Kinjar",
        "id": 7574455
      }
    },
    {
      "geometry": {
        "type": "Point",
        "coordinates": [
          77.166667,
          20.033333
        ]
      },
      "type": "Feature",
      "properties": {
        "hierarchy": [
          "tgn:7574456",
          "tgn:1000004",
          "tgn:7000198",
          "tgn:1001895",
          "tgn:7029392"
        ],
        "placetype": [
          "aat:300008347"
        ],
        "name:en": "Kinhi Rāja",
        "id": 7574456
      }
    },
    {
      "geometry": {
        "type": "Point",
        "coordinates": [
          80.435537,
          21.620084
        ]
      },
      "type": "Feature",
      "properties": {
        "hierarchy": [
          "tgn:7574457",
          "tgn:1000004",
          "tgn:7000198",
          "tgn:1001894",
          "tgn:7029392"
        ],
        "placetype": [
          "aat:300008347"
        ],
        "name:en": "Kīnhi",
        "id": 7574457
      }
    },
    {
      "geometry": {
        "type": "Point",
        "coordinates": [
          77.059775,
          17.662912
        ]
      },
      "type": "Feature",
      "properties": {
        "hierarchy": [
          "tgn:7574458",
          "tgn:1000004",
          "tgn:7000198",
          "tgn:1001882",
          "tgn:7029392"
        ],
        "placetype": [
          "aat:300008347"
        ],
        "name:en": "Kinhi",
        "id": 7574458
      }
    },
    {
      "geometry": {
        "type": "Point",
        "coordinates": [
          76.116667,
          15.45
        ]
      },
      "type": "Feature",
      "properties": {
        "hierarchy": [
          "tgn:7574459",
          "tgn:1000004",
          "tgn:7000198",
          "tgn:1001882",
          "tgn:7029392"
        ],
        "placetype": [
          "aat:300008347"
        ],
        "name:en": "Kinhālu",
        "id": 7574459
      }
    }
  ]
}
