{
  "type": "FeatureCollection",
  "features": [
    {
      "geometry": {
        "type": "Point",
        "coordinates": [
          -104.641667,
          20.9375
        ]
      },
      "type": "Feature",
      "properties": {
        "hierarchy": [
          "tgn:7403370",
          "tgn:1000001",
          "tgn:1001906",
          "tgn:7005560",
          "tgn:7029392"
        ],
        "placetype": [
          "aat:300008347"
        ],
        "id": 7403370,
        "name:xx": "El Lajito"
      }
    },
    {
      "geometry": {
        "type": "Point",
        "coordinates": [
          -104.5125,
          20.954167
        ]
      },
      "type": "Feature",
      "properties": {
        "hierarchy": [
          "tgn:7403371",
          "tgn:1000001",
          "tgn:1001906",
          "tgn:7005560",
          "tgn:7029392"
        ],
        "placetype": [
          "aat:300008347"
        ],
        "id": 7403371,
        "name:xx": "El Molinete"
      }
    },
    {
      "geometry": {
        "type": "Point",
        "coordinates": [
          -104.558333,
          20.958333
        ]
      },
      "type": "Feature",
      "properties": {
        "hierarchy": [
          "tgn:7403372",
          "tgn:1000001",
          "tgn:1001906",
          "tgn:7005560",
          "tgn:7029392"
        ],
        "placetype": [
          "aat:300008347"
        ],
        "id": 7403372,
        "name:xx": "Las Cebollas"
      }
    },
    {
      "geometry": {
        "type": "Point",
        "coordinates": [
          -104.691667,
          20.995833
        ]
      },
      "type": "Feature",
      "properties": {
        "hierarchy": [
          "tgn:7403373",
          "tgn:1000001",
          "tgn:1001906",
          "tgn:7005560",
          "tgn:7029392"
        ],
        "placetype": [
          "aat:300008347"
        ],
        "id": 7403373,
        "name:xx": "La Caoba"
      }
    },
    {
      "geometry": {
        "type": "Point",
        "coordinates": [
          -105.245833,
          20.745833
        ]
      },
      "type": "Feature",
      "properties": {
        "hierarchy": [
          "tgn:7403374",
          "tgn:1000001",
          "tgn:1001906",
          "tgn:7005560",
          "tgn:7029392"
        ],
        "placetype": [
          "aat:300008347"
        ],
        "id": 7403374,
        "name:xx": "San Vicente"
      }
    },
    {
      "geometry": {
        "type": "Point",
        "coordinates": [
          -105.241667,
          20.758333
        ]
      },
      "type": "Feature",
      "properties": {
        "hierarchy": [
          "tgn:7403375",
          "tgn:1000001",
          "tgn:1001906",
          "tgn:7005560",
          "tgn:7029392"
        ],
        "placetype": [
          "aat:300008347"
        ],
        "id": 7403375,
        "name:xx": "El Porvenir"
      }
    },
    {
      "geometry": {
        "type": "Point",
        "coordinates": [
          -105.233333,
          20.7625
        ]
      },
      "type": "Feature",
      "properties": {
        "hierarchy": [
          "tgn:7403376",
          "tgn:1000001",
          "tgn:1001906",
          "tgn:7005560",
          "tgn:7029392"
        ],
        "placetype": [
          "aat:300008347"
        ],
        "id": 7403376,
        "name:xx": "San José del Valle"
      }
    },
    {
      "geometry": {
        "type": "Point",
        "coordinates": [
          -105.2375,
          20.775
        ]
      },
      "type": "Feature",
      "properties": {
        "hierarchy": [
          "tgn:7403377",
          "tgn:1000001",
          "tgn:1001906",
          "tgn:7005560",
          "tgn:7029392"
        ],
        "placetype": [
          "aat:300008347"
        ],
        "id": 7403377,
        "name:xx": "San Martín"
      }
    },
    {
      "geometry": {
        "type": "Point",
        "coordinates": [
          -105.233333,
          20.7875
        ]
      },
      "type": "Feature",
      "properties": {
        "hierarchy": [
          "tgn:7403378",
          "tgn:1000001",
          "tgn:1001906",
          "tgn:7005560",
          "tgn:7029392"
        ],
        "placetype": [
          "aat:300008347"
        ],
        "id": 7403378,
        "name:xx": "Santa Rosa"
      }
    },
    {
      "geometry": {
        "type": "Point",
        "coordinates": [
          -105.216667,
          20.808333
        ]
      },
      "type": "Feature",
      "properties": {
        "hierarchy": [
          "tgn:7403379",
          "tgn:1000001",
          "tgn:1001906",
          "tgn:7005560",
          "tgn:7029392"
        ],
        "placetype": [
          "aat:300008347"
        ],
        "id": 7403379,
        "name:xx": "Arturo Bernal"
      }
    }
  ]
}
