{
  "type": "FeatureCollection",
  "features": [
    {
      "geometry": {
        "type": "Point",
        "coordinates": [
          120.84,
          23.681944
        ]
      },
      "type": "Feature",
      "properties": {
        "hierarchy": [
          "tgn:7501110",
          "tgn:7488858",
          "tgn:1000004",
          "tgn:1000141",
          "tgn:7029392"
        ],
        "placetype": [
          "aat:300007836"
        ],
        "id": 7501110,
        "name:xx": "Pinglai Qiao"
      }
    },
    {
      "geometry": {
        "type": "Point",
        "coordinates": [
          120.794444,
          23.681111
        ]
      },
      "type": "Feature",
      "properties": {
        "hierarchy": [
          "tgn:7501111",
          "tgn:7488858",
          "tgn:1000004",
          "tgn:1000141",
          "tgn:7029392"
        ],
        "placetype": [
          "aat:300007836"
        ],
        "id": 7501111,
        "name:xx": "Dazhi Qiao"
      }
    },
    {
      "geometry": {
        "type": "Point",
        "coordinates": [
          120.793333,
          23.685278
        ]
      },
      "type": "Feature",
      "properties": {
        "hierarchy": [
          "tgn:7501112",
          "tgn:7488858",
          "tgn:1000004",
          "tgn:1000141",
          "tgn:7029392"
        ],
        "placetype": [
          "aat:300007836"
        ],
        "id": 7501112,
        "name:xx": "Daren Qiao"
      }
    },
    {
      "geometry": {
        "type": "Point",
        "coordinates": [
          120.79,
          23.689722
        ]
      },
      "type": "Feature",
      "properties": {
        "hierarchy": [
          "tgn:7501113",
          "tgn:7488858",
          "tgn:1000004",
          "tgn:1000141",
          "tgn:7029392"
        ],
        "placetype": [
          "aat:300007836"
        ],
        "id": 7501113,
        "name:xx": "Daxiao Qiao"
      }
    },
    {
      "geometry": {
        "type": "Point",
        "coordinates": [
          120.779167,
          23.693611
        ]
      },
      "type": "Feature",
      "properties": {
        "hierarchy": [
          "tgn:7501114",
          "tgn:7488858",
          "tgn:1000004",
          "tgn:1000141",
          "tgn:7029392"
        ],
        "placetype": [
          "aat:300007836"
        ],
        "id": 7501114,
        "name:xx": "Shenkeng Sihao Qiao"
      }
    },
    {
      "geometry": {
        "type": "Point",
        "coordinates": [
          120.784167,
          23.689722
        ]
      },
      "type": "Feature",
      "properties": {
        "hierarchy": [
          "tgn:7501115",
          "tgn:7488858",
          "tgn:1000004",
          "tgn:1000141",
          "tgn:7029392"
        ],
        "placetype": [
          "aat:300007836"
        ],
        "id": 7501115,
        "name:xx": "Xiping Qiao"
      }
    },
    {
      "geometry": {
        "type": "Point",
        "coordinates": [
          120.785,
          23.690278
        ]
      },
      "type": "Feature",
      "properties": {
        "hierarchy": [
          "tgn:7501116",
          "tgn:7488858",
          "tgn:1000004",
          "tgn:1000141",
          "tgn:7029392"
        ],
        "placetype": [
          "aat:300007836"
        ],
        "id": 7501116,
        "name:xx": "Bengkantou Qiao"
      }
    },
    {
      "geometry": {
        "type": "Point",
        "coordinates": [
          120.785278,
          23.691389
        ]
      },
      "type": "Feature",
      "properties": {
        "hierarchy": [
          "tgn:7501117",
          "tgn:7488858",
          "tgn:1000004",
          "tgn:1000141",
          "tgn:7029392"
        ],
        "placetype": [
          "aat:300007836"
        ],
        "id": 7501117,
        "name:xx": "Bengkantou Er Qiao"
      }
    },
    {
      "geometry": {
        "type": "Point",
        "coordinates": [
          120.850556,
          23.691944
        ]
      },
      "type": "Feature",
      "properties": {
        "hierarchy": [
          "tgn:7501118",
          "tgn:7488858",
          "tgn:1000004",
          "tgn:1000141",
          "tgn:7029392"
        ],
        "placetype": [
          "aat:300007836"
        ],
        "id": 7501118,
        "name:xx": "Zi'ai Qiao"
      }
    },
    {
      "geometry": {
        "type": "Point",
        "coordinates": [
          120.8575,
          23.693056
        ]
      },
      "type": "Feature",
      "properties": {
        "hierarchy": [
          "tgn:7501119",
          "tgn:7488858",
          "tgn:1000004",
          "tgn:1000141",
          "tgn:7029392"
        ],
        "placetype": [
          "aat:300007836"
        ],
        "id": 7501119,
        "name:xx": "Xinkai Qiao"
      }
    }
  ]
}
