{
  "type": "FeatureCollection",
  "features": [
    {
      "geometry": {
        "type": "Point",
        "coordinates": [
          120.748889,
          24.478333
        ]
      },
      "type": "Feature",
      "properties": {
        "hierarchy": [
          "tgn:7487880",
          "tgn:7487020",
          "tgn:1000004",
          "tgn:1000141",
          "tgn:7029392"
        ],
        "placetype": [
          "aat:300008347"
        ],
        "id": 7487880,
        "name:xx": "Liushuwo"
      }
    },
    {
      "geometry": {
        "type": "Point",
        "coordinates": [
          121.086667,
          24.713333
        ]
      },
      "type": "Feature",
      "properties": {
        "hierarchy": [
          "tgn:7487881",
          "tgn:1000004",
          "tgn:7471332",
          "tgn:1000141",
          "tgn:7029392"
        ],
        "placetype": [
          "aat:300008347"
        ],
        "id": 7487881,
        "name:xx": "Liushunan"
      }
    },
    {
      "geometry": {
        "type": "Point",
        "coordinates": [
          120.809663,
          24.604237
        ]
      },
      "type": "Feature",
      "properties": {
        "hierarchy": [
          "tgn:7487882",
          "tgn:7487020",
          "tgn:1000004",
          "tgn:1000141",
          "tgn:7029392"
        ],
        "placetype": [
          "aat:300008347"
        ],
        "id": 7487882,
        "name:xx": "Liushuwan"
      }
    },
    {
      "geometry": {
        "type": "Point",
        "coordinates": [
          120.571231,
          22.89967
        ]
      },
      "type": "Feature",
      "properties": {
        "hierarchy": [
          "tgn:7487883",
          "tgn:7001004",
          "tgn:1000004",
          "tgn:1000141",
          "tgn:7029392"
        ],
        "placetype": [
          "aat:300008347"
        ],
        "id": 7487883,
        "name:xx": "Liushutang"
      }
    },
    {
      "geometry": {
        "type": "Point",
        "coordinates": [
          120.880707,
          24.673382
        ]
      },
      "type": "Feature",
      "properties": {
        "hierarchy": [
          "tgn:7487884",
          "tgn:7487020",
          "tgn:1000004",
          "tgn:1000141",
          "tgn:7029392"
        ],
        "placetype": [
          "aat:300008347"
        ],
        "id": 7487884,
        "name:xx": "Liushuitan"
      }
    },
    {
      "geometry": {
        "type": "Point",
        "coordinates": [
          120.44728,
          23.638747
        ]
      },
      "type": "Feature",
      "properties": {
        "hierarchy": [
          "tgn:7487885",
          "tgn:7468018",
          "tgn:1000004",
          "tgn:1000141",
          "tgn:7029392"
        ],
        "placetype": [
          "aat:300008347"
        ],
        "id": 7487885,
        "name:xx": "Liushujiao"
      }
    },
    {
      "geometry": {
        "type": "Point",
        "coordinates": [
          120.367589,
          23.167506
        ]
      },
      "type": "Feature",
      "properties": {
        "hierarchy": [
          "tgn:7487886",
          "tgn:1000004",
          "tgn:7490934",
          "tgn:1000141",
          "tgn:7029392"
        ],
        "placetype": [
          "aat:300008347"
        ],
        "id": 7487886,
        "name:xx": "Liushuang"
      }
    },
    {
      "geometry": {
        "type": "Point",
        "coordinates": [
          121.317517,
          23.218666
        ]
      },
      "type": "Feature",
      "properties": {
        "hierarchy": [
          "tgn:7487887",
          "tgn:7001010",
          "tgn:1000004",
          "tgn:1000141",
          "tgn:7029392"
        ],
        "placetype": [
          "aat:300008795"
        ],
        "id": 7487887,
        "name:xx": "Liushishi Shan"
      }
    },
    {
      "geometry": {
        "type": "Point",
        "coordinates": [
          120.703,
          23.9951
        ]
      },
      "type": "Feature",
      "properties": {
        "hierarchy": [
          "tgn:7487888",
          "tgn:7488858",
          "tgn:1000004",
          "tgn:1000141",
          "tgn:7029392"
        ],
        "placetype": [
          "aat:300387200"
        ],
        "id": 7487888,
        "name:xx": "Yushi Li"
      }
    },
    {
      "geometry": {
        "type": "Point",
        "coordinates": [
          121.150556,
          24.740556
        ]
      },
      "type": "Feature",
      "properties": {
        "hierarchy": [
          "tgn:7487889",
          "tgn:1000004",
          "tgn:7471332",
          "tgn:1000141",
          "tgn:7029392"
        ],
        "placetype": [
          "aat:300008347"
        ],
        "id": 7487889,
        "name:xx": "Liushekeng"
      }
    }
  ]
}
