{
  "type": "FeatureCollection",
  "features": [
    {
      "geometry": {
        "type": "Point",
        "coordinates": [
          76.305371,
          34.394658
        ]
      },
      "type": "Feature",
      "properties": {
        "hierarchy": [
          "tgn:7580360",
          "tgn:1000004",
          "tgn:7000198",
          "tgn:7000799",
          "tgn:7029392"
        ],
        "placetype": [
          "aat:300008347"
        ],
        "name:en": "Shergol",
        "id": 7580360
      }
    },
    {
      "geometry": {
        "type": "Point",
        "coordinates": [
          84.793442,
          24.559714
        ]
      },
      "type": "Feature",
      "properties": {
        "hierarchy": [
          "tgn:7580361",
          "tgn:1000004",
          "tgn:1001842",
          "tgn:7000198",
          "tgn:7029392"
        ],
        "placetype": [
          "aat:300008347"
        ],
        "name:en": "SherghƒÅti",
        "id": 7580361
      }
    },
    {
      "geometry": {
        "type": "Point",
        "coordinates": [
          74.948767,
          30.065438
        ]
      },
      "type": "Feature",
      "properties": {
        "hierarchy": [
          "tgn:7580362",
          "tgn:1000004",
          "tgn:7000198",
          "tgn:7016883",
          "tgn:7029392"
        ],
        "placetype": [
          "aat:300007783"
        ],
        "name:en": "Shergarh",
        "id": 7580362
      }
    },
    {
      "geometry": {
        "type": "Point",
        "coordinates": [
          79.36693,
          28.651075
        ]
      },
      "type": "Feature",
      "properties": {
        "hierarchy": [
          "tgn:7580363",
          "tgn:1000004",
          "tgn:7000198",
          "tgn:7016722",
          "tgn:7029392"
        ],
        "placetype": [
          "aat:300008347"
        ],
        "name:en": "Shergarh",
        "id": 7580363
      }
    },
    {
      "geometry": {
        "type": "Point",
        "coordinates": [
          77.612229,
          27.786266
        ]
      },
      "type": "Feature",
      "properties": {
        "hierarchy": [
          "tgn:7580364",
          "tgn:1000004",
          "tgn:7000198",
          "tgn:7016722",
          "tgn:7029392"
        ],
        "placetype": [
          "aat:300008347"
        ],
        "name:en": "Shergarh",
        "id": 7580364
      }
    },
    {
      "geometry": {
        "type": "Point",
        "coordinates": [
          72.294979,
          26.326691
        ]
      },
      "type": "Feature",
      "properties": {
        "hierarchy": [
          "tgn:7580365",
          "tgn:1000004",
          "tgn:7000198",
          "tgn:7016788",
          "tgn:7029392"
        ],
        "placetype": [
          "aat:300008347"
        ],
        "name:en": "Shergarh",
        "id": 7580365
      }
    },
    {
      "geometry": {
        "type": "Point",
        "coordinates": [
          76.540985,
          24.707767
        ]
      },
      "type": "Feature",
      "properties": {
        "hierarchy": [
          "tgn:7580366",
          "tgn:1000004",
          "tgn:7000198",
          "tgn:7016788",
          "tgn:7029392"
        ],
        "placetype": [
          "aat:300008347"
        ],
        "name:en": "Shergarh",
        "id": 7580366
      }
    },
    {
      "geometry": {
        "type": "Point",
        "coordinates": [
          74.176376,
          23.351755
        ]
      },
      "type": "Feature",
      "properties": {
        "hierarchy": [
          "tgn:7580367",
          "tgn:1000004",
          "tgn:7000198",
          "tgn:7016788",
          "tgn:7029392"
        ],
        "placetype": [
          "aat:300008347"
        ],
        "name:en": "Shergarh",
        "id": 7580367
      }
    },
    {
      "geometry": {
        "type": "Point",
        "coordinates": [
          92.258909,
          27.125676
        ]
      },
      "type": "Feature",
      "properties": {
        "hierarchy": [
          "tgn:7580368",
          "tgn:7001819",
          "tgn:1000004",
          "tgn:7000198",
          "tgn:7029392"
        ],
        "placetype": [
          "aat:300008347"
        ],
        "name:en": "Shergaon",
        "id": 7580368
      }
    },
    {
      "geometry": {
        "type": "Point",
        "coordinates": [
          79.803948,
          28.37441
        ]
      },
      "type": "Feature",
      "properties": {
        "hierarchy": [
          "tgn:7580369",
          "tgn:1000004",
          "tgn:7000198",
          "tgn:7016722",
          "tgn:7029392"
        ],
        "placetype": [
          "aat:300007783"
        ],
        "name:en": "Sherganj",
        "id": 7580369
      }
    }
  ]
}
