{
  "type": "FeatureCollection",
  "features": [
    {
      "geometry": {
        "type": "Point",
        "coordinates": [
          -87.95,
          21.041667
        ]
      },
      "type": "Feature",
      "properties": {
        "hierarchy": [
          "tgn:7403150",
          "tgn:1000001",
          "tgn:7005600",
          "tgn:7005560",
          "tgn:7029392"
        ],
        "placetype": [
          "aat:300008347"
        ],
        "id": 7403150,
        "name:xx": "Tzonotemezo"
      }
    },
    {
      "geometry": {
        "type": "Point",
        "coordinates": [
          -87.6875,
          21.0625
        ]
      },
      "type": "Feature",
      "properties": {
        "hierarchy": [
          "tgn:7403151",
          "tgn:1000001",
          "tgn:7005600",
          "tgn:7005560",
          "tgn:7029392"
        ],
        "placetype": [
          "aat:300008347"
        ],
        "id": 7403151,
        "name:xx": "San José Montecristo"
      }
    },
    {
      "geometry": {
        "type": "Point",
        "coordinates": [
          -87.733333,
          21.0875
        ]
      },
      "type": "Feature",
      "properties": {
        "hierarchy": [
          "tgn:7403152",
          "tgn:1000001",
          "tgn:7005600",
          "tgn:7005560",
          "tgn:7029392"
        ],
        "placetype": [
          "aat:300008347"
        ],
        "id": 7403152,
        "name:xx": "San Luis"
      }
    },
    {
      "geometry": {
        "type": "Point",
        "coordinates": [
          -87.858333,
          21.145833
        ]
      },
      "type": "Feature",
      "properties": {
        "hierarchy": [
          "tgn:7403153",
          "tgn:1000001",
          "tgn:7005600",
          "tgn:7005560",
          "tgn:7029392"
        ],
        "placetype": [
          "aat:300008347"
        ],
        "id": 7403153,
        "name:xx": "San Luis Tzuc-Tuk"
      }
    },
    {
      "geometry": {
        "type": "Point",
        "coordinates": [
          -87.6875,
          21.116667
        ]
      },
      "type": "Feature",
      "properties": {
        "hierarchy": [
          "tgn:7403154",
          "tgn:1000001",
          "tgn:7005600",
          "tgn:7005560",
          "tgn:7029392"
        ],
        "placetype": [
          "aat:300008347"
        ],
        "id": 7403154,
        "name:xx": "San Manuel"
      }
    },
    {
      "geometry": {
        "type": "Point",
        "coordinates": [
          -87.775,
          21.145833
        ]
      },
      "type": "Feature",
      "properties": {
        "hierarchy": [
          "tgn:7403155",
          "tgn:1000001",
          "tgn:7005600",
          "tgn:7005560",
          "tgn:7029392"
        ],
        "placetype": [
          "aat:300008347"
        ],
        "id": 7403155,
        "name:xx": "San Matías"
      }
    },
    {
      "geometry": {
        "type": "Point",
        "coordinates": [
          -87.833333,
          21.116667
        ]
      },
      "type": "Feature",
      "properties": {
        "hierarchy": [
          "tgn:7403156",
          "tgn:1000001",
          "tgn:7005600",
          "tgn:7005560",
          "tgn:7029392"
        ],
        "placetype": [
          "aat:300008347"
        ],
        "id": 7403156,
        "name:xx": "Xolopel"
      }
    },
    {
      "geometry": {
        "type": "Point",
        "coordinates": [
          -87.916667,
          21.141667
        ]
      },
      "type": "Feature",
      "properties": {
        "hierarchy": [
          "tgn:7403157",
          "tgn:1000001",
          "tgn:7005600",
          "tgn:7005560",
          "tgn:7029392"
        ],
        "placetype": [
          "aat:300008347"
        ],
        "id": 7403157,
        "name:xx": "El Ramonal"
      }
    },
    {
      "geometry": {
        "type": "Point",
        "coordinates": [
          -87.683333,
          21.183333
        ]
      },
      "type": "Feature",
      "properties": {
        "hierarchy": [
          "tgn:7403158",
          "tgn:1000001",
          "tgn:7005600",
          "tgn:7005560",
          "tgn:7029392"
        ],
        "placetype": [
          "aat:300008347"
        ],
        "id": 7403158,
        "name:xx": "Santa Elena"
      }
    },
    {
      "geometry": {
        "type": "Point",
        "coordinates": [
          -87.725,
          21.170833
        ]
      },
      "type": "Feature",
      "properties": {
        "hierarchy": [
          "tgn:7403159",
          "tgn:1000001",
          "tgn:7005600",
          "tgn:7005560",
          "tgn:7029392"
        ],
        "placetype": [
          "aat:300008347"
        ],
        "id": 7403159,
        "name:xx": "Felipe Carrillo Puerto"
      }
    }
  ]
}
