{
  "type": "FeatureCollection",
  "features": [
    {
      "geometry": {
        "type": "Point",
        "coordinates": [
          74.54624,
          28.151443
        ]
      },
      "type": "Feature",
      "properties": {
        "hierarchy": [
          "tgn:7568430",
          "tgn:1000004",
          "tgn:7000198",
          "tgn:7016788",
          "tgn:7029392"
        ],
        "placetype": [
          "aat:300008347"
        ],
        "name:en": "Golsar",
        "id": 7568430
      }
    },
    {
      "geometry": {
        "type": "Point",
        "coordinates": [
          74.52678,
          28.163191
        ]
      },
      "type": "Feature",
      "properties": {
        "hierarchy": [
          "tgn:7568431",
          "tgn:1000004",
          "tgn:7000198",
          "tgn:7016788",
          "tgn:7029392"
        ],
        "placetype": [
          "aat:300008347"
        ],
        "name:en": "Hainsasar",
        "id": 7568431
      }
    },
    {
      "geometry": {
        "type": "Point",
        "coordinates": [
          74.726513,
          28.130613
        ]
      },
      "type": "Feature",
      "properties": {
        "hierarchy": [
          "tgn:7568432",
          "tgn:1000004",
          "tgn:7000198",
          "tgn:7016788",
          "tgn:7029392"
        ],
        "placetype": [
          "aat:300008347"
        ],
        "name:en": "Khāriya",
        "id": 7568432
      }
    },
    {
      "geometry": {
        "type": "Point",
        "coordinates": [
          74.651747,
          28.117915
        ]
      },
      "type": "Feature",
      "properties": {
        "hierarchy": [
          "tgn:7568433",
          "tgn:1000004",
          "tgn:7000198",
          "tgn:7016788",
          "tgn:7029392"
        ],
        "placetype": [
          "aat:300008347"
        ],
        "name:en": "Jāleu",
        "id": 7568433
      }
    },
    {
      "geometry": {
        "type": "Point",
        "coordinates": [
          74.556943,
          28.122853
        ]
      },
      "type": "Feature",
      "properties": {
        "hierarchy": [
          "tgn:7568434",
          "tgn:1000004",
          "tgn:7000198",
          "tgn:7016788",
          "tgn:7029392"
        ],
        "placetype": [
          "aat:300008347"
        ],
        "name:en": "Nosaria",
        "id": 7568434
      }
    },
    {
      "geometry": {
        "type": "Point",
        "coordinates": [
          74.50621,
          28.114563
        ]
      },
      "type": "Feature",
      "properties": {
        "hierarchy": [
          "tgn:7568435",
          "tgn:1000004",
          "tgn:7000198",
          "tgn:7016788",
          "tgn:7029392"
        ],
        "placetype": [
          "aat:300008347"
        ],
        "name:en": "Gopālpura",
        "id": 7568435
      }
    },
    {
      "geometry": {
        "type": "Point",
        "coordinates": [
          74.720302,
          28.094451
        ]
      },
      "type": "Feature",
      "properties": {
        "hierarchy": [
          "tgn:7568436",
          "tgn:1000004",
          "tgn:7000198",
          "tgn:7016788",
          "tgn:7029392"
        ],
        "placetype": [
          "aat:300008347"
        ],
        "name:en": "Ghumānda",
        "id": 7568436
      }
    },
    {
      "geometry": {
        "type": "Point",
        "coordinates": [
          74.585495,
          28.102319
        ]
      },
      "type": "Feature",
      "properties": {
        "hierarchy": [
          "tgn:7568437",
          "tgn:1000004",
          "tgn:7000198",
          "tgn:7016788",
          "tgn:7029392"
        ],
        "placetype": [
          "aat:300008347"
        ],
        "name:en": "Hudera",
        "id": 7568437
      }
    },
    {
      "geometry": {
        "type": "Point",
        "coordinates": [
          74.502414,
          28.099119
        ]
      },
      "type": "Feature",
      "properties": {
        "hierarchy": [
          "tgn:7568438",
          "tgn:1000004",
          "tgn:7000198",
          "tgn:7016788",
          "tgn:7029392"
        ],
        "placetype": [
          "aat:300008347"
        ],
        "name:en": "Chhajusar",
        "id": 7568438
      }
    },
    {
      "geometry": {
        "type": "Point",
        "coordinates": [
          74.517167,
          28.060611
        ]
      },
      "type": "Feature",
      "properties": {
        "hierarchy": [
          "tgn:7568439",
          "tgn:1000004",
          "tgn:7000198",
          "tgn:7016788",
          "tgn:7029392"
        ],
        "placetype": [
          "aat:300008347"
        ],
        "name:en": "Bharpālsar",
        "id": 7568439
      }
    }
  ]
}
