{
  "type": "FeatureCollection",
  "features": [
    {
      "geometry": {
        "type": "Point",
        "coordinates": [
          79.317112,
          27.06588
        ]
      },
      "type": "Feature",
      "properties": {
        "hierarchy": [
          "tgn:7562050",
          "tgn:1000004",
          "tgn:7000198",
          "tgn:7016722",
          "tgn:7029392"
        ],
        "placetype": [
          "aat:300008347"
        ],
        "name:en": "Nagla Bakhti",
        "id": 7562050
      }
    },
    {
      "geometry": {
        "type": "Point",
        "coordinates": [
          79.322746,
          27.067588
        ]
      },
      "type": "Feature",
      "properties": {
        "hierarchy": [
          "tgn:7562051",
          "tgn:1000004",
          "tgn:7000198",
          "tgn:7016722",
          "tgn:7029392"
        ],
        "placetype": [
          "aat:300008347"
        ],
        "name:en": "Nagla Chhad훮mi",
        "id": 7562051
      }
    },
    {
      "geometry": {
        "type": "Point",
        "coordinates": [
          79.311327,
          27.074324
        ]
      },
      "type": "Feature",
      "properties": {
        "hierarchy": [
          "tgn:7562052",
          "tgn:1000004",
          "tgn:7000198",
          "tgn:7016722",
          "tgn:7029392"
        ],
        "placetype": [
          "aat:300008347"
        ],
        "name:en": "Bh카kpur",
        "id": 7562052
      }
    },
    {
      "geometry": {
        "type": "Point",
        "coordinates": [
          79.327093,
          27.070743
        ]
      },
      "type": "Feature",
      "properties": {
        "hierarchy": [
          "tgn:7562053",
          "tgn:1000004",
          "tgn:7000198",
          "tgn:7016722",
          "tgn:7029392"
        ],
        "placetype": [
          "aat:300008057"
        ],
        "name:en": "Balkaranpur",
        "id": 7562053
      }
    },
    {
      "geometry": {
        "type": "Point",
        "coordinates": [
          79.325684,
          27.078728
        ]
      },
      "type": "Feature",
      "properties": {
        "hierarchy": [
          "tgn:7562054",
          "tgn:1000004",
          "tgn:7000198",
          "tgn:7016722",
          "tgn:7029392"
        ],
        "placetype": [
          "aat:300008347"
        ],
        "name:en": "Binsarmau",
        "id": 7562054
      }
    },
    {
      "geometry": {
        "type": "Point",
        "coordinates": [
          79.322187,
          27.080128
        ]
      },
      "type": "Feature",
      "properties": {
        "hierarchy": [
          "tgn:7562055",
          "tgn:1000004",
          "tgn:7000198",
          "tgn:7016722",
          "tgn:7029392"
        ],
        "placetype": [
          "aat:300008347"
        ],
        "name:en": "Nagla Harchandi",
        "id": 7562055
      }
    },
    {
      "geometry": {
        "type": "Point",
        "coordinates": [
          79.316417,
          27.080463
        ]
      },
      "type": "Feature",
      "properties": {
        "hierarchy": [
          "tgn:7562056",
          "tgn:1000004",
          "tgn:7000198",
          "tgn:7016722",
          "tgn:7029392"
        ],
        "placetype": [
          "aat:300008347"
        ],
        "name:en": "Nagla Gul",
        "id": 7562056
      }
    },
    {
      "geometry": {
        "type": "Point",
        "coordinates": [
          79.308539,
          27.081693
        ]
      },
      "type": "Feature",
      "properties": {
        "hierarchy": [
          "tgn:7562057",
          "tgn:1000004",
          "tgn:7000198",
          "tgn:7016722",
          "tgn:7029392"
        ],
        "placetype": [
          "aat:300008347"
        ],
        "name:en": "Nagla Ugar",
        "id": 7562057
      }
    },
    {
      "geometry": {
        "type": "Point",
        "coordinates": [
          79.290839,
          27.078243
        ]
      },
      "type": "Feature",
      "properties": {
        "hierarchy": [
          "tgn:7562058",
          "tgn:1000004",
          "tgn:7000198",
          "tgn:7016722",
          "tgn:7029392"
        ],
        "placetype": [
          "aat:300008347"
        ],
        "name:en": "Sah훮ra",
        "id": 7562058
      }
    },
    {
      "geometry": {
        "type": "Point",
        "coordinates": [
          79.27903,
          27.072614
        ]
      },
      "type": "Feature",
      "properties": {
        "hierarchy": [
          "tgn:7562059",
          "tgn:1000004",
          "tgn:7000198",
          "tgn:7016722",
          "tgn:7029392"
        ],
        "placetype": [
          "aat:300008347"
        ],
        "name:en": "Nagla D큰bar",
        "id": 7562059
      }
    }
  ]
}
