{
  "type": "FeatureCollection",
  "features": [
    {
      "geometry": {
        "type": "Point",
        "coordinates": [
          120.701667,
          24.468611
        ]
      },
      "type": "Feature",
      "properties": {
        "hierarchy": [
          "tgn:7482970",
          "tgn:7487020",
          "tgn:1000004",
          "tgn:1000141",
          "tgn:7029392"
        ],
        "placetype": [
          "aat:300008347"
        ],
        "id": 7482970,
        "name:xx": "Mazutian"
      }
    },
    {
      "geometry": {
        "type": "Point",
        "coordinates": [
          120.697778,
          24.473611
        ]
      },
      "type": "Feature",
      "properties": {
        "hierarchy": [
          "tgn:7482971",
          "tgn:7487020",
          "tgn:1000004",
          "tgn:1000141",
          "tgn:7029392"
        ],
        "placetype": [
          "aat:300007836"
        ],
        "id": 7482971,
        "name:xx": "Meinan Daqiao"
      }
    },
    {
      "geometry": {
        "type": "Point",
        "coordinates": [
          120.728424,
          24.529226
        ]
      },
      "type": "Feature",
      "properties": {
        "hierarchy": [
          "tgn:7482972",
          "tgn:7487020",
          "tgn:1000004",
          "tgn:1000141",
          "tgn:7029392"
        ],
        "placetype": [
          "aat:300008347"
        ],
        "id": 7482972,
        "name:xx": "Zhiwo"
      }
    },
    {
      "geometry": {
        "type": "Point",
        "coordinates": [
          120.751667,
          24.467778
        ]
      },
      "type": "Feature",
      "properties": {
        "hierarchy": [
          "tgn:7482973",
          "tgn:7487020",
          "tgn:1000004",
          "tgn:1000141",
          "tgn:7029392"
        ],
        "placetype": [
          "aat:300008798"
        ],
        "id": 7482973,
        "name:xx": "Hutoukan"
      }
    },
    {
      "geometry": {
        "type": "Point",
        "coordinates": [
          120.690278,
          24.467222
        ]
      },
      "type": "Feature",
      "properties": {
        "hierarchy": [
          "tgn:7482974",
          "tgn:7487020",
          "tgn:1000004",
          "tgn:1000141",
          "tgn:7029392"
        ],
        "placetype": [
          "aat:300008347"
        ],
        "id": 7482974,
        "name:xx": "Shitouwozi"
      }
    },
    {
      "geometry": {
        "type": "Point",
        "coordinates": [
          120.690833,
          24.473056
        ]
      },
      "type": "Feature",
      "properties": {
        "hierarchy": [
          "tgn:7482976",
          "tgn:7487020",
          "tgn:1000004",
          "tgn:1000141",
          "tgn:7029392"
        ],
        "placetype": [
          "aat:300008347"
        ],
        "id": 7482976,
        "name:xx": "Dapi"
      }
    },
    {
      "geometry": {
        "type": "Point",
        "coordinates": [
          120.6675,
          24.432778
        ]
      },
      "type": "Feature",
      "properties": {
        "hierarchy": [
          "tgn:7482977",
          "tgn:7487020",
          "tgn:1000004",
          "tgn:1000141",
          "tgn:7029392"
        ],
        "placetype": [
          "aat:300008347"
        ],
        "id": 7482977,
        "name:xx": "Suncuo"
      }
    },
    {
      "geometry": {
        "type": "Point",
        "coordinates": [
          120.606667,
          24.298611
        ]
      },
      "type": "Feature",
      "properties": {
        "hierarchy": [
          "tgn:7482978",
          "tgn:1000004",
          "tgn:7001009",
          "tgn:1000141",
          "tgn:7029392"
        ],
        "placetype": [
          "aat:300008777"
        ],
        "id": 7482978,
        "name:xx": "Haifeng Shan"
      }
    },
    {
      "geometry": {
        "type": "Point",
        "coordinates": [
          120.631667,
          24.291944
        ]
      },
      "type": "Feature",
      "properties": {
        "hierarchy": [
          "tgn:7482979",
          "tgn:1000004",
          "tgn:7001009",
          "tgn:1000141",
          "tgn:7029392"
        ],
        "placetype": [
          "aat:300007836"
        ],
        "id": 7482979,
        "name:xx": "Jiuzhuang Qiao"
      }
    }
  ]
}
