{
  "type": "FeatureCollection",
  "features": [
    {
      "geometry": {
        "type": "Point",
        "coordinates": [
          88.114444,
          21.99
        ]
      },
      "type": "Feature",
      "properties": {
        "hierarchy": [
          "tgn:7585690",
          "tgn:1000004",
          "tgn:7000198",
          "tgn:1001977",
          "tgn:7029392"
        ],
        "placetype": [
          "aat:300008791"
        ],
        "name:en": "Agnimāri Char",
        "id": 7585690
      }
    },
    {
      "geometry": {
        "type": "Point",
        "coordinates": [
          74.108333,
          34.344444
        ]
      },
      "type": "Feature",
      "properties": {
        "hierarchy": [
          "tgn:7585691",
          "tgn:1000004",
          "tgn:7000198",
          "tgn:7000799",
          "tgn:7029392"
        ],
        "placetype": [
          "aat:300008863"
        ],
        "name:en": "Bherin Khud Forest",
        "id": 7585691
      }
    },
    {
      "geometry": {
        "type": "Point",
        "coordinates": [
          74.158333,
          34.411111
        ]
      },
      "type": "Feature",
      "properties": {
        "hierarchy": [
          "tgn:7585692",
          "tgn:1000004",
          "tgn:7000198",
          "tgn:7000799",
          "tgn:7029392"
        ],
        "placetype": [
          "aat:300008863"
        ],
        "name:en": "Batnār Forest",
        "id": 7585692
      }
    },
    {
      "geometry": {
        "type": "Point",
        "coordinates": [
          74.225,
          33.315278
        ]
      },
      "type": "Feature",
      "properties": {
        "hierarchy": [
          "tgn:7585693",
          "tgn:1000004",
          "tgn:7000198",
          "tgn:7000799",
          "tgn:7029392"
        ],
        "placetype": [
          "aat:300008347"
        ],
        "name:en": "Malkāh Khemi",
        "id": 7585693
      }
    },
    {
      "geometry": {
        "type": "Point",
        "coordinates": [
          74.245049,
          33.413029
        ]
      },
      "type": "Feature",
      "properties": {
        "hierarchy": [
          "tgn:7585694",
          "tgn:1000004",
          "tgn:7000198",
          "tgn:7000799",
          "tgn:7029392"
        ],
        "placetype": [
          "aat:300008347"
        ],
        "name:en": "Gamber",
        "id": 7585694
      }
    },
    {
      "geometry": {
        "type": "Point",
        "coordinates": [
          74.190348,
          33.275421
        ]
      },
      "type": "Feature",
      "properties": {
        "hierarchy": [
          "tgn:7585695",
          "tgn:1000004",
          "tgn:7000198",
          "tgn:7000799",
          "tgn:7029392"
        ],
        "placetype": [
          "aat:300008347"
        ],
        "name:en": "Kāhla",
        "id": 7585695
      }
    },
    {
      "geometry": {
        "type": "Point",
        "coordinates": [
          74.12174,
          33.297574
        ]
      },
      "type": "Feature",
      "properties": {
        "hierarchy": [
          "tgn:7585696",
          "tgn:1000004",
          "tgn:7000198",
          "tgn:7000799",
          "tgn:7029392"
        ],
        "placetype": [
          "aat:300008347"
        ],
        "name:en": "Sarīla",
        "id": 7585696
      }
    },
    {
      "geometry": {
        "type": "Point",
        "coordinates": [
          74.244444,
          33.25
        ]
      },
      "type": "Feature",
      "properties": {
        "hierarchy": [
          "tgn:7585697",
          "tgn:1000004",
          "tgn:7000198",
          "tgn:7000799",
          "tgn:7029392"
        ],
        "placetype": [
          "aat:300008863"
        ],
        "name:en": "Khānpur Forest",
        "id": 7585697
      }
    },
    {
      "geometry": {
        "type": "Point",
        "coordinates": [
          74.222222,
          33.252778
        ]
      },
      "type": "Feature",
      "properties": {
        "hierarchy": [
          "tgn:7585698",
          "tgn:1000004",
          "tgn:7000198",
          "tgn:7000799",
          "tgn:7029392"
        ],
        "placetype": [
          "aat:300008863"
        ],
        "name:en": "Dehra",
        "id": 7585698
      }
    },
    {
      "geometry": {
        "type": "Point",
        "coordinates": [
          74.235598,
          33.257112
        ]
      },
      "type": "Feature",
      "properties": {
        "hierarchy": [
          "tgn:7585699",
          "tgn:1000004",
          "tgn:7000198",
          "tgn:7000799",
          "tgn:7029392"
        ],
        "placetype": [
          "aat:300008347"
        ],
        "name:en": "Richhwa",
        "id": 7585699
      }
    }
  ]
}
