{
  "type": "FeatureCollection",
  "features": [
    {
      "geometry": {
        "type": "Point",
        "coordinates": [
          80.214167,
          13.007222
        ]
      },
      "type": "Feature",
      "properties": {
        "hierarchy": [
          "tgn:7570270",
          "tgn:1000004",
          "tgn:7000198",
          "tgn:7001797",
          "tgn:7029392"
        ],
        "placetype": [
          "aat:300007783"
        ],
        "name:en": "Guindy",
        "id": 7570270
      }
    },
    {
      "geometry": {
        "type": "Point",
        "coordinates": [
          80.204444,
          12.9925
        ]
      },
      "type": "Feature",
      "properties": {
        "hierarchy": [
          "tgn:7570271",
          "tgn:1000004",
          "tgn:7000198",
          "tgn:7001797",
          "tgn:7029392"
        ],
        "placetype": [
          "aat:300000745"
        ],
        "name:en": "Adambakkam",
        "id": 7570271
      }
    },
    {
      "geometry": {
        "type": "Point",
        "coordinates": [
          80.191111,
          12.985556
        ]
      },
      "type": "Feature",
      "properties": {
        "hierarchy": [
          "tgn:7570272",
          "tgn:1000004",
          "tgn:7000198",
          "tgn:7001797",
          "tgn:7029392"
        ],
        "placetype": [
          "aat:300000745"
        ],
        "name:en": "Palavantangai",
        "id": 7570272
      }
    },
    {
      "geometry": {
        "type": "Point",
        "coordinates": [
          80.168611,
          13.010833
        ]
      },
      "type": "Feature",
      "properties": {
        "hierarchy": [
          "tgn:7570273",
          "tgn:1000004",
          "tgn:7000198",
          "tgn:7001797",
          "tgn:7029392"
        ],
        "placetype": [
          "aat:300008347"
        ],
        "name:en": "Manappakkam",
        "id": 7570273
      }
    },
    {
      "geometry": {
        "type": "Point",
        "coordinates": [
          80.167778,
          13.018611
        ]
      },
      "type": "Feature",
      "properties": {
        "hierarchy": [
          "tgn:7570274",
          "tgn:1000004",
          "tgn:7000198",
          "tgn:7001797",
          "tgn:7029392"
        ],
        "placetype": [
          "aat:300008347"
        ],
        "name:en": "Mugalivakkam",
        "id": 7570274
      }
    },
    {
      "geometry": {
        "type": "Point",
        "coordinates": [
          80.1575,
          13.031944
        ]
      },
      "type": "Feature",
      "properties": {
        "hierarchy": [
          "tgn:7570275",
          "tgn:1000004",
          "tgn:7000198",
          "tgn:7001797",
          "tgn:7029392"
        ],
        "placetype": [
          "aat:300008347"
        ],
        "name:en": "Porur",
        "id": 7570275
      }
    },
    {
      "geometry": {
        "type": "Point",
        "coordinates": [
          80.171944,
          13.063056
        ]
      },
      "type": "Feature",
      "properties": {
        "hierarchy": [
          "tgn:7570276",
          "tgn:1000004",
          "tgn:7000198",
          "tgn:7001797",
          "tgn:7029392"
        ],
        "placetype": [
          "aat:300008347"
        ],
        "name:en": "Maduraivayal",
        "id": 7570276
      }
    },
    {
      "geometry": {
        "type": "Point",
        "coordinates": [
          80.283333,
          13.076944
        ]
      },
      "type": "Feature",
      "properties": {
        "hierarchy": [
          "tgn:7570277",
          "tgn:1000004",
          "tgn:7000198",
          "tgn:7001797",
          "tgn:7029392"
        ],
        "placetype": [
          "aat:300007836"
        ],
        "name:en": "Walajah Bridge",
        "id": 7570277
      }
    },
    {
      "geometry": {
        "type": "Point",
        "coordinates": [
          80.275556,
          13.078611
        ]
      },
      "type": "Feature",
      "properties": {
        "hierarchy": [
          "tgn:7570278",
          "tgn:1000004",
          "tgn:7000198",
          "tgn:7001797",
          "tgn:7029392"
        ],
        "placetype": [
          "aat:300007783"
        ],
        "name:en": "Park",
        "id": 7570278
      }
    },
    {
      "geometry": {
        "type": "Point",
        "coordinates": [
          80.242778,
          13.071944
        ]
      },
      "type": "Feature",
      "properties": {
        "hierarchy": [
          "tgn:7570279",
          "tgn:1000004",
          "tgn:7000198",
          "tgn:7001797",
          "tgn:7029392"
        ],
        "placetype": [
          "aat:300007783"
        ],
        "name:en": "Chetput",
        "id": 7570279
      }
    }
  ]
}
