{
  "type": "FeatureCollection",
  "features": [
    {
      "geometry": {
        "type": "Point",
        "coordinates": [
          79.835992,
          26.67642
        ]
      },
      "type": "Feature",
      "properties": {
        "hierarchy": [
          "tgn:7566440",
          "tgn:1000004",
          "tgn:7000198",
          "tgn:7016722",
          "tgn:7029392"
        ],
        "placetype": [
          "aat:300006075"
        ],
        "name:en": "Asālatganj Minor",
        "id": 7566440
      }
    },
    {
      "geometry": {
        "type": "Point",
        "coordinates": [
          79.854348,
          26.693037
        ]
      },
      "type": "Feature",
      "properties": {
        "hierarchy": [
          "tgn:7566441",
          "tgn:1000004",
          "tgn:7000198",
          "tgn:7016722",
          "tgn:7029392"
        ],
        "placetype": [
          "aat:300008347"
        ],
        "name:en": "Nawāda Chācho",
        "id": 7566441
      }
    },
    {
      "geometry": {
        "type": "Point",
        "coordinates": [
          79.863855,
          26.699263
        ]
      },
      "type": "Feature",
      "properties": {
        "hierarchy": [
          "tgn:7566442",
          "tgn:1000004",
          "tgn:7000198",
          "tgn:7016722",
          "tgn:7029392"
        ],
        "placetype": [
          "aat:300008347"
        ],
        "name:en": "Chaubepur",
        "id": 7566442
      }
    },
    {
      "geometry": {
        "type": "Point",
        "coordinates": [
          79.846652,
          26.715942
        ]
      },
      "type": "Feature",
      "properties": {
        "hierarchy": [
          "tgn:7566443",
          "tgn:1000004",
          "tgn:7000198",
          "tgn:7016722",
          "tgn:7029392"
        ],
        "placetype": [
          "aat:300008347"
        ],
        "name:en": "Purwa Gadariān",
        "id": 7566443
      }
    },
    {
      "geometry": {
        "type": "Point",
        "coordinates": [
          79.859161,
          26.717025
        ]
      },
      "type": "Feature",
      "properties": {
        "hierarchy": [
          "tgn:7566444",
          "tgn:1000004",
          "tgn:7000198",
          "tgn:7016722",
          "tgn:7029392"
        ],
        "placetype": [
          "aat:300008347"
        ],
        "name:en": "Purwa Sarsain",
        "id": 7566444
      }
    },
    {
      "geometry": {
        "type": "Point",
        "coordinates": [
          79.883247,
          26.697405
        ]
      },
      "type": "Feature",
      "properties": {
        "hierarchy": [
          "tgn:7566445",
          "tgn:1000004",
          "tgn:7000198",
          "tgn:7016722",
          "tgn:7029392"
        ],
        "placetype": [
          "aat:300008347"
        ],
        "name:en": "Shāhbāzpur",
        "id": 7566445
      }
    },
    {
      "geometry": {
        "type": "Point",
        "coordinates": [
          79.884894,
          26.704662
        ]
      },
      "type": "Feature",
      "properties": {
        "hierarchy": [
          "tgn:7566446",
          "tgn:1000004",
          "tgn:7000198",
          "tgn:7016722",
          "tgn:7029392"
        ],
        "placetype": [
          "aat:300008347"
        ],
        "name:en": "Dhūndābar",
        "id": 7566446
      }
    },
    {
      "geometry": {
        "type": "Point",
        "coordinates": [
          79.875023,
          26.704126
        ]
      },
      "type": "Feature",
      "properties": {
        "hierarchy": [
          "tgn:7566447",
          "tgn:1000004",
          "tgn:7000198",
          "tgn:7016722",
          "tgn:7029392"
        ],
        "placetype": [
          "aat:300008347"
        ],
        "name:en": "Munawarpur Rasūlābād",
        "id": 7566447
      }
    },
    {
      "geometry": {
        "type": "Point",
        "coordinates": [
          79.875212,
          26.719597
        ]
      },
      "type": "Feature",
      "properties": {
        "hierarchy": [
          "tgn:7566448",
          "tgn:1000004",
          "tgn:7000198",
          "tgn:7016722",
          "tgn:7029392"
        ],
        "placetype": [
          "aat:300008347"
        ],
        "name:en": "Nawāda Kanchan",
        "id": 7566448
      }
    },
    {
      "geometry": {
        "type": "Point",
        "coordinates": [
          79.900874,
          26.715733
        ]
      },
      "type": "Feature",
      "properties": {
        "hierarchy": [
          "tgn:7566449",
          "tgn:1000004",
          "tgn:7000198",
          "tgn:7016722",
          "tgn:7029392"
        ],
        "placetype": [
          "aat:300008347"
        ],
        "name:en": "Bārāpur",
        "id": 7566449
      }
    }
  ]
}
