{
  "type": "FeatureCollection",
  "features": [
    {
      "geometry": {
        "type": "Point",
        "coordinates": [
          120.509438,
          22.60589
        ]
      },
      "type": "Feature",
      "properties": {
        "hierarchy": [
          "tgn:7481890",
          "tgn:1000004",
          "tgn:7492971",
          "tgn:1000141",
          "tgn:7029392"
        ],
        "placetype": [
          "aat:300006495"
        ],
        "id": 7481890,
        "name:xx": "Wandan Guoxiao Zhulin Fenxiao"
      }
    },
    {
      "geometry": {
        "type": "Point",
        "coordinates": [
          120.540597,
          22.615376
        ]
      },
      "type": "Feature",
      "properties": {
        "hierarchy": [
          "tgn:7481891",
          "tgn:1000004",
          "tgn:7492971",
          "tgn:1000141",
          "tgn:7029392"
        ],
        "placetype": [
          "aat:300006495"
        ],
        "id": 7481891,
        "name:xx": "Futian Guoxiao"
      }
    },
    {
      "geometry": {
        "type": "Point",
        "coordinates": [
          120.621209,
          22.501395
        ]
      },
      "type": "Feature",
      "properties": {
        "hierarchy": [
          "tgn:7481892",
          "tgn:1000004",
          "tgn:7492971",
          "tgn:1000141",
          "tgn:7029392"
        ],
        "placetype": [
          "aat:300008699"
        ],
        "id": 7481892,
        "name:xx": "Jiandaowei Xi"
      }
    },
    {
      "geometry": {
        "type": "Point",
        "coordinates": [
          120.540346,
          22.510482
        ]
      },
      "type": "Feature",
      "properties": {
        "hierarchy": [
          "tgn:7481893",
          "tgn:1000004",
          "tgn:7492971",
          "tgn:1000141",
          "tgn:7029392"
        ],
        "placetype": [
          "aat:300006075"
        ],
        "id": 7481893,
        "name:xx": "Bei'an He"
      }
    },
    {
      "geometry": {
        "type": "Point",
        "coordinates": [
          120.508806,
          22.54669
        ]
      },
      "type": "Feature",
      "properties": {
        "hierarchy": [
          "tgn:7481894",
          "tgn:1000004",
          "tgn:7492971",
          "tgn:1000141",
          "tgn:7029392"
        ],
        "placetype": [
          "aat:300008699"
        ],
        "id": 7481894,
        "name:xx": "Minzhi Xi"
      }
    },
    {
      "geometry": {
        "type": "Point",
        "coordinates": [
          120.571592,
          22.587576
        ]
      },
      "type": "Feature",
      "properties": {
        "hierarchy": [
          "tgn:7481895",
          "tgn:1000004",
          "tgn:7492971",
          "tgn:1000141",
          "tgn:7029392"
        ],
        "placetype": [
          "aat:300008699"
        ],
        "id": 7481895,
        "name:xx": "Donggang Xi"
      }
    },
    {
      "geometry": {
        "type": "Point",
        "coordinates": [
          120.556156,
          22.584252
        ]
      },
      "type": "Feature",
      "properties": {
        "hierarchy": [
          "tgn:7481896",
          "tgn:1000004",
          "tgn:7492971",
          "tgn:1000141",
          "tgn:7029392"
        ],
        "placetype": [
          "aat:300008699"
        ],
        "id": 7481896,
        "name:xx": "Longjing Xi"
      }
    },
    {
      "geometry": {
        "type": "Point",
        "coordinates": [
          120.606487,
          22.630188
        ]
      },
      "type": "Feature",
      "properties": {
        "hierarchy": [
          "tgn:7481897",
          "tgn:1000004",
          "tgn:7492971",
          "tgn:1000141",
          "tgn:7029392"
        ],
        "placetype": [
          "aat:300008699"
        ],
        "id": 7481897,
        "name:xx": "Niujiao Wan Xi"
      }
    },
    {
      "geometry": {
        "type": "Point",
        "coordinates": [
          120.524113,
          22.67035
        ]
      },
      "type": "Feature",
      "properties": {
        "hierarchy": [
          "tgn:7481898",
          "tgn:1000004",
          "tgn:7492971",
          "tgn:1000141",
          "tgn:7029392"
        ],
        "placetype": [
          "aat:300006075"
        ],
        "id": 7481898,
        "name:xx": "Huoshao Zhizhen"
      }
    }
  ]
}
