{
  "type": "FeatureCollection",
  "features": [
    {
      "geometry": {
        "type": "Point",
        "coordinates": [
          31.666667,
          30.55
        ]
      },
      "type": "Feature",
      "properties": {
        "hierarchy": [
          "tgn:7534890",
          "tgn:7001242",
          "tgn:7016833",
          "tgn:1001113",
          "tgn:7029392"
        ],
        "placetype": [
          "aat:300008347"
        ],
        "id": 7534890,
        "name:xx": "Kafr Abū ad Duqūn"
      }
    },
    {
      "geometry": {
        "type": "Point",
        "coordinates": [
          31.533333,
          30.466667
        ]
      },
      "type": "Feature",
      "properties": {
        "hierarchy": [
          "tgn:7534891",
          "tgn:7001242",
          "tgn:7016833",
          "tgn:1001113",
          "tgn:7029392"
        ],
        "placetype": [
          "aat:300008347"
        ],
        "id": 7534891,
        "name:xx": "Kafr Abū 'Abīyah"
      }
    },
    {
      "geometry": {
        "type": "Point",
        "coordinates": [
          31.273847,
          31.286635
        ]
      },
      "type": "Feature",
      "properties": {
        "hierarchy": [
          "tgn:7534892",
          "tgn:7001242",
          "tgn:7016833",
          "tgn:1001335",
          "tgn:7029392"
        ],
        "placetype": [
          "aat:300008347"
        ],
        "id": 7534892,
        "name:xx": "Kafr Abū 'Abduh"
      }
    },
    {
      "geometry": {
        "type": "Point",
        "coordinates": [
          31.088916,
          30.485853
        ]
      },
      "type": "Feature",
      "properties": {
        "hierarchy": [
          "tgn:7534893",
          "tgn:7001242",
          "tgn:7016833",
          "tgn:1001087",
          "tgn:7029392"
        ],
        "placetype": [
          "aat:300008347"
        ],
        "id": 7534893,
        "name:xx": "Kafr Abshīsh"
      }
    },
    {
      "geometry": {
        "type": "Point",
        "coordinates": [
          31.141804,
          30.520621
        ]
      },
      "type": "Feature",
      "properties": {
        "hierarchy": [
          "tgn:7534894",
          "tgn:7001242",
          "tgn:7016833",
          "tgn:1001087",
          "tgn:7029392"
        ],
        "placetype": [
          "aat:300008347"
        ],
        "name:en": "Kafr 'Abduh",
        "id": 7534894
      }
    },
    {
      "geometry": {
        "type": "Point",
        "coordinates": [
          31.910188,
          31.475113
        ]
      },
      "type": "Feature",
      "properties": {
        "hierarchy": [
          "tgn:7534895",
          "tgn:7001242",
          "tgn:1001059",
          "tgn:7016833",
          "tgn:7029392"
        ],
        "placetype": [
          "aat:300008680"
        ],
        "name:en": "Gharqā', Nuqrat al",
        "id": 7534895
      }
    },
    {
      "geometry": {
        "type": "Point",
        "coordinates": [
          34.152794,
          29.613723
        ]
      },
      "type": "Feature",
      "properties": {
        "hierarchy": [
          "tgn:7534896",
          "tgn:7001242",
          "tgn:7016833",
          "tgn:7001336",
          "tgn:7029392"
        ],
        "placetype": [
          "aat:300008749"
        ],
        "id": 7534896,
        "name:xx": "Ghawrīyah, Jabal al"
      }
    },
    {
      "geometry": {
        "type": "Point",
        "coordinates": [
          33.998333,
          29.649167
        ]
      },
      "type": "Feature",
      "properties": {
        "hierarchy": [
          "tgn:7534897",
          "tgn:7001242",
          "tgn:7016833",
          "tgn:7001336",
          "tgn:7029392"
        ],
        "placetype": [
          "aat:300379998"
        ],
        "id": 7534897,
        "name:xx": "Ghawrīyah, Wādī al"
      }
    },
    {
      "geometry": {
        "type": "Point",
        "coordinates": [
          31.683333,
          30.85
        ]
      },
      "type": "Feature",
      "properties": {
        "hierarchy": [
          "tgn:7534898",
          "tgn:7001242",
          "tgn:7016833",
          "tgn:1001113",
          "tgn:7029392"
        ],
        "placetype": [
          "aat:300008777"
        ],
        "name:en": "Gharīr, Tall",
        "id": 7534898
      }
    },
    {
      "geometry": {
        "type": "Point",
        "coordinates": [
          30.811782,
          31.486993
        ]
      },
      "type": "Feature",
      "properties": {
        "hierarchy": [
          "tgn:7534899",
          "tgn:7001242",
          "tgn:7016833",
          "tgn:1001335",
          "tgn:7029392"
        ],
        "placetype": [
          "aat:300008791"
        ],
        "name:en": "Gharīq al Qiblī, Jazīrat al",
        "id": 7534899
      }
    }
  ]
}
