{
  "type": "FeatureCollection",
  "features": [
    {
      "geometry": {
        "type": "Point",
        "coordinates": [
          120.463944,
          22.633002
        ]
      },
      "type": "Feature",
      "properties": {
        "hierarchy": [
          "tgn:7499920",
          "tgn:1000004",
          "tgn:7492971",
          "tgn:1000141",
          "tgn:7029392"
        ],
        "placetype": [
          "aat:300007836"
        ],
        "id": 7499920,
        "name:xx": "Dazhou Qiao"
      }
    },
    {
      "geometry": {
        "type": "Point",
        "coordinates": [
          120.470967,
          22.648401
        ]
      },
      "type": "Feature",
      "properties": {
        "hierarchy": [
          "tgn:7499921",
          "tgn:1000004",
          "tgn:7492971",
          "tgn:1000141",
          "tgn:7029392"
        ],
        "placetype": [
          "aat:300266755"
        ],
        "id": 7499921,
        "name:xx": "Pingdong Disi Gongmu"
      }
    },
    {
      "geometry": {
        "type": "Point",
        "coordinates": [
          120.419995,
          22.652848
        ]
      },
      "type": "Feature",
      "properties": {
        "hierarchy": [
          "tgn:7499922",
          "tgn:7001004",
          "tgn:1000004",
          "tgn:1000141",
          "tgn:7029392"
        ],
        "placetype": [
          "aat:300007595"
        ],
        "id": 7499922,
        "name:xx": "Donglong Gong"
      }
    },
    {
      "geometry": {
        "type": "Point",
        "coordinates": [
          120.4468,
          22.66445
        ]
      },
      "type": "Feature",
      "properties": {
        "hierarchy": [
          "tgn:7499923",
          "tgn:1000004",
          "tgn:7492971",
          "tgn:1000141",
          "tgn:7029392"
        ],
        "placetype": [
          "aat:300006495"
        ],
        "id": 7499923,
        "name:xx": "Linyun Guoxiao"
      }
    },
    {
      "geometry": {
        "type": "Point",
        "coordinates": [
          120.4927,
          22.679
        ]
      },
      "type": "Feature",
      "properties": {
        "hierarchy": [
          "tgn:7499924",
          "tgn:1000004",
          "tgn:7492971",
          "tgn:1000141",
          "tgn:7029392"
        ],
        "placetype": [
          "aat:300007595"
        ],
        "id": 7499924,
        "name:xx": "Kongzi Miao"
      }
    },
    {
      "geometry": {
        "type": "Point",
        "coordinates": [
          120.483919,
          22.66344
        ]
      },
      "type": "Feature",
      "properties": {
        "hierarchy": [
          "tgn:7499925",
          "tgn:1000004",
          "tgn:7492971",
          "tgn:1000141",
          "tgn:7029392"
        ],
        "placetype": [
          "aat:300007595"
        ],
        "id": 7499925,
        "name:xx": "Mingfeng Gong"
      }
    },
    {
      "geometry": {
        "type": "Point",
        "coordinates": [
          120.487395,
          22.664024
        ]
      },
      "type": "Feature",
      "properties": {
        "hierarchy": [
          "tgn:7499926",
          "tgn:1000004",
          "tgn:7492971",
          "tgn:1000141",
          "tgn:7029392"
        ],
        "placetype": [
          "aat:300007595"
        ],
        "id": 7499926,
        "name:xx": "Jiawang Gong"
      }
    },
    {
      "geometry": {
        "type": "Point",
        "coordinates": [
          120.487931,
          22.665487
        ]
      },
      "type": "Feature",
      "properties": {
        "hierarchy": [
          "tgn:7499927",
          "tgn:1000004",
          "tgn:7492971",
          "tgn:1000141",
          "tgn:7029392"
        ],
        "placetype": [
          "aat:300007595"
        ],
        "id": 7499927,
        "name:xx": "Linshui Gong"
      }
    },
    {
      "geometry": {
        "type": "Point",
        "coordinates": [
          120.488011,
          22.667661
        ]
      },
      "type": "Feature",
      "properties": {
        "hierarchy": [
          "tgn:7499928",
          "tgn:1000004",
          "tgn:7492971",
          "tgn:1000141",
          "tgn:7029392"
        ],
        "placetype": [
          "aat:300007595"
        ],
        "id": 7499928,
        "name:xx": "Daitian Gong"
      }
    },
    {
      "geometry": {
        "type": "Point",
        "coordinates": [
          120.4987,
          22.674
        ]
      },
      "type": "Feature",
      "properties": {
        "hierarchy": [
          "tgn:7499929",
          "tgn:1000004",
          "tgn:7492971",
          "tgn:1000141",
          "tgn:7029392"
        ],
        "placetype": [
          "aat:300007595"
        ],
        "id": 7499929,
        "name:xx": "Nanqing Gong"
      }
    }
  ]
}
