{
  "type": "FeatureCollection",
  "features": [
    {
      "geometry": {
        "type": "Point",
        "coordinates": [
          121.069167,
          24.695556
        ]
      },
      "type": "Feature",
      "properties": {
        "hierarchy": [
          "tgn:7502460",
          "tgn:1000004",
          "tgn:7471332",
          "tgn:1000141",
          "tgn:7029392"
        ],
        "placetype": [
          "aat:300007836"
        ],
        "id": 7502460,
        "name:xx": "Dahu Qiao"
      }
    },
    {
      "geometry": {
        "type": "Point",
        "coordinates": [
          121.081389,
          24.695556
        ]
      },
      "type": "Feature",
      "properties": {
        "hierarchy": [
          "tgn:7502461",
          "tgn:1000004",
          "tgn:7471332",
          "tgn:1000141",
          "tgn:7029392"
        ],
        "placetype": [
          "aat:300007836"
        ],
        "id": 7502461,
        "name:xx": "Shangdahu Qiao"
      }
    },
    {
      "geometry": {
        "type": "Point",
        "coordinates": [
          121.049167,
          24.707222
        ]
      },
      "type": "Feature",
      "properties": {
        "hierarchy": [
          "tgn:7502462",
          "tgn:1000004",
          "tgn:7471332",
          "tgn:1000141",
          "tgn:7029392"
        ],
        "placetype": [
          "aat:300007836"
        ],
        "id": 7502462,
        "name:xx": "Yongle Qiao"
      }
    },
    {
      "geometry": {
        "type": "Point",
        "coordinates": [
          121.030556,
          24.708889
        ]
      },
      "type": "Feature",
      "properties": {
        "hierarchy": [
          "tgn:7502463",
          "tgn:1000004",
          "tgn:7471332",
          "tgn:1000141",
          "tgn:7029392"
        ],
        "placetype": [
          "aat:300008777"
        ],
        "id": 7502463,
        "name:xx": "Sifenlin"
      }
    },
    {
      "geometry": {
        "type": "Point",
        "coordinates": [
          121.071111,
          24.716389
        ]
      },
      "type": "Feature",
      "properties": {
        "hierarchy": [
          "tgn:7502464",
          "tgn:1000004",
          "tgn:7471332",
          "tgn:1000141",
          "tgn:7029392"
        ],
        "placetype": [
          "aat:300008777"
        ],
        "id": 7502464,
        "name:xx": "Dawo Shan"
      }
    },
    {
      "geometry": {
        "type": "Point",
        "coordinates": [
          121.055,
          24.724722
        ]
      },
      "type": "Feature",
      "properties": {
        "hierarchy": [
          "tgn:7502466",
          "tgn:1000004",
          "tgn:7471332",
          "tgn:1000141",
          "tgn:7029392"
        ],
        "placetype": [
          "aat:300008777"
        ],
        "id": 7502466,
        "name:xx": "Mianpenliao Shan"
      }
    },
    {
      "geometry": {
        "type": "Point",
        "coordinates": [
          121.025,
          24.726389
        ]
      },
      "type": "Feature",
      "properties": {
        "hierarchy": [
          "tgn:7502467",
          "tgn:1000004",
          "tgn:7471332",
          "tgn:1000141",
          "tgn:7029392"
        ],
        "placetype": [
          "aat:300008777"
        ],
        "id": 7502467,
        "name:xx": "Bagu Shan"
      }
    },
    {
      "geometry": {
        "type": "Point",
        "coordinates": [
          120.325833,
          22.886389
        ]
      },
      "type": "Feature",
      "properties": {
        "hierarchy": [
          "tgn:7502468",
          "tgn:7001004",
          "tgn:1000004",
          "tgn:1000141",
          "tgn:7029392"
        ],
        "placetype": [
          "aat:300000745"
        ],
        "id": 7502468,
        "name:xx": "Alianzhuang"
      }
    },
    {
      "geometry": {
        "type": "Point",
        "coordinates": [
          120.346111,
          22.933056
        ]
      },
      "type": "Feature",
      "properties": {
        "hierarchy": [
          "tgn:7502469",
          "tgn:1000004",
          "tgn:7490934",
          "tgn:1000141",
          "tgn:7029392"
        ],
        "placetype": [
          "aat:300008347"
        ],
        "id": 7502469,
        "name:xx": "Neitan"
      }
    }
  ]
}
