{
  "type": "FeatureCollection",
  "features": [
    {
      "geometry": {
        "type": "Point",
        "coordinates": [
          79.498048,
          25.280245
        ]
      },
      "type": "Feature",
      "properties": {
        "hierarchy": [
          "tgn:7563690",
          "tgn:1000004",
          "tgn:7000198",
          "tgn:7016722",
          "tgn:7029392"
        ],
        "placetype": [
          "aat:300008347"
        ],
        "name:en": "Pachāra",
        "id": 7563690
      }
    },
    {
      "geometry": {
        "type": "Point",
        "coordinates": [
          79.443007,
          25.271677
        ]
      },
      "type": "Feature",
      "properties": {
        "hierarchy": [
          "tgn:7563691",
          "tgn:1000004",
          "tgn:7000198",
          "tgn:7016722",
          "tgn:7029392"
        ],
        "placetype": [
          "aat:300008347"
        ],
        "name:en": "Para Ubāri",
        "id": 7563691
      }
    },
    {
      "geometry": {
        "type": "Point",
        "coordinates": [
          79.442484,
          25.274343
        ]
      },
      "type": "Feature",
      "properties": {
        "hierarchy": [
          "tgn:7563692",
          "tgn:1000004",
          "tgn:7000198",
          "tgn:7016722",
          "tgn:7029392"
        ],
        "placetype": [
          "aat:300008347"
        ],
        "name:en": "Rajauni",
        "id": 7563692
      }
    },
    {
      "geometry": {
        "type": "Point",
        "coordinates": [
          79.430902,
          25.279345
        ]
      },
      "type": "Feature",
      "properties": {
        "hierarchy": [
          "tgn:7563693",
          "tgn:1000004",
          "tgn:7000198",
          "tgn:7016722",
          "tgn:7029392"
        ],
        "placetype": [
          "aat:300008347"
        ],
        "name:en": "Imlia",
        "id": 7563693
      }
    },
    {
      "geometry": {
        "type": "Point",
        "coordinates": [
          79.411879,
          25.268088
        ]
      },
      "type": "Feature",
      "properties": {
        "hierarchy": [
          "tgn:7563694",
          "tgn:1000004",
          "tgn:7000198",
          "tgn:7016722",
          "tgn:7029392"
        ],
        "placetype": [
          "aat:300008865"
        ],
        "name:en": "Ghutai Protected Forest",
        "id": 7563694
      }
    },
    {
      "geometry": {
        "type": "Point",
        "coordinates": [
          79.403583,
          25.271352
        ]
      },
      "type": "Feature",
      "properties": {
        "hierarchy": [
          "tgn:7563695",
          "tgn:1000004",
          "tgn:7000198",
          "tgn:1001894",
          "tgn:7029392"
        ],
        "placetype": [
          "aat:300008347"
        ],
        "name:en": "Paretha",
        "id": 7563695
      }
    },
    {
      "geometry": {
        "type": "Point",
        "coordinates": [
          79.373692,
          25.281493
        ]
      },
      "type": "Feature",
      "properties": {
        "hierarchy": [
          "tgn:7563696",
          "tgn:1000004",
          "tgn:7000198",
          "tgn:7016722",
          "tgn:7029392"
        ],
        "placetype": [
          "aat:300008347"
        ],
        "name:en": "Bodi",
        "id": 7563696
      }
    },
    {
      "geometry": {
        "type": "Point",
        "coordinates": [
          79.359615,
          25.273108
        ]
      },
      "type": "Feature",
      "properties": {
        "hierarchy": [
          "tgn:7563697",
          "tgn:1000004",
          "tgn:7000198",
          "tgn:7016722",
          "tgn:7029392"
        ],
        "placetype": [
          "aat:300008347"
        ],
        "name:en": "Gārho",
        "id": 7563697
      }
    },
    {
      "geometry": {
        "type": "Point",
        "coordinates": [
          79.345568,
          25.273576
        ]
      },
      "type": "Feature",
      "properties": {
        "hierarchy": [
          "tgn:7563698",
          "tgn:1000004",
          "tgn:7000198",
          "tgn:1001894",
          "tgn:7029392"
        ],
        "placetype": [
          "aat:300008347"
        ],
        "name:en": "Kaimāha",
        "id": 7563698
      }
    },
    {
      "geometry": {
        "type": "Point",
        "coordinates": [
          79.343539,
          25.274089
        ]
      },
      "type": "Feature",
      "properties": {
        "hierarchy": [
          "tgn:7563699",
          "tgn:1000004",
          "tgn:7000198",
          "tgn:1001894",
          "tgn:7029392"
        ],
        "placetype": [
          "aat:300008347"
        ],
        "name:en": "Rānīpura",
        "id": 7563699
      }
    }
  ]
}
