{
  "type": "FeatureCollection",
  "features": [
    {
      "geometry": {
        "type": "Point",
        "coordinates": [
          79.911625,
          26.563053
        ]
      },
      "type": "Feature",
      "properties": {
        "hierarchy": [
          "tgn:7564040",
          "tgn:1000004",
          "tgn:7000198",
          "tgn:7016722",
          "tgn:7029392"
        ],
        "placetype": [
          "aat:300008347"
        ],
        "name:en": "Bhaunra",
        "id": 7564040
      }
    },
    {
      "geometry": {
        "type": "Point",
        "coordinates": [
          79.891652,
          26.549423
        ]
      },
      "type": "Feature",
      "properties": {
        "hierarchy": [
          "tgn:7564041",
          "tgn:1000004",
          "tgn:7000198",
          "tgn:7016722",
          "tgn:7029392"
        ],
        "placetype": [
          "aat:300008347"
        ],
        "name:en": "Korig훮pur",
        "id": 7564041
      }
    },
    {
      "geometry": {
        "type": "Point",
        "coordinates": [
          79.8955,
          26.560459
        ]
      },
      "type": "Feature",
      "properties": {
        "hierarchy": [
          "tgn:7564042",
          "tgn:1000004",
          "tgn:7000198",
          "tgn:7016722",
          "tgn:7029392"
        ],
        "placetype": [
          "aat:300008347"
        ],
        "name:en": "Purwa Banj훮ran",
        "id": 7564042
      }
    },
    {
      "geometry": {
        "type": "Point",
        "coordinates": [
          79.867039,
          26.582522
        ]
      },
      "type": "Feature",
      "properties": {
        "hierarchy": [
          "tgn:7564043",
          "tgn:1000004",
          "tgn:7000198",
          "tgn:7016722",
          "tgn:7029392"
        ],
        "placetype": [
          "aat:300008347"
        ],
        "name:en": "Purwa Bara",
        "id": 7564043
      }
    },
    {
      "geometry": {
        "type": "Point",
        "coordinates": [
          79.885194,
          26.581704
        ]
      },
      "type": "Feature",
      "properties": {
        "hierarchy": [
          "tgn:7564044",
          "tgn:1000004",
          "tgn:7000198",
          "tgn:7016722",
          "tgn:7029392"
        ],
        "placetype": [
          "aat:300008347"
        ],
        "name:en": "Murl카pur",
        "id": 7564044
      }
    },
    {
      "geometry": {
        "type": "Point",
        "coordinates": [
          79.875524,
          26.576669
        ]
      },
      "type": "Feature",
      "properties": {
        "hierarchy": [
          "tgn:7564045",
          "tgn:1000004",
          "tgn:7000198",
          "tgn:7016722",
          "tgn:7029392"
        ],
        "placetype": [
          "aat:300008347"
        ],
        "name:en": "Purwa Barhain",
        "id": 7564045
      }
    },
    {
      "geometry": {
        "type": "Point",
        "coordinates": [
          79.88109,
          26.567456
        ]
      },
      "type": "Feature",
      "properties": {
        "hierarchy": [
          "tgn:7564046",
          "tgn:1000004",
          "tgn:7000198",
          "tgn:7016722",
          "tgn:7029392"
        ],
        "placetype": [
          "aat:300008347"
        ],
        "name:en": "Semr훮mau",
        "id": 7564046
      }
    },
    {
      "geometry": {
        "type": "Point",
        "coordinates": [
          79.866904,
          26.550475
        ]
      },
      "type": "Feature",
      "properties": {
        "hierarchy": [
          "tgn:7564047",
          "tgn:1000004",
          "tgn:7000198",
          "tgn:7016722",
          "tgn:7029392"
        ],
        "placetype": [
          "aat:300007595"
        ],
        "name:en": "Baneshwar",
        "id": 7564047
      }
    },
    {
      "geometry": {
        "type": "Point",
        "coordinates": [
          79.873251,
          26.551991
        ]
      },
      "type": "Feature",
      "properties": {
        "hierarchy": [
          "tgn:7564048",
          "tgn:1000004",
          "tgn:7000198",
          "tgn:7016722",
          "tgn:7029392"
        ],
        "placetype": [
          "aat:300008347"
        ],
        "name:en": "Bijaipur",
        "id": 7564048
      }
    },
    {
      "geometry": {
        "type": "Point",
        "coordinates": [
          79.875938,
          26.549741
        ]
      },
      "type": "Feature",
      "properties": {
        "hierarchy": [
          "tgn:7564049",
          "tgn:1000004",
          "tgn:7000198",
          "tgn:7016722",
          "tgn:7029392"
        ],
        "placetype": [
          "aat:300008347"
        ],
        "name:en": "Purwa Deoki",
        "id": 7564049
      }
    }
  ]
}
