{
  "type": "FeatureCollection",
  "features": [
    {
      "geometry": {
        "type": "Point",
        "coordinates": [
          -112.861944,
          27.835278
        ]
      },
      "type": "Feature",
      "properties": {
        "hierarchy": [
          "tgn:7421270",
          "tgn:1001836",
          "tgn:1000001",
          "tgn:7005560",
          "tgn:7029392"
        ],
        "placetype": [
          "aat:300008347"
        ],
        "id": 7421270,
        "name:xx": "El Gato"
      }
    },
    {
      "geometry": {
        "type": "Point",
        "coordinates": [
          -112.865278,
          26.966389
        ]
      },
      "type": "Feature",
      "properties": {
        "hierarchy": [
          "tgn:7421271",
          "tgn:1001836",
          "tgn:1000001",
          "tgn:7005560",
          "tgn:7029392"
        ],
        "placetype": [
          "aat:300008795"
        ],
        "id": 7421271,
        "name:xx": "El Muerto, Cerro"
      }
    },
    {
      "geometry": {
        "type": "Point",
        "coordinates": [
          -112.872222,
          26.656111
        ]
      },
      "type": "Feature",
      "properties": {
        "hierarchy": [
          "tgn:7421272",
          "tgn:1001836",
          "tgn:1000001",
          "tgn:7005560",
          "tgn:7029392"
        ],
        "placetype": [
          "aat:300008347"
        ],
        "id": 7421272,
        "name:xx": "El Bule"
      }
    },
    {
      "geometry": {
        "type": "Point",
        "coordinates": [
          -112.897778,
          27.560833
        ]
      },
      "type": "Feature",
      "properties": {
        "hierarchy": [
          "tgn:7421273",
          "tgn:1001836",
          "tgn:1000001",
          "tgn:7005560",
          "tgn:7029392"
        ],
        "placetype": [
          "aat:300008347"
        ],
        "id": 7421273,
        "name:xx": "La Ubrada"
      }
    },
    {
      "geometry": {
        "type": "Point",
        "coordinates": [
          -112.897778,
          27.968611
        ]
      },
      "type": "Feature",
      "properties": {
        "hierarchy": [
          "tgn:7421274",
          "tgn:1001836",
          "tgn:1000001",
          "tgn:7005560",
          "tgn:7029392"
        ],
        "placetype": [
          "aat:300008347"
        ],
        "id": 7421274,
        "name:xx": "San Juan de las Palmas"
      }
    },
    {
      "geometry": {
        "type": "Point",
        "coordinates": [
          -112.905,
          27.015556
        ]
      },
      "type": "Feature",
      "properties": {
        "hierarchy": [
          "tgn:7421275",
          "tgn:1001836",
          "tgn:1000001",
          "tgn:7005560",
          "tgn:7029392"
        ],
        "placetype": [
          "aat:300008699"
        ],
        "id": 7421275,
        "name:xx": "La Rinconada, Río"
      }
    },
    {
      "geometry": {
        "type": "Point",
        "coordinates": [
          -112.905556,
          27.085278
        ]
      },
      "type": "Feature",
      "properties": {
        "hierarchy": [
          "tgn:7421276",
          "tgn:1001836",
          "tgn:1000001",
          "tgn:7005560",
          "tgn:7029392"
        ],
        "placetype": [
          "aat:300008811"
        ],
        "id": 7421276,
        "name:xx": "El Álamo, Mesa"
      }
    },
    {
      "geometry": {
        "type": "Point",
        "coordinates": [
          -112.906111,
          27.153333
        ]
      },
      "type": "Feature",
      "properties": {
        "hierarchy": [
          "tgn:7421277",
          "tgn:1001836",
          "tgn:1000001",
          "tgn:7005560",
          "tgn:7029392"
        ],
        "placetype": [
          "aat:300008699"
        ],
        "id": 7421277,
        "name:xx": "San Joaquín, Río"
      }
    },
    {
      "geometry": {
        "type": "Point",
        "coordinates": [
          -112.921667,
          27.281111
        ]
      },
      "type": "Feature",
      "properties": {
        "hierarchy": [
          "tgn:7421278",
          "tgn:1001836",
          "tgn:1000001",
          "tgn:7005560",
          "tgn:7029392"
        ],
        "placetype": [
          "aat:300008347"
        ],
        "id": 7421278,
        "name:xx": "La Joya"
      }
    },
    {
      "geometry": {
        "type": "Point",
        "coordinates": [
          -112.921667,
          26.8125
        ]
      },
      "type": "Feature",
      "properties": {
        "hierarchy": [
          "tgn:7421279",
          "tgn:1001836",
          "tgn:1000001",
          "tgn:7005560",
          "tgn:7029392"
        ],
        "placetype": [
          "aat:300008699"
        ],
        "id": 7421279,
        "name:xx": "Las Salinas, Río"
      }
    }
  ]
}
