{
  "type": "FeatureCollection",
  "features": [
    {
      "geometry": {
        "type": "Point",
        "coordinates": [
          120.814418,
          23.772747
        ]
      },
      "type": "Feature",
      "properties": {
        "hierarchy": [
          "tgn:7476100",
          "tgn:7488858",
          "tgn:1000004",
          "tgn:1000141",
          "tgn:7029392"
        ],
        "placetype": [
          "aat:300008798"
        ],
        "id": 7476100,
        "name:xx": "Baishiya Shan"
      }
    },
    {
      "geometry": {
        "type": "Point",
        "coordinates": [
          120.848731,
          23.77688
        ]
      },
      "type": "Feature",
      "properties": {
        "hierarchy": [
          "tgn:7476101",
          "tgn:7488858",
          "tgn:1000004",
          "tgn:1000141",
          "tgn:7029392"
        ],
        "placetype": [
          "aat:300008798"
        ],
        "id": 7476101,
        "name:xx": "Niuwenlu"
      }
    },
    {
      "geometry": {
        "type": "Point",
        "coordinates": [
          120.758842,
          23.801531
        ]
      },
      "type": "Feature",
      "properties": {
        "hierarchy": [
          "tgn:7476102",
          "tgn:7488858",
          "tgn:1000004",
          "tgn:1000141",
          "tgn:7029392"
        ],
        "placetype": [
          "aat:300008795"
        ],
        "id": 7476102,
        "name:xx": "Chendongkeng Shan"
      }
    },
    {
      "geometry": {
        "type": "Point",
        "coordinates": [
          120.81034,
          23.808693
        ]
      },
      "type": "Feature",
      "properties": {
        "hierarchy": [
          "tgn:7476103",
          "tgn:7488858",
          "tgn:1000004",
          "tgn:1000141",
          "tgn:7029392"
        ],
        "placetype": [
          "aat:300008798"
        ],
        "id": 7476103,
        "name:xx": "Dongzhao Shan"
      }
    },
    {
      "geometry": {
        "type": "Point",
        "coordinates": [
          120.779305,
          23.836993
        ]
      },
      "type": "Feature",
      "properties": {
        "hierarchy": [
          "tgn:7476104",
          "tgn:7488858",
          "tgn:1000004",
          "tgn:1000141",
          "tgn:7029392"
        ],
        "placetype": [
          "aat:300008798"
        ],
        "id": 7476104,
        "name:xx": "Jianziwei"
      }
    },
    {
      "geometry": {
        "type": "Point",
        "coordinates": [
          120.853196,
          23.8826
        ]
      },
      "type": "Feature",
      "properties": {
        "hierarchy": [
          "tgn:7476105",
          "tgn:7488858",
          "tgn:1000004",
          "tgn:1000141",
          "tgn:7029392"
        ],
        "placetype": [
          "aat:300008798"
        ],
        "id": 7476105,
        "name:xx": "Dongpinglun Shan"
      }
    },
    {
      "geometry": {
        "type": "Point",
        "coordinates": [
          120.8446,
          23.9053
        ]
      },
      "type": "Feature",
      "properties": {
        "hierarchy": [
          "tgn:7476106",
          "tgn:7488858",
          "tgn:1000004",
          "tgn:1000141",
          "tgn:7029392"
        ],
        "placetype": [
          "aat:300008798"
        ],
        "id": 7476106,
        "name:xx": "Sijiao Shan"
      }
    },
    {
      "geometry": {
        "type": "Point",
        "coordinates": [
          120.774814,
          23.955798
        ]
      },
      "type": "Feature",
      "properties": {
        "hierarchy": [
          "tgn:7476107",
          "tgn:7488858",
          "tgn:1000004",
          "tgn:1000141",
          "tgn:7029392"
        ],
        "placetype": [
          "aat:300008798"
        ],
        "id": 7476107,
        "name:xx": "Longyancun"
      }
    },
    {
      "geometry": {
        "type": "Point",
        "coordinates": [
          120.836601,
          23.967157
        ]
      },
      "type": "Feature",
      "properties": {
        "hierarchy": [
          "tgn:7476108",
          "tgn:7488858",
          "tgn:1000004",
          "tgn:1000141",
          "tgn:7029392"
        ],
        "placetype": [
          "aat:300008795"
        ],
        "id": 7476108,
        "name:xx": "Kandou Shan"
      }
    },
    {
      "geometry": {
        "type": "Point",
        "coordinates": [
          120.793382,
          23.988927
        ]
      },
      "type": "Feature",
      "properties": {
        "hierarchy": [
          "tgn:7476109",
          "tgn:7488858",
          "tgn:1000004",
          "tgn:1000141",
          "tgn:7029392"
        ],
        "placetype": [
          "aat:300007836"
        ],
        "id": 7476109,
        "name:xx": "Tongxin Qiao"
      }
    }
  ]
}
