{
  "type": "FeatureCollection",
  "features": [
    {
      "geometry": {
        "type": "Point",
        "coordinates": [
          31.083333,
          30.633333
        ]
      },
      "type": "Feature",
      "properties": {
        "hierarchy": [
          "tgn:7524182",
          "tgn:7001242",
          "tgn:7016833",
          "tgn:1001087",
          "tgn:7029392"
        ],
        "placetype": [
          "aat:300007783"
        ],
        "name:en": "Birkat as Sab'",
        "id": 7524182
      }
    },
    {
      "geometry": {
        "type": "Point",
        "coordinates": [
          32.263056,
          31.2575
        ]
      },
      "type": "Feature",
      "properties": {
        "hierarchy": [
          "tgn:7524184",
          "tgn:7001242",
          "tgn:7016833",
          "tgn:1001123",
          "tgn:7029392"
        ],
        "placetype": [
          "aat:300008791"
        ],
        "id": 7524184,
        "name:xx": "Birket el-Shagra, Gezîret"
      }
    },
    {
      "geometry": {
        "type": "Point",
        "coordinates": [
          30.266667,
          31.116667
        ]
      },
      "type": "Feature",
      "properties": {
        "hierarchy": [
          "tgn:7524185",
          "tgn:7001242",
          "tgn:1001075",
          "tgn:7016833",
          "tgn:7029392"
        ],
        "placetype": [
          "aat:300006075"
        ],
        "name:en": "Tur'at al Birkah",
        "id": 7524185
      }
    },
    {
      "geometry": {
        "type": "Point",
        "coordinates": [
          31.083333,
          31.266667
        ]
      },
      "type": "Feature",
      "properties": {
        "hierarchy": [
          "tgn:7524186",
          "tgn:7001242",
          "tgn:7016833",
          "tgn:1001335",
          "tgn:7029392"
        ],
        "placetype": [
          "aat:300008777"
        ],
        "name:en": "Birkah, Tall al",
        "id": 7524186
      }
    },
    {
      "geometry": {
        "type": "Point",
        "coordinates": [
          31.883968,
          31.453621
        ]
      },
      "type": "Feature",
      "properties": {
        "hierarchy": [
          "tgn:7524187",
          "tgn:7001242",
          "tgn:1001059",
          "tgn:7016833",
          "tgn:7029392"
        ],
        "placetype": [
          "aat:300008791"
        ],
        "name:en": "Birkah, Jazīrat",
        "id": 7524187
      }
    },
    {
      "geometry": {
        "type": "Point",
        "coordinates": [
          34.364363,
          25.37378
        ]
      },
      "type": "Feature",
      "properties": {
        "hierarchy": [
          "tgn:7524188",
          "tgn:7001242",
          "tgn:7001311",
          "tgn:7016833",
          "tgn:7029392"
        ],
        "placetype": [
          "aat:300008777"
        ],
        "name:en": "Birirîq, Gebel",
        "id": 7524188
      }
    },
    {
      "geometry": {
        "type": "Point",
        "coordinates": [
          34.400603,
          25.379571
        ]
      },
      "type": "Feature",
      "properties": {
        "hierarchy": [
          "tgn:7524189",
          "tgn:7001242",
          "tgn:7001311",
          "tgn:7016833",
          "tgn:7029392"
        ],
        "placetype": [
          "aat:300379998"
        ],
        "name:en": "Biririg, Wâdi",
        "id": 7524189
      }
    }
  ]
}
