{
  "type": "FeatureCollection",
  "features": [
    {
      "geometry": {
        "type": "Point",
        "coordinates": [
          121.347157,
          24.874463
        ]
      },
      "type": "Feature",
      "properties": {
        "hierarchy": [
          "tgn:7470240",
          "tgn:1000004",
          "tgn:1000454",
          "tgn:1000141",
          "tgn:7029392"
        ],
        "placetype": [
          "aat:300008347"
        ],
        "id": 7470240,
        "name:xx": "Jinguakeng"
      }
    },
    {
      "geometry": {
        "type": "Point",
        "coordinates": [
          120.813889,
          23.641111
        ]
      },
      "type": "Feature",
      "properties": {
        "hierarchy": [
          "tgn:7470241",
          "tgn:7488858",
          "tgn:1000004",
          "tgn:1000141",
          "tgn:7029392"
        ],
        "placetype": [
          "aat:300008798"
        ],
        "id": 7470241,
        "name:xx": "Jinganshu Shan"
      }
    },
    {
      "geometry": {
        "type": "Point",
        "coordinates": [
          118.384722,
          24.459722
        ]
      },
      "type": "Feature",
      "properties": {
        "hierarchy": [
          "tgn:7470242",
          "tgn:7469009",
          "tgn:1000004",
          "tgn:1000141",
          "tgn:7029392"
        ],
        "placetype": [
          "aat:300007595"
        ],
        "id": 7470242,
        "name:xx": "Jingang Si"
      }
    },
    {
      "geometry": {
        "type": "Point",
        "coordinates": [
          120.6945,
          24.1519
        ]
      },
      "type": "Feature",
      "properties": {
        "hierarchy": [
          "tgn:7470243",
          "tgn:1000004",
          "tgn:7001009",
          "tgn:1000141",
          "tgn:7029392"
        ],
        "placetype": [
          "aat:300008217"
        ],
        "id": 7470243,
        "name:xx": "Jinhua Lu"
      }
    },
    {
      "geometry": {
        "type": "Point",
        "coordinates": [
          121.098274,
          25.025397
        ]
      },
      "type": "Feature",
      "properties": {
        "hierarchy": [
          "tgn:7470244",
          "tgn:1000004",
          "tgn:7001013",
          "tgn:1000141",
          "tgn:7029392"
        ],
        "placetype": [
          "aat:300008347"
        ],
        "id": 7470244,
        "name:xx": "Jinhu"
      }
    },
    {
      "geometry": {
        "type": "Point",
        "coordinates": [
          120.169571,
          23.297705
        ]
      },
      "type": "Feature",
      "properties": {
        "hierarchy": [
          "tgn:7470245",
          "tgn:1000004",
          "tgn:7490934",
          "tgn:1000141",
          "tgn:7029392"
        ],
        "placetype": [
          "aat:300008347"
        ],
        "id": 7470245,
        "name:xx": "Jiuduzitou"
      }
    },
    {
      "geometry": {
        "type": "Point",
        "coordinates": [
          121.266667,
          25.066667
        ]
      },
      "type": "Feature",
      "properties": {
        "hierarchy": [
          "tgn:7470246",
          "tgn:1000004",
          "tgn:7001013",
          "tgn:1000141",
          "tgn:7029392"
        ],
        "placetype": [
          "aat:300008347"
        ],
        "id": 7470246,
        "name:xx": "Jinxingcun"
      }
    },
    {
      "geometry": {
        "type": "Point",
        "coordinates": [
          120.52837,
          24.011491
        ]
      },
      "type": "Feature",
      "properties": {
        "hierarchy": [
          "tgn:7470247",
          "tgn:1000004",
          "tgn:7467799",
          "tgn:1000141",
          "tgn:7029392"
        ],
        "placetype": [
          "aat:300387173"
        ],
        "id": 7470247,
        "name:xx": "Jinxing Cun"
      }
    },
    {
      "geometry": {
        "type": "Point",
        "coordinates": [
          120.5467,
          22.6753
        ]
      },
      "type": "Feature",
      "properties": {
        "hierarchy": [
          "tgn:7470248",
          "tgn:1000004",
          "tgn:7492971",
          "tgn:1000141",
          "tgn:7029392"
        ],
        "placetype": [
          "aat:300387173"
        ],
        "id": 7470248,
        "name:xx": "Jinxing Cun"
      }
    },
    {
      "geometry": {
        "type": "Point",
        "coordinates": [
          120.771956,
          24.272851
        ]
      },
      "type": "Feature",
      "properties": {
        "hierarchy": [
          "tgn:7470249",
          "tgn:1000004",
          "tgn:7001009",
          "tgn:1000141",
          "tgn:7029392"
        ],
        "placetype": [
          "aat:300008347"
        ],
        "id": 7470249,
        "name:xx": "Jinxingmian"
      }
    }
  ]
}
