{
  "type": "FeatureCollection",
  "features": [
    {
      "geometry": {
        "type": "Point",
        "coordinates": [
          79.9442,
          27.0087
        ]
      },
      "type": "Feature",
      "properties": {
        "hierarchy": [
          "tgn:7559610",
          "tgn:1000004",
          "tgn:7000198",
          "tgn:7016722",
          "tgn:7029392"
        ],
        "placetype": [
          "aat:300008347"
        ],
        "name:en": "Takia",
        "id": 7559610
      }
    },
    {
      "geometry": {
        "type": "Point",
        "coordinates": [
          79.9369,
          27.0064
        ]
      },
      "type": "Feature",
      "properties": {
        "hierarchy": [
          "tgn:7559611",
          "tgn:1000004",
          "tgn:7000198",
          "tgn:7016722",
          "tgn:7029392"
        ],
        "placetype": [
          "aat:300008347"
        ],
        "name:en": "Gāzi Purwa",
        "id": 7559611
      }
    },
    {
      "geometry": {
        "type": "Point",
        "coordinates": [
          79.9453,
          27.0012
        ]
      },
      "type": "Feature",
      "properties": {
        "hierarchy": [
          "tgn:7559612",
          "tgn:1000004",
          "tgn:7000198",
          "tgn:7016722",
          "tgn:7029392"
        ],
        "placetype": [
          "aat:300008347"
        ],
        "name:en": "Imalia Purwa",
        "id": 7559612
      }
    },
    {
      "geometry": {
        "type": "Point",
        "coordinates": [
          79.9254,
          27.0003
        ]
      },
      "type": "Feature",
      "properties": {
        "hierarchy": [
          "tgn:7559613",
          "tgn:1000004",
          "tgn:7000198",
          "tgn:7016722",
          "tgn:7029392"
        ],
        "placetype": [
          "aat:300008347"
        ],
        "name:en": "Purwa Kesari",
        "id": 7559613
      }
    },
    {
      "geometry": {
        "type": "Point",
        "coordinates": [
          79.9296,
          27.0038
        ]
      },
      "type": "Feature",
      "properties": {
        "hierarchy": [
          "tgn:7559614",
          "tgn:1000004",
          "tgn:7000198",
          "tgn:7016722",
          "tgn:7029392"
        ],
        "placetype": [
          "aat:300008347"
        ],
        "name:en": "Tāra Purwa",
        "id": 7559614
      }
    },
    {
      "geometry": {
        "type": "Point",
        "coordinates": [
          79.9269,
          27.0087
        ]
      },
      "type": "Feature",
      "properties": {
        "hierarchy": [
          "tgn:7559615",
          "tgn:1000004",
          "tgn:7000198",
          "tgn:7016722",
          "tgn:7029392"
        ],
        "placetype": [
          "aat:300008347"
        ],
        "name:en": "Padārathpur",
        "id": 7559615
      }
    },
    {
      "geometry": {
        "type": "Point",
        "coordinates": [
          79.9345,
          27.01
        ]
      },
      "type": "Feature",
      "properties": {
        "hierarchy": [
          "tgn:7559616",
          "tgn:1000004",
          "tgn:7000198",
          "tgn:7016722",
          "tgn:7029392"
        ],
        "placetype": [
          "aat:300008347"
        ],
        "name:en": "Paniār Purwa",
        "id": 7559616
      }
    },
    {
      "geometry": {
        "type": "Point",
        "coordinates": [
          79.9418,
          27.0119
        ]
      },
      "type": "Feature",
      "properties": {
        "hierarchy": [
          "tgn:7559617",
          "tgn:1000004",
          "tgn:7000198",
          "tgn:7016722",
          "tgn:7029392"
        ],
        "placetype": [
          "aat:300008347"
        ],
        "name:en": "Jasauli",
        "id": 7559617
      }
    },
    {
      "geometry": {
        "type": "Point",
        "coordinates": [
          79.9355,
          27.0143
        ]
      },
      "type": "Feature",
      "properties": {
        "hierarchy": [
          "tgn:7559618",
          "tgn:1000004",
          "tgn:7000198",
          "tgn:7016722",
          "tgn:7029392"
        ],
        "placetype": [
          "aat:300008347"
        ],
        "name:en": "Jalālpur Sarwan",
        "id": 7559618
      }
    },
    {
      "geometry": {
        "type": "Point",
        "coordinates": [
          79.9267,
          27.0199
        ]
      },
      "type": "Feature",
      "properties": {
        "hierarchy": [
          "tgn:7559619",
          "tgn:1000004",
          "tgn:7000198",
          "tgn:7016722",
          "tgn:7029392"
        ],
        "placetype": [
          "aat:300008347"
        ],
        "name:en": "Rangian Purwa",
        "id": 7559619
      }
    }
  ]
}
