{
  "type": "FeatureCollection",
  "features": [
    {
      "geometry": {
        "type": "Point",
        "coordinates": [
          32.830965,
          31.026218
        ]
      },
      "type": "Feature",
      "properties": {
        "hierarchy": [
          "tgn:7531800",
          "tgn:7001242",
          "tgn:7016833",
          "tgn:7001335",
          "tgn:7029392"
        ],
        "placetype": [
          "aat:300055621"
        ],
        "id": 7531800,
        "name:xx": "Borasat Ma'n"
      }
    },
    {
      "geometry": {
        "type": "Point",
        "coordinates": [
          32.786331,
          31.010668
        ]
      },
      "type": "Feature",
      "properties": {
        "hierarchy": [
          "tgn:7531801",
          "tgn:7001242",
          "tgn:7016833",
          "tgn:7001335",
          "tgn:7029392"
        ],
        "placetype": [
          "aat:300387498"
        ],
        "id": 7531801,
        "name:xx": "Nigilîyât, Ḥôḍ el-"
      }
    },
    {
      "geometry": {
        "type": "Point",
        "coordinates": [
          32.827821,
          31.00283
        ]
      },
      "type": "Feature",
      "properties": {
        "hierarchy": [
          "tgn:7531802",
          "tgn:7001242",
          "tgn:7016833",
          "tgn:7001335",
          "tgn:7029392"
        ],
        "placetype": [
          "aat:300008347"
        ],
        "id": 7531802,
        "name:xx": "El-Nagîla"
      }
    },
    {
      "geometry": {
        "type": "Point",
        "coordinates": [
          32.783284,
          31.022135
        ]
      },
      "type": "Feature",
      "properties": {
        "hierarchy": [
          "tgn:7531803",
          "tgn:7001242",
          "tgn:7016833",
          "tgn:7001335",
          "tgn:7029392"
        ],
        "placetype": [
          "aat:300055621"
        ],
        "id": 7531803,
        "name:xx": "El-Girîat"
      }
    },
    {
      "geometry": {
        "type": "Point",
        "coordinates": [
          32.788889,
          31.010833
        ]
      },
      "type": "Feature",
      "properties": {
        "hierarchy": [
          "tgn:7531804",
          "tgn:7001242",
          "tgn:7016833",
          "tgn:7001335",
          "tgn:7029392"
        ],
        "placetype": [
          "aat:300008686"
        ],
        "id": 7531804,
        "name:xx": "Umm el-Ḥalalîf"
      }
    },
    {
      "geometry": {
        "type": "Point",
        "coordinates": [
          32.773033,
          31.013298
        ]
      },
      "type": "Feature",
      "properties": {
        "hierarchy": [
          "tgn:7531805",
          "tgn:7001242",
          "tgn:7016833",
          "tgn:7001335",
          "tgn:7029392"
        ],
        "placetype": [
          "aat:300387498"
        ],
        "id": 7531805,
        "name:xx": "Ghazâl, Ḥôḍ el-"
      }
    },
    {
      "geometry": {
        "type": "Point",
        "coordinates": [
          32.755469,
          31.016967
        ]
      },
      "type": "Feature",
      "properties": {
        "hierarchy": [
          "tgn:7531806",
          "tgn:7001242",
          "tgn:7016833",
          "tgn:7001335",
          "tgn:7029392"
        ],
        "placetype": [
          "aat:300387498"
        ],
        "id": 7531806,
        "name:xx": "Sammâna, Ḥôḍ el-"
      }
    },
    {
      "geometry": {
        "type": "Point",
        "coordinates": [
          32.69057,
          31.004933
        ]
      },
      "type": "Feature",
      "properties": {
        "hierarchy": [
          "tgn:7531807",
          "tgn:7001242",
          "tgn:7016833",
          "tgn:7001335",
          "tgn:7029392"
        ],
        "placetype": [
          "aat:300387498"
        ],
        "id": 7531807,
        "name:xx": "Ṣûfiya, Ḥôḍ el-"
      }
    },
    {
      "geometry": {
        "type": "Point",
        "coordinates": [
          32.660126,
          31.04468
        ]
      },
      "type": "Feature",
      "properties": {
        "hierarchy": [
          "tgn:7531808",
          "tgn:7001242",
          "tgn:7016833",
          "tgn:7001335",
          "tgn:7029392"
        ],
        "placetype": [
          "aat:300008777"
        ],
        "id": 7531808,
        "name:xx": "Al Maḩamdīyah"
      }
    },
    {
      "geometry": {
        "type": "Point",
        "coordinates": [
          32.512388,
          31.060601
        ]
      },
      "type": "Feature",
      "properties": {
        "hierarchy": [
          "tgn:7531809",
          "tgn:7001242",
          "tgn:7016833",
          "tgn:1001123",
          "tgn:7029392"
        ],
        "placetype": [
          "aat:300008057"
        ],
        "id": 7531809,
        "name:xx": "Qal'et el-Ṭîna"
      }
    }
  ]
}
