{
  "type": "FeatureCollection",
  "features": [
    {
      "geometry": {
        "type": "Point",
        "coordinates": [
          72.85,
          19.45
        ]
      },
      "type": "Feature",
      "properties": {
        "hierarchy": [
          "tgn:7545630",
          "tgn:1000004",
          "tgn:7000198",
          "tgn:1001895",
          "tgn:7029392"
        ],
        "placetype": [
          "aat:300008777"
        ],
        "name:en": "Baronda",
        "id": 7545630
      }
    },
    {
      "geometry": {
        "type": "Point",
        "coordinates": [
          75.593534,
          24.958634
        ]
      },
      "type": "Feature",
      "properties": {
        "hierarchy": [
          "tgn:7545631",
          "tgn:1000004",
          "tgn:7000198",
          "tgn:7016788",
          "tgn:7029392"
        ],
        "placetype": [
          "aat:300007595"
        ],
        "name:en": "Barolli",
        "id": 7545631
      }
    },
    {
      "geometry": {
        "type": "Point",
        "coordinates": [
          81.943863,
          24.900991
        ]
      },
      "type": "Feature",
      "properties": {
        "hierarchy": [
          "tgn:7545632",
          "tgn:1000004",
          "tgn:7000198",
          "tgn:1001894",
          "tgn:7029392"
        ],
        "placetype": [
          "aat:300008347"
        ],
        "name:en": "Barokhar",
        "id": 7545632
      }
    },
    {
      "geometry": {
        "type": "Point",
        "coordinates": [
          73.016907,
          23.301978
        ]
      },
      "type": "Feature",
      "properties": {
        "hierarchy": [
          "tgn:7545633",
          "tgn:1000004",
          "tgn:1001869",
          "tgn:7000198",
          "tgn:7029392"
        ],
        "placetype": [
          "aat:300008347"
        ],
        "name:en": "Barodra",
        "id": 7545633
      }
    },
    {
      "geometry": {
        "type": "Point",
        "coordinates": [
          78.580672,
          24.215485
        ]
      },
      "type": "Feature",
      "properties": {
        "hierarchy": [
          "tgn:7545634",
          "tgn:1000004",
          "tgn:7000198",
          "tgn:1001894",
          "tgn:7029392"
        ],
        "placetype": [
          "aat:300008347"
        ],
        "name:en": "Barodia KalƒÅn",
        "id": 7545634
      }
    },
    {
      "geometry": {
        "type": "Point",
        "coordinates": [
          75.723966,
          24.868402
        ]
      },
      "type": "Feature",
      "properties": {
        "hierarchy": [
          "tgn:7545635",
          "tgn:1000004",
          "tgn:7000198",
          "tgn:7016788",
          "tgn:7029392"
        ],
        "placetype": [
          "aat:300008347"
        ],
        "name:en": "Barodia",
        "id": 7545635
      }
    },
    {
      "geometry": {
        "type": "Point",
        "coordinates": [
          76.336125,
          23.604242
        ]
      },
      "type": "Feature",
      "properties": {
        "hierarchy": [
          "tgn:7545636",
          "tgn:1000004",
          "tgn:7000198",
          "tgn:1001894",
          "tgn:7029392"
        ],
        "placetype": [
          "aat:300008347"
        ],
        "name:en": "Barodia",
        "id": 7545636
      }
    },
    {
      "geometry": {
        "type": "Point",
        "coordinates": [
          74.350672,
          23.428159
        ]
      },
      "type": "Feature",
      "properties": {
        "hierarchy": [
          "tgn:7545637",
          "tgn:1000004",
          "tgn:7000198",
          "tgn:7016788",
          "tgn:7029392"
        ],
        "placetype": [
          "aat:300008347"
        ],
        "name:en": "Barodia",
        "id": 7545637
      }
    },
    {
      "geometry": {
        "type": "Point",
        "coordinates": [
          76.588209,
          23.140223
        ]
      },
      "type": "Feature",
      "properties": {
        "hierarchy": [
          "tgn:7545638",
          "tgn:1000004",
          "tgn:7000198",
          "tgn:1001894",
          "tgn:7029392"
        ],
        "placetype": [
          "aat:300008347"
        ],
        "name:en": "Barodia",
        "id": 7545638
      }
    },
    {
      "geometry": {
        "type": "Point",
        "coordinates": [
          76.870136,
          27.484676
        ]
      },
      "type": "Feature",
      "properties": {
        "hierarchy": [
          "tgn:7545639",
          "tgn:1000004",
          "tgn:7000198",
          "tgn:7016788",
          "tgn:7029392"
        ],
        "placetype": [
          "aat:300008347"
        ],
        "name:en": "Baroda Mev",
        "id": 7545639
      }
    }
  ]
}
