{
  "type": "FeatureCollection",
  "features": [
    {
      "geometry": {
        "type": "Point",
        "coordinates": [
          79.529604,
          26.758818
        ]
      },
      "type": "Feature",
      "properties": {
        "hierarchy": [
          "tgn:7565550",
          "tgn:1000004",
          "tgn:7000198",
          "tgn:7016722",
          "tgn:7029392"
        ],
        "placetype": [
          "aat:300008347"
        ],
        "name:en": "Deoli Purwa",
        "id": 7565550
      }
    },
    {
      "geometry": {
        "type": "Point",
        "coordinates": [
          79.546135,
          26.762877
        ]
      },
      "type": "Feature",
      "properties": {
        "hierarchy": [
          "tgn:7565551",
          "tgn:1000004",
          "tgn:7000198",
          "tgn:7016722",
          "tgn:7029392"
        ],
        "placetype": [
          "aat:300008347"
        ],
        "name:en": "Indpāmau",
        "id": 7565551
      }
    },
    {
      "geometry": {
        "type": "Point",
        "coordinates": [
          79.53959,
          26.768483
        ]
      },
      "type": "Feature",
      "properties": {
        "hierarchy": [
          "tgn:7565552",
          "tgn:1000004",
          "tgn:7000198",
          "tgn:7016722",
          "tgn:7029392"
        ],
        "placetype": [
          "aat:300008347"
        ],
        "name:en": "Purwa Basanta",
        "id": 7565552
      }
    },
    {
      "geometry": {
        "type": "Point",
        "coordinates": [
          79.525774,
          26.767349
        ]
      },
      "type": "Feature",
      "properties": {
        "hierarchy": [
          "tgn:7565553",
          "tgn:1000004",
          "tgn:7000198",
          "tgn:7016722",
          "tgn:7029392"
        ],
        "placetype": [
          "aat:300008347"
        ],
        "name:en": "Bamtāmau",
        "id": 7565553
      }
    },
    {
      "geometry": {
        "type": "Point",
        "coordinates": [
          79.552311,
          26.781507
        ]
      },
      "type": "Feature",
      "properties": {
        "hierarchy": [
          "tgn:7565554",
          "tgn:1000004",
          "tgn:7000198",
          "tgn:7016722",
          "tgn:7029392"
        ],
        "placetype": [
          "aat:300008347"
        ],
        "name:en": "Marhaiyān",
        "id": 7565554
      }
    },
    {
      "geometry": {
        "type": "Point",
        "coordinates": [
          79.546761,
          26.779407
        ]
      },
      "type": "Feature",
      "properties": {
        "hierarchy": [
          "tgn:7565555",
          "tgn:1000004",
          "tgn:7000198",
          "tgn:7016722",
          "tgn:7029392"
        ],
        "placetype": [
          "aat:300008347"
        ],
        "name:en": "Nawado Malkhan",
        "id": 7565555
      }
    },
    {
      "geometry": {
        "type": "Point",
        "coordinates": [
          79.541311,
          26.778418
        ]
      },
      "type": "Feature",
      "properties": {
        "hierarchy": [
          "tgn:7565556",
          "tgn:1000004",
          "tgn:7000198",
          "tgn:7016722",
          "tgn:7029392"
        ],
        "placetype": [
          "aat:300008347"
        ],
        "name:en": "Bhadsaie",
        "id": 7565556
      }
    },
    {
      "geometry": {
        "type": "Point",
        "coordinates": [
          79.543747,
          26.771949
        ]
      },
      "type": "Feature",
      "properties": {
        "hierarchy": [
          "tgn:7565557",
          "tgn:1000004",
          "tgn:7000198",
          "tgn:7016722",
          "tgn:7029392"
        ],
        "placetype": [
          "aat:300008347"
        ],
        "name:en": "Purwa Dalla",
        "id": 7565557
      }
    },
    {
      "geometry": {
        "type": "Point",
        "coordinates": [
          79.539181,
          26.773132
        ]
      },
      "type": "Feature",
      "properties": {
        "hierarchy": [
          "tgn:7565558",
          "tgn:1000004",
          "tgn:7000198",
          "tgn:7016722",
          "tgn:7029392"
        ],
        "placetype": [
          "aat:300008347"
        ],
        "name:en": "Kanak Purwa",
        "id": 7565558
      }
    },
    {
      "geometry": {
        "type": "Point",
        "coordinates": [
          79.524421,
          26.772627
        ]
      },
      "type": "Feature",
      "properties": {
        "hierarchy": [
          "tgn:7565559",
          "tgn:1000004",
          "tgn:7000198",
          "tgn:7016722",
          "tgn:7029392"
        ],
        "placetype": [
          "aat:300008347"
        ],
        "name:en": "Rūppur Sahār",
        "id": 7565559
      }
    }
  ]
}
