{
  "type": "FeatureCollection",
  "features": [
    {
      "geometry": {
        "type": "Point",
        "coordinates": [
          84.888961,
          23.220814
        ]
      },
      "type": "Feature",
      "properties": {
        "hierarchy": [
          "tgn:7544810",
          "tgn:1000004",
          "tgn:7000198",
          "tgn:7031783",
          "tgn:7029392"
        ],
        "placetype": [
          "aat:300008347"
        ],
        "name:en": "Bharno",
        "id": 7544810
      }
    },
    {
      "geometry": {
        "type": "Point",
        "coordinates": [
          75.65893,
          25.971329
        ]
      },
      "type": "Feature",
      "properties": {
        "hierarchy": [
          "tgn:7544811",
          "tgn:1000004",
          "tgn:7000198",
          "tgn:7016788",
          "tgn:7029392"
        ],
        "placetype": [
          "aat:300008347"
        ],
        "name:en": "Bharna",
        "id": 7544811
      }
    },
    {
      "geometry": {
        "type": "Point",
        "coordinates": [
          76.183333,
          14.366667
        ]
      },
      "type": "Feature",
      "properties": {
        "hierarchy": [
          "tgn:7544812",
          "tgn:1000004",
          "tgn:7000198",
          "tgn:1001882",
          "tgn:7029392"
        ],
        "placetype": [
          "aat:300008347"
        ],
        "name:en": "Bharmasāgara",
        "id": 7544812
      }
    },
    {
      "geometry": {
        "type": "Point",
        "coordinates": [
          75.951483,
          32.169053
        ]
      },
      "type": "Feature",
      "properties": {
        "hierarchy": [
          "tgn:7544813",
          "tgn:1000004",
          "tgn:7000198",
          "tgn:1001996",
          "tgn:7029392"
        ],
        "placetype": [
          "aat:300008347"
        ],
        "name:en": "Bharmār",
        "id": 7544813
      }
    },
    {
      "geometry": {
        "type": "Point",
        "coordinates": [
          78.547403,
          30.623851
        ]
      },
      "type": "Feature",
      "properties": {
        "hierarchy": [
          "tgn:7544814",
          "tgn:1000004",
          "tgn:7000198",
          "tgn:7031786",
          "tgn:7029392"
        ],
        "placetype": [
          "aat:300008347"
        ],
        "name:en": "Bharkot",
        "id": 7544814
      }
    },
    {
      "geometry": {
        "type": "Point",
        "coordinates": [
          77.705603,
          27.123999
        ]
      },
      "type": "Feature",
      "properties": {
        "hierarchy": [
          "tgn:7544815",
          "tgn:1000004",
          "tgn:7000198",
          "tgn:7016722",
          "tgn:7029392"
        ],
        "placetype": [
          "aat:300008347"
        ],
        "name:en": "Bharkol",
        "id": 7544815
      }
    },
    {
      "geometry": {
        "type": "Point",
        "coordinates": [
          86.850749,
          25.00168
        ]
      },
      "type": "Feature",
      "properties": {
        "hierarchy": [
          "tgn:7544816",
          "tgn:1000004",
          "tgn:1001842",
          "tgn:7000198",
          "tgn:7029392"
        ],
        "placetype": [
          "aat:300008347"
        ],
        "name:en": "Bharko",
        "id": 7544816
      }
    },
    {
      "geometry": {
        "type": "Point",
        "coordinates": [
          72.166667,
          22.283333
        ]
      },
      "type": "Feature",
      "properties": {
        "hierarchy": [
          "tgn:7544817",
          "tgn:1000004",
          "tgn:1001869",
          "tgn:7000198",
          "tgn:7029392"
        ],
        "placetype": [
          "aat:300008347"
        ],
        "name:en": "Bhariād",
        "id": 7544817
      }
    },
    {
      "geometry": {
        "type": "Point",
        "coordinates": [
          80.961921,
          23.513724
        ]
      },
      "type": "Feature",
      "properties": {
        "hierarchy": [
          "tgn:7544818",
          "tgn:1000004",
          "tgn:7000198",
          "tgn:1001894",
          "tgn:7029392"
        ],
        "placetype": [
          "aat:300008347"
        ],
        "name:en": "Bharhut",
        "id": 7544818
      }
    },
    {
      "geometry": {
        "type": "Point",
        "coordinates": [
          75.903306,
          33.03631
        ]
      },
      "type": "Feature",
      "properties": {
        "hierarchy": [
          "tgn:7544819",
          "tgn:1000004",
          "tgn:7000198",
          "tgn:7000799",
          "tgn:7029392"
        ],
        "placetype": [
          "aat:300008347"
        ],
        "name:en": "Bhargi",
        "id": 7544819
      }
    }
  ]
}
