{
  "type": "FeatureCollection",
  "features": [
    {
      "geometry": {
        "type": "Point",
        "coordinates": [
          76.683333,
          12.266667
        ]
      },
      "type": "Feature",
      "properties": {
        "hierarchy": [
          "tgn:7549730",
          "tgn:1000004",
          "tgn:7000198",
          "tgn:1001882",
          "tgn:7029392"
        ],
        "placetype": [
          "aat:300008347"
        ],
        "name:en": "Ch훮mundi",
        "id": 7549730
      }
    },
    {
      "geometry": {
        "type": "Point",
        "coordinates": [
          72.579051,
          26.65452
        ]
      },
      "type": "Feature",
      "properties": {
        "hierarchy": [
          "tgn:7549731",
          "tgn:1000004",
          "tgn:7000198",
          "tgn:7016788",
          "tgn:7029392"
        ],
        "placetype": [
          "aat:300008347"
        ],
        "name:en": "Chamu",
        "id": 7549731
      }
    },
    {
      "geometry": {
        "type": "Point",
        "coordinates": [
          82.35,
          27.316667
        ]
      },
      "type": "Feature",
      "properties": {
        "hierarchy": [
          "tgn:7549732",
          "tgn:1000004",
          "tgn:7000198",
          "tgn:7016722",
          "tgn:7029392"
        ],
        "placetype": [
          "aat:300008347"
        ],
        "name:en": "Chamr큰pur",
        "id": 7549732
      }
    },
    {
      "geometry": {
        "type": "Point",
        "coordinates": [
          79.358292,
          25.126377
        ]
      },
      "type": "Feature",
      "properties": {
        "hierarchy": [
          "tgn:7549733",
          "tgn:1000004",
          "tgn:7000198",
          "tgn:7016722",
          "tgn:7029392"
        ],
        "placetype": [
          "aat:300008347"
        ],
        "name:en": "Chamrua",
        "id": 7549733
      }
    },
    {
      "geometry": {
        "type": "Point",
        "coordinates": [
          73.108558,
          24.942485
        ]
      },
      "type": "Feature",
      "properties": {
        "hierarchy": [
          "tgn:7549734",
          "tgn:1000004",
          "tgn:7000198",
          "tgn:7016788",
          "tgn:7029392"
        ],
        "placetype": [
          "aat:300008347"
        ],
        "name:en": "Ch훮manderi",
        "id": 7549734
      }
    },
    {
      "geometry": {
        "type": "Point",
        "coordinates": [
          81.982516,
          25.936746
        ]
      },
      "type": "Feature",
      "properties": {
        "hierarchy": [
          "tgn:7549735",
          "tgn:1000004",
          "tgn:7000198",
          "tgn:7016722",
          "tgn:7029392"
        ],
        "placetype": [
          "aat:300008699"
        ],
        "name:en": "Chamraura Nad카",
        "id": 7549735
      }
    },
    {
      "geometry": {
        "type": "Point",
        "coordinates": [
          76.721659,
          32.787719
        ]
      },
      "type": "Feature",
      "properties": {
        "hierarchy": [
          "tgn:7549736",
          "tgn:1000004",
          "tgn:7000198",
          "tgn:1001996",
          "tgn:7029392"
        ],
        "placetype": [
          "aat:300008347"
        ],
        "name:en": "Chamrat",
        "id": 7549736
      }
    }
  ]
}
