{
  "type": "FeatureCollection",
  "features": [
    {
      "geometry": {
        "type": "Point",
        "coordinates": [
          79.81143,
          26.639385
        ]
      },
      "type": "Feature",
      "properties": {
        "hierarchy": [
          "tgn:7563310",
          "tgn:1000004",
          "tgn:7000198",
          "tgn:7016722",
          "tgn:7029392"
        ],
        "placetype": [
          "aat:300008347"
        ],
        "name:en": "Nawāda Chatarsingh",
        "id": 7563310
      }
    },
    {
      "geometry": {
        "type": "Point",
        "coordinates": [
          79.791464,
          26.643619
        ]
      },
      "type": "Feature",
      "properties": {
        "hierarchy": [
          "tgn:7563311",
          "tgn:1000004",
          "tgn:7000198",
          "tgn:7016722",
          "tgn:7029392"
        ],
        "placetype": [
          "aat:300008347"
        ],
        "name:en": "Daya",
        "id": 7563311
      }
    },
    {
      "geometry": {
        "type": "Point",
        "coordinates": [
          79.801408,
          26.644994
        ]
      },
      "type": "Feature",
      "properties": {
        "hierarchy": [
          "tgn:7563312",
          "tgn:1000004",
          "tgn:7000198",
          "tgn:7016722",
          "tgn:7029392"
        ],
        "placetype": [
          "aat:300008347"
        ],
        "name:en": "Dhusrāmau",
        "id": 7563312
      }
    },
    {
      "geometry": {
        "type": "Point",
        "coordinates": [
          79.813764,
          26.645324
        ]
      },
      "type": "Feature",
      "properties": {
        "hierarchy": [
          "tgn:7563313",
          "tgn:1000004",
          "tgn:7000198",
          "tgn:7016722",
          "tgn:7029392"
        ],
        "placetype": [
          "aat:300008347"
        ],
        "name:en": "Ratanpur Kastūri",
        "id": 7563313
      }
    },
    {
      "geometry": {
        "type": "Point",
        "coordinates": [
          79.829179,
          26.661307
        ]
      },
      "type": "Feature",
      "properties": {
        "hierarchy": [
          "tgn:7563314",
          "tgn:1000004",
          "tgn:7000198",
          "tgn:7016722",
          "tgn:7029392"
        ],
        "placetype": [
          "aat:300008347"
        ],
        "name:en": "Nawāda Moti",
        "id": 7563314
      }
    },
    {
      "geometry": {
        "type": "Point",
        "coordinates": [
          79.814784,
          26.656635
        ]
      },
      "type": "Feature",
      "properties": {
        "hierarchy": [
          "tgn:7563315",
          "tgn:1000004",
          "tgn:7000198",
          "tgn:7016722",
          "tgn:7029392"
        ],
        "placetype": [
          "aat:300008347"
        ],
        "name:en": "Bhojhwa",
        "id": 7563315
      }
    },
    {
      "geometry": {
        "type": "Point",
        "coordinates": [
          79.817371,
          26.654978
        ]
      },
      "type": "Feature",
      "properties": {
        "hierarchy": [
          "tgn:7563316",
          "tgn:1000004",
          "tgn:7000198",
          "tgn:7016722",
          "tgn:7029392"
        ],
        "placetype": [
          "aat:300008347"
        ],
        "name:en": "Garhewa",
        "id": 7563316
      }
    },
    {
      "geometry": {
        "type": "Point",
        "coordinates": [
          79.817894,
          26.6398
        ]
      },
      "type": "Feature",
      "properties": {
        "hierarchy": [
          "tgn:7563317",
          "tgn:1000004",
          "tgn:7000198",
          "tgn:7016722",
          "tgn:7029392"
        ],
        "placetype": [
          "aat:300008347"
        ],
        "name:en": "Nawāda Golotan",
        "id": 7563317
      }
    },
    {
      "geometry": {
        "type": "Point",
        "coordinates": [
          79.829459,
          26.638371
        ]
      },
      "type": "Feature",
      "properties": {
        "hierarchy": [
          "tgn:7563318",
          "tgn:1000004",
          "tgn:7000198",
          "tgn:7016722",
          "tgn:7029392"
        ],
        "placetype": [
          "aat:300008347"
        ],
        "name:en": "Jyunri",
        "id": 7563318
      }
    },
    {
      "geometry": {
        "type": "Point",
        "coordinates": [
          79.845694,
          26.666578
        ]
      },
      "type": "Feature",
      "properties": {
        "hierarchy": [
          "tgn:7563319",
          "tgn:1000004",
          "tgn:7000198",
          "tgn:7016722",
          "tgn:7029392"
        ],
        "placetype": [
          "aat:300008347"
        ],
        "name:en": "Banpura",
        "id": 7563319
      }
    }
  ]
}
