{
  "type": "FeatureCollection",
  "features": [
    {
      "geometry": {
        "type": "Point",
        "coordinates": [
          78.622332,
          24.54885
        ]
      },
      "type": "Feature",
      "properties": {
        "hierarchy": [
          "tgn:7583770",
          "tgn:1000004",
          "tgn:7000198",
          "tgn:7016722",
          "tgn:7029392"
        ],
        "placetype": [
          "aat:300008347"
        ],
        "name:en": "Jaria",
        "id": 7583770
      }
    },
    {
      "geometry": {
        "type": "Point",
        "coordinates": [
          78.929497,
          25.147902
        ]
      },
      "type": "Feature",
      "properties": {
        "hierarchy": [
          "tgn:7583771",
          "tgn:1000004",
          "tgn:7000198",
          "tgn:1001894",
          "tgn:7029392"
        ],
        "placetype": [
          "aat:300387086"
        ],
        "name:en": "Purāna Tāl",
        "id": 7583771
      }
    },
    {
      "geometry": {
        "type": "Point",
        "coordinates": [
          78.928825,
          25.150207
        ]
      },
      "type": "Feature",
      "properties": {
        "hierarchy": [
          "tgn:7583772",
          "tgn:1000004",
          "tgn:7000198",
          "tgn:1001894",
          "tgn:7029392"
        ],
        "placetype": [
          "aat:300008347"
        ],
        "name:en": "Kharon",
        "id": 7583772
      }
    },
    {
      "geometry": {
        "type": "Point",
        "coordinates": [
          78.955574,
          25.152645
        ]
      },
      "type": "Feature",
      "properties": {
        "hierarchy": [
          "tgn:7583773",
          "tgn:1000004",
          "tgn:7000198",
          "tgn:1001894",
          "tgn:7029392"
        ],
        "placetype": [
          "aat:300008347"
        ],
        "name:en": "Morpāriya",
        "id": 7583773
      }
    },
    {
      "geometry": {
        "type": "Point",
        "coordinates": [
          78.976392,
          25.159488
        ]
      },
      "type": "Feature",
      "properties": {
        "hierarchy": [
          "tgn:7583774",
          "tgn:1000004",
          "tgn:7000198",
          "tgn:1001894",
          "tgn:7029392"
        ],
        "placetype": [
          "aat:300008347"
        ],
        "name:en": "Daryāpura",
        "id": 7583774
      }
    },
    {
      "geometry": {
        "type": "Point",
        "coordinates": [
          78.949574,
          25.158739
        ]
      },
      "type": "Feature",
      "properties": {
        "hierarchy": [
          "tgn:7583775",
          "tgn:1000004",
          "tgn:7000198",
          "tgn:1001894",
          "tgn:7029392"
        ],
        "placetype": [
          "aat:300008347"
        ],
        "name:en": "Ajnāra ka khirk",
        "id": 7583775
      }
    },
    {
      "geometry": {
        "type": "Point",
        "coordinates": [
          78.953105,
          25.154124
        ]
      },
      "type": "Feature",
      "properties": {
        "hierarchy": [
          "tgn:7583776",
          "tgn:1000004",
          "tgn:7000198",
          "tgn:1001894",
          "tgn:7029392"
        ],
        "placetype": [
          "aat:300387086"
        ],
        "name:en": "Bara Tāl",
        "id": 7583776
      }
    },
    {
      "geometry": {
        "type": "Point",
        "coordinates": [
          76.060814,
          30.563896
        ]
      },
      "type": "Feature",
      "properties": {
        "hierarchy": [
          "tgn:7583777",
          "tgn:1000004",
          "tgn:7000198",
          "tgn:7016883",
          "tgn:7029392"
        ],
        "placetype": [
          "aat:300008347"
        ],
        "name:en": "Jabo Mazra",
        "id": 7583777
      }
    },
    {
      "geometry": {
        "type": "Point",
        "coordinates": [
          76.078856,
          30.569448
        ]
      },
      "type": "Feature",
      "properties": {
        "hierarchy": [
          "tgn:7583778",
          "tgn:1000004",
          "tgn:7000198",
          "tgn:7016883",
          "tgn:7029392"
        ],
        "placetype": [
          "aat:300008347"
        ],
        "name:en": "Bharthala",
        "id": 7583778
      }
    },
    {
      "geometry": {
        "type": "Point",
        "coordinates": [
          76.069668,
          30.568689
        ]
      },
      "type": "Feature",
      "properties": {
        "hierarchy": [
          "tgn:7583779",
          "tgn:1000004",
          "tgn:7000198",
          "tgn:7016883",
          "tgn:7029392"
        ],
        "placetype": [
          "aat:300008347"
        ],
        "name:en": "Sati",
        "id": 7583779
      }
    }
  ]
}
