{
  "type": "FeatureCollection",
  "features": [
    {
      "geometry": {
        "type": "Point",
        "coordinates": [
          -101.093611,
          20.168889
        ]
      },
      "type": "Feature",
      "properties": {
        "hierarchy": [
          "tgn:7414920",
          "tgn:7005584",
          "tgn:1000001",
          "tgn:7005560",
          "tgn:7029392"
        ],
        "placetype": [
          "aat:300008347"
        ],
        "id": 7414920,
        "name:xx": "Porullo"
      }
    },
    {
      "geometry": {
        "type": "Point",
        "coordinates": [
          -101.128889,
          20.175556
        ]
      },
      "type": "Feature",
      "properties": {
        "hierarchy": [
          "tgn:7414921",
          "tgn:7005584",
          "tgn:1000001",
          "tgn:7005560",
          "tgn:7029392"
        ],
        "placetype": [
          "aat:300008795"
        ],
        "id": 7414921,
        "name:xx": "El Capulín, Cerro"
      }
    },
    {
      "geometry": {
        "type": "Point",
        "coordinates": [
          -101.218611,
          20.226944
        ]
      },
      "type": "Feature",
      "properties": {
        "hierarchy": [
          "tgn:7414922",
          "tgn:7005584",
          "tgn:1000001",
          "tgn:7005560",
          "tgn:7029392"
        ],
        "placetype": [
          "aat:300266554",
          "aat:300008699"
        ],
        "id": 7414922,
        "name:xx": "La Ciénega, Arroyo"
      }
    },
    {
      "geometry": {
        "type": "Point",
        "coordinates": [
          -101.098889,
          20.226389
        ]
      },
      "type": "Feature",
      "properties": {
        "hierarchy": [
          "tgn:7414923",
          "tgn:7005584",
          "tgn:1000001",
          "tgn:7005560",
          "tgn:7029392"
        ],
        "placetype": [
          "aat:300008347"
        ],
        "id": 7414923,
        "name:xx": "La Vieja"
      }
    },
    {
      "geometry": {
        "type": "Point",
        "coordinates": [
          -101.0975,
          20.191389
        ]
      },
      "type": "Feature",
      "properties": {
        "hierarchy": [
          "tgn:7414924",
          "tgn:7005584",
          "tgn:1000001",
          "tgn:7005560",
          "tgn:7029392"
        ],
        "placetype": [
          "aat:300008795"
        ],
        "id": 7414924,
        "name:xx": "Santiago, Cerro"
      }
    },
    {
      "geometry": {
        "type": "Point",
        "coordinates": [
          -101.041111,
          20.199167
        ]
      },
      "type": "Feature",
      "properties": {
        "hierarchy": [
          "tgn:7414925",
          "tgn:7005584",
          "tgn:1000001",
          "tgn:7005560",
          "tgn:7029392"
        ],
        "placetype": [
          "aat:300008347"
        ],
        "id": 7414925,
        "name:xx": "Casacuarán"
      }
    },
    {
      "geometry": {
        "type": "Point",
        "coordinates": [
          -100.898889,
          20.203056
        ]
      },
      "type": "Feature",
      "properties": {
        "hierarchy": [
          "tgn:7414926",
          "tgn:7005584",
          "tgn:1000001",
          "tgn:7005560",
          "tgn:7029392"
        ],
        "placetype": [
          "aat:300008347"
        ],
        "id": 7414926,
        "name:xx": "Janicho"
      }
    },
    {
      "geometry": {
        "type": "Point",
        "coordinates": [
          -100.890556,
          20.1875
        ]
      },
      "type": "Feature",
      "properties": {
        "hierarchy": [
          "tgn:7414927",
          "tgn:7005584",
          "tgn:1000001",
          "tgn:7005560",
          "tgn:7029392"
        ],
        "placetype": [
          "aat:300008347"
        ],
        "id": 7414927,
        "name:xx": "El Pocho"
      }
    },
    {
      "geometry": {
        "type": "Point",
        "coordinates": [
          -100.960278,
          20.184167
        ]
      },
      "type": "Feature",
      "properties": {
        "hierarchy": [
          "tgn:7414928",
          "tgn:7005584",
          "tgn:1000001",
          "tgn:7005560",
          "tgn:7029392"
        ],
        "placetype": [
          "aat:300008347"
        ],
        "id": 7414928,
        "name:xx": "Santa Teresa"
      }
    },
    {
      "geometry": {
        "type": "Point",
        "coordinates": [
          -100.882778,
          20.163889
        ]
      },
      "type": "Feature",
      "properties": {
        "hierarchy": [
          "tgn:7414929",
          "tgn:7005584",
          "tgn:1000001",
          "tgn:7005560",
          "tgn:7029392"
        ],
        "placetype": [
          "aat:300008347"
        ],
        "id": 7414929,
        "name:xx": "San Miguel Menguaro"
      }
    }
  ]
}
