{
  "type": "FeatureCollection",
  "features": [
    {
      "geometry": {
        "type": "Point",
        "coordinates": [
          73.65,
          18.766667
        ]
      },
      "type": "Feature",
      "properties": {
        "hierarchy": [
          "tgn:7546410",
          "tgn:1000004",
          "tgn:7000198",
          "tgn:1001895",
          "tgn:7029392"
        ],
        "placetype": [
          "aat:300008699"
        ],
        "name:en": "Andhra River",
        "id": 7546410
      }
    },
    {
      "geometry": {
        "type": "Point",
        "coordinates": [
          79.489656,
          22.616838
        ]
      },
      "type": "Feature",
      "properties": {
        "hierarchy": [
          "tgn:7546412",
          "tgn:1000004",
          "tgn:7000198",
          "tgn:1001894",
          "tgn:7029392"
        ],
        "placetype": [
          "aat:300008347"
        ],
        "name:en": "Adegaon",
        "id": 7546412
      }
    },
    {
      "geometry": {
        "type": "Point",
        "coordinates": [
          82.016667,
          17.483333
        ]
      },
      "type": "Feature",
      "properties": {
        "hierarchy": [
          "tgn:7546413",
          "tgn:1001828",
          "tgn:1000004",
          "tgn:7000198",
          "tgn:7029392"
        ],
        "placetype": [
          "aat:300008347"
        ],
        "name:en": "Addatīgala",
        "id": 7546413
      }
    },
    {
      "geometry": {
        "type": "Point",
        "coordinates": [
          79.983333,
          15.816667
        ]
      },
      "type": "Feature",
      "properties": {
        "hierarchy": [
          "tgn:7546414",
          "tgn:1001828",
          "tgn:1000004",
          "tgn:7000198",
          "tgn:7029392"
        ],
        "placetype": [
          "aat:300008347"
        ],
        "name:en": "Addanki",
        "id": 7546414
      }
    },
    {
      "geometry": {
        "type": "Point",
        "coordinates": [
          83.033333,
          21.95
        ]
      },
      "type": "Feature",
      "properties": {
        "hierarchy": [
          "tgn:7546415",
          "tgn:1000004",
          "tgn:7031781",
          "tgn:7000198",
          "tgn:7029392"
        ],
        "placetype": [
          "aat:300008347"
        ],
        "name:en": "Adbhār",
        "id": 7546415
      }
    },
    {
      "geometry": {
        "type": "Point",
        "coordinates": [
          79.25,
          30.15
        ]
      },
      "type": "Feature",
      "properties": {
        "hierarchy": [
          "tgn:7546416",
          "tgn:1000004",
          "tgn:7000198",
          "tgn:7031786",
          "tgn:7029392"
        ],
        "placetype": [
          "aat:300008347"
        ],
        "name:en": "Ādbadri",
        "id": 7546416
      }
    },
    {
      "geometry": {
        "type": "Point",
        "coordinates": [
          75.444181,
          21.219853
        ]
      },
      "type": "Feature",
      "properties": {
        "hierarchy": [
          "tgn:7546417",
          "tgn:1000004",
          "tgn:7000198",
          "tgn:1001895",
          "tgn:7029392"
        ],
        "placetype": [
          "aat:300008347"
        ],
        "name:en": "Adāvad",
        "id": 7546417
      }
    },
    {
      "geometry": {
        "type": "Point",
        "coordinates": [
          73.033333,
          22.483333
        ]
      },
      "type": "Feature",
      "properties": {
        "hierarchy": [
          "tgn:7546418",
          "tgn:1000004",
          "tgn:1001869",
          "tgn:7000198",
          "tgn:7029392"
        ],
        "placetype": [
          "aat:300007783"
        ],
        "name:en": "Adās Road",
        "id": 7546418
      }
    },
    {
      "geometry": {
        "type": "Point",
        "coordinates": [
          76.233333,
          18.766667
        ]
      },
      "type": "Feature",
      "properties": {
        "hierarchy": [
          "tgn:7546419",
          "tgn:1000004",
          "tgn:7000198",
          "tgn:1001895",
          "tgn:7029392"
        ],
        "placetype": [
          "aat:300008347"
        ],
        "name:en": "Ādas",
        "id": 7546419
      }
    }
  ]
}
