{
  "type": "FeatureCollection",
  "features": [
    {
      "geometry": {
        "type": "Point",
        "coordinates": [
          31.91,
          30.791
        ]
      },
      "type": "Feature",
      "properties": {
        "hierarchy": [
          "tgn:1095650",
          "tgn:7001242",
          "tgn:7016833",
          "tgn:1001113",
          "tgn:7029392"
        ],
        "placetype": [
          "aat:300008347"
        ],
        "name:en": "Qahbūnah",
        "id": 1095650
      }
    },
    {
      "geometry": {
        "type": "Point",
        "coordinates": [
          31.324641,
          31.431633
        ]
      },
      "type": "Feature",
      "properties": {
        "hierarchy": [
          "tgn:1095651",
          "tgn:7001242",
          "tgn:1001059",
          "tgn:7016833",
          "tgn:7029392"
        ],
        "placetype": [
          "aat:300008347"
        ],
        "id": 1095651,
        "name:xx": "Qalabshū"
      }
    },
    {
      "geometry": {
        "type": "Point",
        "coordinates": [
          30.855764,
          29.209895
        ]
      },
      "type": "Feature",
      "properties": {
        "hierarchy": [
          "tgn:1095652",
          "tgn:7001242",
          "tgn:7001105",
          "tgn:7016833",
          "tgn:7029392"
        ],
        "placetype": [
          "aat:300008347"
        ],
        "name:en": "Qalamshāh",
        "id": 1095652
      }
    },
    {
      "geometry": {
        "type": "Point",
        "coordinates": [
          30.832972,
          27.811844
        ]
      },
      "type": "Feature",
      "properties": {
        "hierarchy": [
          "tgn:1095653",
          "tgn:7001242",
          "tgn:7016833",
          "tgn:1001088",
          "tgn:7029392"
        ],
        "placetype": [
          "aat:300008347"
        ],
        "name:en": "Qalandūl",
        "id": 1095653
      }
    },
    {
      "geometry": {
        "type": "Point",
        "coordinates": [
          30.854757,
          31.047194
        ]
      },
      "type": "Feature",
      "properties": {
        "hierarchy": [
          "tgn:1095654",
          "tgn:7001242",
          "tgn:7016833",
          "tgn:1001335",
          "tgn:7029392"
        ],
        "placetype": [
          "aat:300008347"
        ],
        "name:en": "Qallīn",
        "id": 1095654
      }
    },
    {
      "geometry": {
        "type": "Point",
        "coordinates": [
          31.205603,
          30.179219
        ]
      },
      "type": "Feature",
      "properties": {
        "hierarchy": [
          "tgn:1095655",
          "tgn:7001242",
          "tgn:7016833",
          "tgn:1001092",
          "tgn:7029392"
        ],
        "placetype": [
          "aat:300008347",
          "aat:300387218",
          "aat:300008375",
          "aat:300387270"
        ],
        "id": 1095655,
        "name:xx": "Qalyūb"
      }
    },
    {
      "geometry": {
        "type": "Point",
        "coordinates": [
          31.169427,
          29.300468
        ]
      },
      "type": "Feature",
      "properties": {
        "hierarchy": [
          "tgn:1095657",
          "tgn:7001242",
          "tgn:7016833",
          "tgn:1001142",
          "tgn:7029392"
        ],
        "placetype": [
          "aat:300008347"
        ],
        "id": 1095657,
        "name:xx": "Qiman al ʻArūs"
      }
    },
    {
      "geometry": {
        "type": "Point",
        "coordinates": [
          32.72671,
          26.164179
        ]
      },
      "type": "Feature",
      "properties": {
        "hierarchy": [
          "tgn:1095658",
          "tgn:7001242",
          "tgn:7016833",
          "tgn:7000123",
          "tgn:7029392"
        ],
        "placetype": [
          "aat:300008347",
          "aat:300000810",
          "aat:300387220",
          "aat:300008375",
          "aat:300387270",
          "aat:300387285"
        ],
        "id": 1095658,
        "name:xx": "Qinā"
      }
    },
    {
      "geometry": {
        "type": "Point",
        "coordinates": [
          30.95614,
          30.972252
        ]
      },
      "type": "Feature",
      "properties": {
        "hierarchy": [
          "tgn:1095659",
          "tgn:7001242",
          "tgn:7016833",
          "tgn:7001312",
          "tgn:7029392"
        ],
        "placetype": [
          "aat:300008347"
        ],
        "name:en": "Quţūr",
        "id": 1095659
      }
    }
  ]
}
