{
  "type": "FeatureCollection",
  "features": [
    {
      "geometry": {
        "type": "Point",
        "coordinates": [
          34.183852,
          31.158497
        ]
      },
      "type": "Feature",
      "properties": {
        "hierarchy": [
          "tgn:7543520",
          "tgn:7001242",
          "tgn:7016833",
          "tgn:7001335",
          "tgn:7029392"
        ],
        "placetype": [
          "aat:300008347"
        ],
        "name:en": "Abu Zamat",
        "id": 7543520
      }
    },
    {
      "geometry": {
        "type": "Point",
        "coordinates": [
          34.146903,
          31.121323
        ]
      },
      "type": "Feature",
      "properties": {
        "hierarchy": [
          "tgn:7543521",
          "tgn:7001242",
          "tgn:7016833",
          "tgn:7001335",
          "tgn:7029392"
        ],
        "placetype": [
          "aat:300008347"
        ],
        "name:en": "Melafi",
        "id": 7543521
      }
    },
    {
      "geometry": {
        "type": "Point",
        "coordinates": [
          34.160222,
          31.152344
        ]
      },
      "type": "Feature",
      "properties": {
        "hierarchy": [
          "tgn:7543522",
          "tgn:7001242",
          "tgn:7016833",
          "tgn:7001335",
          "tgn:7029392"
        ],
        "placetype": [
          "aat:300008347"
        ],
        "name:en": "Zaheer",
        "id": 7543522
      }
    },
    {
      "geometry": {
        "type": "Point",
        "coordinates": [
          34.090569,
          31.112508
        ]
      },
      "type": "Feature",
      "properties": {
        "hierarchy": [
          "tgn:7543523",
          "tgn:7001242",
          "tgn:7016833",
          "tgn:7001335",
          "tgn:7029392"
        ],
        "placetype": [
          "aat:300008347"
        ],
        "name:en": "El Fitat",
        "id": 7543523
      }
    },
    {
      "geometry": {
        "type": "Point",
        "coordinates": [
          34.036497,
          31.106636
        ]
      },
      "type": "Feature",
      "properties": {
        "hierarchy": [
          "tgn:7543524",
          "tgn:7001242",
          "tgn:7016833",
          "tgn:7001335",
          "tgn:7029392"
        ],
        "placetype": [
          "aat:300055621"
        ],
        "name:en": "El Shadida",
        "id": 7543524
      }
    },
    {
      "geometry": {
        "type": "Point",
        "coordinates": [
          34.029586,
          31.122876
        ]
      },
      "type": "Feature",
      "properties": {
        "hierarchy": [
          "tgn:7543525",
          "tgn:7001242",
          "tgn:7016833",
          "tgn:7029392"
        ],
        "placetype": [
          "aat:300055621"
        ],
        "name:en": "El Agra",
        "id": 7543525
      }
    },
    {
      "geometry": {
        "type": "Point",
        "coordinates": [
          34.0072,
          31.186839
        ]
      },
      "type": "Feature",
      "properties": {
        "hierarchy": [
          "tgn:7543526",
          "tgn:7001242",
          "tgn:7016833",
          "tgn:7001335",
          "tgn:7029392"
        ],
        "placetype": [
          "aat:300008347"
        ],
        "name:en": "Qabrameir",
        "id": 7543526
      }
    },
    {
      "geometry": {
        "type": "Point",
        "coordinates": [
          34.058116,
          31.198371
        ]
      },
      "type": "Feature",
      "properties": {
        "hierarchy": [
          "tgn:7543527",
          "tgn:7001242",
          "tgn:7016833",
          "tgn:7001335",
          "tgn:7029392"
        ],
        "placetype": [
          "aat:300008347"
        ],
        "name:en": "Manaka",
        "id": 7543527
      }
    },
    {
      "geometry": {
        "type": "Point",
        "coordinates": [
          34.078799,
          31.203437
        ]
      },
      "type": "Feature",
      "properties": {
        "hierarchy": [
          "tgn:7543528",
          "tgn:7001242",
          "tgn:7016833",
          "tgn:7001335",
          "tgn:7029392"
        ],
        "placetype": [
          "aat:300008347"
        ],
        "name:en": "Tuma",
        "id": 7543528
      }
    },
    {
      "geometry": {
        "type": "Point",
        "coordinates": [
          34.067334,
          31.208981
        ]
      },
      "type": "Feature",
      "properties": {
        "hierarchy": [
          "tgn:7543529",
          "tgn:7001242",
          "tgn:7016833",
          "tgn:7001335",
          "tgn:7029392"
        ],
        "placetype": [
          "aat:300008347"
        ],
        "name:en": "Shellaq",
        "id": 7543529
      }
    }
  ]
}
