{
  "type": "FeatureCollection",
  "features": [
    {
      "geometry": {
        "type": "Point",
        "coordinates": [
          79.626555,
          27.594815
        ]
      },
      "type": "Feature",
      "properties": {
        "hierarchy": [
          "tgn:7560410",
          "tgn:1000004",
          "tgn:7000198",
          "tgn:7016722",
          "tgn:7029392"
        ],
        "placetype": [
          "aat:300008347"
        ],
        "name:en": "Allānpur",
        "id": 7560410
      }
    },
    {
      "geometry": {
        "type": "Point",
        "coordinates": [
          79.622663,
          27.597315
        ]
      },
      "type": "Feature",
      "properties": {
        "hierarchy": [
          "tgn:7560411",
          "tgn:1000004",
          "tgn:7000198",
          "tgn:7016722",
          "tgn:7029392"
        ],
        "placetype": [
          "aat:300008347"
        ],
        "name:en": "Jhindi Madaiyān",
        "id": 7560411
      }
    },
    {
      "geometry": {
        "type": "Point",
        "coordinates": [
          79.612188,
          27.596304
        ]
      },
      "type": "Feature",
      "properties": {
        "hierarchy": [
          "tgn:7560412",
          "tgn:1000004",
          "tgn:7000198",
          "tgn:7016722",
          "tgn:7029392"
        ],
        "placetype": [
          "aat:300008347"
        ],
        "name:en": "Pāpar",
        "id": 7560412
      }
    },
    {
      "geometry": {
        "type": "Point",
        "coordinates": [
          79.614579,
          27.595667
        ]
      },
      "type": "Feature",
      "properties": {
        "hierarchy": [
          "tgn:7560413",
          "tgn:1000004",
          "tgn:7000198",
          "tgn:7016722",
          "tgn:7029392"
        ],
        "placetype": [
          "aat:300008347"
        ],
        "name:en": "Gangāganj",
        "id": 7560413
      }
    },
    {
      "geometry": {
        "type": "Point",
        "coordinates": [
          79.614892,
          27.599345
        ]
      },
      "type": "Feature",
      "properties": {
        "hierarchy": [
          "tgn:7560414",
          "tgn:1000004",
          "tgn:7000198",
          "tgn:7016722",
          "tgn:7029392"
        ],
        "placetype": [
          "aat:300008347"
        ],
        "name:en": "Ratnāpur Pamārān",
        "id": 7560414
      }
    },
    {
      "geometry": {
        "type": "Point",
        "coordinates": [
          79.619525,
          27.587779
        ]
      },
      "type": "Feature",
      "properties": {
        "hierarchy": [
          "tgn:7560415",
          "tgn:1000004",
          "tgn:7000198",
          "tgn:7016722",
          "tgn:7029392"
        ],
        "placetype": [
          "aat:300008347"
        ],
        "name:en": "Pithnāpur",
        "id": 7560415
      }
    },
    {
      "geometry": {
        "type": "Point",
        "coordinates": [
          79.612628,
          27.586742
        ]
      },
      "type": "Feature",
      "properties": {
        "hierarchy": [
          "tgn:7560416",
          "tgn:1000004",
          "tgn:7000198",
          "tgn:7016722",
          "tgn:7029392"
        ],
        "placetype": [
          "aat:300008347"
        ],
        "name:en": "Konria",
        "id": 7560416
      }
    },
    {
      "geometry": {
        "type": "Point",
        "coordinates": [
          79.588398,
          27.583466
        ]
      },
      "type": "Feature",
      "properties": {
        "hierarchy": [
          "tgn:7560417",
          "tgn:1000004",
          "tgn:7000198",
          "tgn:7016722",
          "tgn:7029392"
        ],
        "placetype": [
          "aat:300008347"
        ],
        "name:en": "Manpura",
        "id": 7560417
      }
    },
    {
      "geometry": {
        "type": "Point",
        "coordinates": [
          79.593613,
          27.590325
        ]
      },
      "type": "Feature",
      "properties": {
        "hierarchy": [
          "tgn:7560418",
          "tgn:1000004",
          "tgn:7000198",
          "tgn:7016722",
          "tgn:7029392"
        ],
        "placetype": [
          "aat:300008347"
        ],
        "name:en": "Rājpur",
        "id": 7560418
      }
    },
    {
      "geometry": {
        "type": "Point",
        "coordinates": [
          79.597027,
          27.592388
        ]
      },
      "type": "Feature",
      "properties": {
        "hierarchy": [
          "tgn:7560419",
          "tgn:1000004",
          "tgn:7000198",
          "tgn:7016722",
          "tgn:7029392"
        ],
        "placetype": [
          "aat:300008347"
        ],
        "name:en": "Gūjarpur Pamārān",
        "id": 7560419
      }
    }
  ]
}
