{
  "type": "FeatureCollection",
  "features": [
    {
      "geometry": {
        "type": "Point",
        "coordinates": [
          120.608611,
          23.077778
        ]
      },
      "type": "Feature",
      "properties": {
        "hierarchy": [
          "tgn:7484520",
          "tgn:7001004",
          "tgn:1000004",
          "tgn:1000141",
          "tgn:7029392"
        ],
        "placetype": [
          "aat:300008347"
        ],
        "id": 7484520,
        "name:xx": "Xiakafei"
      }
    },
    {
      "geometry": {
        "type": "Point",
        "coordinates": [
          120.601944,
          23.084444
        ]
      },
      "type": "Feature",
      "properties": {
        "hierarchy": [
          "tgn:7484521",
          "tgn:7001004",
          "tgn:1000004",
          "tgn:1000141",
          "tgn:7029392"
        ],
        "placetype": [
          "aat:300007595"
        ],
        "id": 7484521,
        "name:xx": "Jigong Miao"
      }
    },
    {
      "geometry": {
        "type": "Point",
        "coordinates": [
          120.591389,
          23.085556
        ]
      },
      "type": "Feature",
      "properties": {
        "hierarchy": [
          "tgn:7484522",
          "tgn:7001004",
          "tgn:1000004",
          "tgn:1000141",
          "tgn:7029392"
        ],
        "placetype": [
          "aat:300008347"
        ],
        "id": 7484522,
        "name:xx": "Zhushanxiang"
      }
    },
    {
      "geometry": {
        "type": "Point",
        "coordinates": [
          120.620556,
          22.399444
        ]
      },
      "type": "Feature",
      "properties": {
        "hierarchy": [
          "tgn:7484523",
          "tgn:1000004",
          "tgn:7492971",
          "tgn:1000141",
          "tgn:7029392"
        ],
        "placetype": [
          "aat:300008699"
        ],
        "id": 7484523,
        "name:xx": "Xinkai Xi"
      }
    },
    {
      "geometry": {
        "type": "Point",
        "coordinates": [
          120.623056,
          22.410833
        ]
      },
      "type": "Feature",
      "properties": {
        "hierarchy": [
          "tgn:7484524",
          "tgn:1000004",
          "tgn:7492971",
          "tgn:1000141",
          "tgn:7029392"
        ],
        "placetype": [
          "aat:300008699"
        ],
        "id": 7484524,
        "name:xx": "Kantou Xi"
      }
    },
    {
      "geometry": {
        "type": "Point",
        "coordinates": [
          120.531667,
          22.443056
        ]
      },
      "type": "Feature",
      "properties": {
        "hierarchy": [
          "tgn:7484525",
          "tgn:1000004",
          "tgn:7492971",
          "tgn:1000141",
          "tgn:7029392"
        ],
        "placetype": [
          "aat:300006156"
        ],
        "id": 7484525,
        "name:xx": "Jiadong Tifang"
      }
    },
    {
      "geometry": {
        "type": "Point",
        "coordinates": [
          120.563056,
          22.415556
        ]
      },
      "type": "Feature",
      "properties": {
        "hierarchy": [
          "tgn:7484526",
          "tgn:1000004",
          "tgn:7492971",
          "tgn:1000141",
          "tgn:7029392"
        ],
        "placetype": [
          "aat:300266755"
        ],
        "id": 7484526,
        "name:xx": "Jiadong Xiang Diyi Gongmu"
      }
    },
    {
      "geometry": {
        "type": "Point",
        "coordinates": [
          120.644167,
          22.431389
        ]
      },
      "type": "Feature",
      "properties": {
        "hierarchy": [
          "tgn:7484527",
          "tgn:1000004",
          "tgn:7492971",
          "tgn:1000141",
          "tgn:7029392"
        ],
        "placetype": [
          "aat:300008699"
        ],
        "id": 7484527,
        "name:xx": "Kabuliwalan Xi"
      }
    },
    {
      "geometry": {
        "type": "Point",
        "coordinates": [
          120.629167,
          22.423056
        ]
      },
      "type": "Feature",
      "properties": {
        "hierarchy": [
          "tgn:7484528",
          "tgn:1000004",
          "tgn:7492971",
          "tgn:1000141",
          "tgn:7029392"
        ],
        "placetype": [
          "aat:300008699"
        ],
        "id": 7484528,
        "name:xx": "Shinan Xi"
      }
    },
    {
      "geometry": {
        "type": "Point",
        "coordinates": [
          120.622222,
          22.411111
        ]
      },
      "type": "Feature",
      "properties": {
        "hierarchy": [
          "tgn:7484529",
          "tgn:1000004",
          "tgn:7492971",
          "tgn:1000141",
          "tgn:7029392"
        ],
        "placetype": [
          "aat:300387032"
        ],
        "id": 7484529,
        "name:xx": "Kuzhu Xi"
      }
    }
  ]
}
