{
  "type": "FeatureCollection",
  "features": [
    {
      "geometry": {
        "type": "Point",
        "coordinates": [
          121.474322,
          25.018619
        ]
      },
      "type": "Feature",
      "properties": {
        "hierarchy": [
          "tgn:7496690",
          "tgn:1000004",
          "tgn:1000454",
          "tgn:1000141",
          "tgn:7029392"
        ],
        "placetype": [
          "aat:300006495"
        ],
        "id": 7496690,
        "name:xx": "Buqian Guoxiao"
      }
    },
    {
      "geometry": {
        "type": "Point",
        "coordinates": [
          121.502326,
          25.026381
        ]
      },
      "type": "Feature",
      "properties": {
        "hierarchy": [
          "tgn:7496691",
          "tgn:1000004",
          "tgn:1000959",
          "tgn:1000141",
          "tgn:7029392"
        ],
        "placetype": [
          "aat:300006495"
        ],
        "id": 7496691,
        "name:xx": "Xinhe Guoxiao"
      }
    },
    {
      "geometry": {
        "type": "Point",
        "coordinates": [
          121.505659,
          25.029665
        ]
      },
      "type": "Feature",
      "properties": {
        "hierarchy": [
          "tgn:7496692",
          "tgn:1000004",
          "tgn:1000959",
          "tgn:1000141",
          "tgn:7029392"
        ],
        "placetype": [
          "aat:300006495"
        ],
        "id": 7496692,
        "name:xx": "Zhongyi Guoxiao"
      }
    },
    {
      "geometry": {
        "type": "Point",
        "coordinates": [
          121.499199,
          25.027207
        ]
      },
      "type": "Feature",
      "properties": {
        "hierarchy": [
          "tgn:7496693",
          "tgn:1000004",
          "tgn:1000959",
          "tgn:1000141",
          "tgn:7029392"
        ],
        "placetype": [
          "aat:300006495"
        ],
        "id": 7496693,
        "name:xx": "Wanhua Guozhong"
      }
    },
    {
      "geometry": {
        "type": "Point",
        "coordinates": [
          121.497334,
          25.027589
        ]
      },
      "type": "Feature",
      "properties": {
        "hierarchy": [
          "tgn:7496694",
          "tgn:1000004",
          "tgn:1000959",
          "tgn:1000141",
          "tgn:7029392"
        ],
        "placetype": [
          "aat:300006495"
        ],
        "id": 7496694,
        "name:xx": "Huajiang"
      }
    },
    {
      "geometry": {
        "type": "Point",
        "coordinates": [
          121.493375,
          25.031128
        ]
      },
      "type": "Feature",
      "properties": {
        "hierarchy": [
          "tgn:7496695",
          "tgn:1000004",
          "tgn:1000959",
          "tgn:1000141",
          "tgn:7029392"
        ],
        "placetype": [
          "aat:300006495"
        ],
        "id": 7496695,
        "name:xx": "Dali Guoxiao"
      }
    },
    {
      "geometry": {
        "type": "Point",
        "coordinates": [
          121.491276,
          25.030374
        ]
      },
      "type": "Feature",
      "properties": {
        "hierarchy": [
          "tgn:7496696",
          "tgn:1000004",
          "tgn:1000959",
          "tgn:1000141",
          "tgn:7029392"
        ],
        "placetype": [
          "aat:300006495"
        ],
        "id": 7496696,
        "name:xx": "Dali Guozhong"
      }
    },
    {
      "geometry": {
        "type": "Point",
        "coordinates": [
          121.468554,
          25.029393
        ]
      },
      "type": "Feature",
      "properties": {
        "hierarchy": [
          "tgn:7496697",
          "tgn:1000004",
          "tgn:1000454",
          "tgn:1000141",
          "tgn:7029392"
        ],
        "placetype": [
          "aat:300006495"
        ],
        "id": 7496697,
        "name:xx": "Jiangcui Guozhong"
      }
    },
    {
      "geometry": {
        "type": "Point",
        "coordinates": [
          121.451165,
          25.034985
        ]
      },
      "type": "Feature",
      "properties": {
        "hierarchy": [
          "tgn:7496698",
          "tgn:1000004",
          "tgn:1000454",
          "tgn:1000141",
          "tgn:7029392"
        ],
        "placetype": [
          "aat:300006495"
        ],
        "id": 7496698,
        "name:xx": "Xinzhuang Guozhong"
      }
    },
    {
      "geometry": {
        "type": "Point",
        "coordinates": [
          121.453753,
          25.037232
        ]
      },
      "type": "Feature",
      "properties": {
        "hierarchy": [
          "tgn:7496699",
          "tgn:1000004",
          "tgn:1000454",
          "tgn:1000141",
          "tgn:7029392"
        ],
        "placetype": [
          "aat:300006495"
        ],
        "id": 7496699,
        "name:xx": "Hengyi Zhongxue"
      }
    }
  ]
}
