{
  "type": "FeatureCollection",
  "features": [
    {
      "geometry": {
        "type": "Point",
        "coordinates": [
          121.913681,
          25.075028
        ]
      },
      "type": "Feature",
      "properties": {
        "hierarchy": [
          "tgn:7476960",
          "tgn:1000004",
          "tgn:1000454",
          "tgn:1000141",
          "tgn:7029392"
        ],
        "placetype": [
          "aat:300008347"
        ],
        "id": 7476960,
        "name:xx": "Shawanzi"
      }
    },
    {
      "geometry": {
        "type": "Point",
        "coordinates": [
          121.916685,
          25.079142
        ]
      },
      "type": "Feature",
      "properties": {
        "hierarchy": [
          "tgn:7476961",
          "tgn:1000004",
          "tgn:1000454",
          "tgn:1000141",
          "tgn:7029392"
        ],
        "placetype": [
          "aat:300008678"
        ],
        "id": 7476961,
        "name:xx": "Wenzi Gang"
      }
    },
    {
      "geometry": {
        "type": "Point",
        "coordinates": [
          121.915229,
          25.09162
        ]
      },
      "type": "Feature",
      "properties": {
        "hierarchy": [
          "tgn:7476962",
          "tgn:1000004",
          "tgn:1000454",
          "tgn:1000141",
          "tgn:7029392"
        ],
        "placetype": [
          "aat:300007595"
        ],
        "id": 7476962,
        "name:xx": "Chang'an Gong"
      }
    },
    {
      "geometry": {
        "type": "Point",
        "coordinates": [
          121.830553,
          25.089373
        ]
      },
      "type": "Feature",
      "properties": {
        "hierarchy": [
          "tgn:7476963",
          "tgn:1000004",
          "tgn:1000454",
          "tgn:1000141",
          "tgn:7029392"
        ],
        "placetype": [
          "aat:300008347"
        ],
        "id": 7476963,
        "name:xx": "Xinsheding"
      }
    },
    {
      "geometry": {
        "type": "Point",
        "coordinates": [
          121.794708,
          25.082907
        ]
      },
      "type": "Feature",
      "properties": {
        "hierarchy": [
          "tgn:7476964",
          "tgn:1000004",
          "tgn:1000454",
          "tgn:1000141",
          "tgn:7029392"
        ],
        "placetype": [
          "aat:300008347"
        ],
        "id": 7476964,
        "name:xx": "Bafenliaoding"
      }
    },
    {
      "geometry": {
        "type": "Point",
        "coordinates": [
          121.7873,
          25.1003
        ]
      },
      "type": "Feature",
      "properties": {
        "hierarchy": [
          "tgn:7476965",
          "tgn:1000004",
          "tgn:1000454",
          "tgn:1000141",
          "tgn:7029392"
        ],
        "placetype": [
          "aat:300387302"
        ],
        "id": 7476965,
        "name:xx": "Ruifang Gongyequ"
      }
    },
    {
      "geometry": {
        "type": "Point",
        "coordinates": [
          121.822465,
          25.101573
        ]
      },
      "type": "Feature",
      "properties": {
        "hierarchy": [
          "tgn:7476966",
          "tgn:1000004",
          "tgn:1000454",
          "tgn:1000141",
          "tgn:7029392"
        ],
        "placetype": [
          "aat:300008347"
        ],
        "id": 7476966,
        "name:xx": "Yuanshan"
      }
    },
    {
      "geometry": {
        "type": "Point",
        "coordinates": [
          121.853217,
          25.094061
        ]
      },
      "type": "Feature",
      "properties": {
        "hierarchy": [
          "tgn:7476967",
          "tgn:1000004",
          "tgn:1000454",
          "tgn:1000141",
          "tgn:7029392"
        ],
        "placetype": [
          "aat:300008347"
        ],
        "id": 7476967,
        "name:xx": "Shumeiping"
      }
    },
    {
      "geometry": {
        "type": "Point",
        "coordinates": [
          121.845034,
          25.104956
        ]
      },
      "type": "Feature",
      "properties": {
        "hierarchy": [
          "tgn:7476968",
          "tgn:1000004",
          "tgn:1000454",
          "tgn:1000141",
          "tgn:7029392"
        ],
        "placetype": [
          "aat:300006495"
        ],
        "id": 7476968,
        "name:xx": "Qinxian Guozhong"
      }
    },
    {
      "geometry": {
        "type": "Point",
        "coordinates": [
          121.841507,
          25.106869
        ]
      },
      "type": "Feature",
      "properties": {
        "hierarchy": [
          "tgn:7476969",
          "tgn:1000004",
          "tgn:1000454",
          "tgn:1000141",
          "tgn:7029392"
        ],
        "placetype": [
          "aat:300008347"
        ],
        "id": 7476969,
        "name:xx": "Daganlin"
      }
    }
  ]
}
