{
  "type": "FeatureCollection",
  "features": [
    {
      "geometry": {
        "type": "Point",
        "coordinates": [
          99.6667,
          6.5833
        ]
      },
      "type": "Feature",
      "properties": {
        "hierarchy": [
          "tgn:1009421",
          "tgn:7593856",
          "tgn:1000004",
          "tgn:1000142",
          "tgn:7029392"
        ],
        "placetype": [
          "aat:300008791"
        ],
        "id": 1009421,
        "name:xx": "Terutao, Ku"
      }
    },
    {
      "geometry": {
        "type": "Point",
        "coordinates": [
          157.55,
          -8.7167
        ]
      },
      "type": "Feature",
      "properties": {
        "hierarchy": [
          "tgn:1009422",
          "tgn:1010171",
          "tgn:1001601",
          "tgn:1000233",
          "tgn:1000006",
          "tgn:7029392"
        ],
        "placetype": [
          "aat:300008791"
        ],
        "id": 1009422,
        "name:xx": "Tetepare Island"
      }
    },
    {
      "geometry": {
        "type": "Point",
        "coordinates": [
          141.3333,
          44.45
        ]
      },
      "type": "Feature",
      "properties": {
        "hierarchy": [
          "tgn:1009424",
          "tgn:1000985",
          "tgn:7016531",
          "tgn:1000004",
          "tgn:1000120",
          "tgn:7029392"
        ],
        "placetype": [
          "aat:300008791"
        ],
        "id": 1009424,
        "name:xx": "Teuri-t≈ç"
      }
    },
    {
      "geometry": {
        "type": "Point",
        "coordinates": [
          -124.4167,
          49.6667
        ]
      },
      "type": "Feature",
      "properties": {
        "hierarchy": [
          "tgn:1009425",
          "tgn:7005735",
          "tgn:7005685",
          "tgn:1000001",
          "tgn:7029392"
        ],
        "placetype": [
          "aat:300008791"
        ],
        "id": 1009425,
        "name:xx": "Texada Island"
      }
    },
    {
      "geometry": {
        "type": "Point",
        "coordinates": [
          4.833333,
          53.083333
        ]
      },
      "type": "Feature",
      "properties": {
        "hierarchy": [
          "tgn:1009426",
          "tgn:1000003",
          "tgn:7006951",
          "tgn:7016845",
          "tgn:7029392"
        ],
        "placetype": [
          "aat:300008791"
        ],
        "name:nl": "Texel",
        "id": 1009426
      }
    },
    {
      "geometry": {
        "type": "Point",
        "coordinates": [
          -70.5667,
          42.6333
        ]
      },
      "type": "Feature",
      "properties": {
        "hierarchy": [
          "tgn:1009429",
          "tgn:1000001",
          "tgn:1002359",
          "tgn:7012149",
          "tgn:7007517",
          "tgn:7029392"
        ],
        "placetype": [
          "aat:300008791"
        ],
        "id": 1009429,
        "name:xx": "Thacher Island"
      }
    }
  ]
}
