{
  "type": "FeatureCollection",
  "features": [
    {
      "geometry": {
        "type": "Point",
        "coordinates": [
          120.486572,
          23.111139
        ]
      },
      "type": "Feature",
      "properties": {
        "hierarchy": [
          "tgn:7479570",
          "tgn:1000004",
          "tgn:7490934",
          "tgn:1000141",
          "tgn:7029392"
        ],
        "placetype": [
          "aat:300008347"
        ],
        "id": 7479570,
        "name:xx": "Gongyuanzi"
      }
    },
    {
      "geometry": {
        "type": "Point",
        "coordinates": [
          120.482779,
          23.111021
        ]
      },
      "type": "Feature",
      "properties": {
        "hierarchy": [
          "tgn:7479571",
          "tgn:1000004",
          "tgn:7490934",
          "tgn:1000141",
          "tgn:7029392"
        ],
        "placetype": [
          "aat:300008347"
        ],
        "id": 7479571,
        "name:xx": "Fanzipi"
      }
    },
    {
      "geometry": {
        "type": "Point",
        "coordinates": [
          120.461,
          23.121361
        ]
      },
      "type": "Feature",
      "properties": {
        "hierarchy": [
          "tgn:7479573",
          "tgn:1000004",
          "tgn:7490934",
          "tgn:1000141",
          "tgn:7029392"
        ],
        "placetype": [
          "aat:300006495"
        ],
        "id": 7479573,
        "name:xx": "Yujing Gongshang"
      }
    },
    {
      "geometry": {
        "type": "Point",
        "coordinates": [
          120.470154,
          23.124126
        ]
      },
      "type": "Feature",
      "properties": {
        "hierarchy": [
          "tgn:7479574",
          "tgn:1000004",
          "tgn:7490934",
          "tgn:1000141",
          "tgn:7029392"
        ],
        "placetype": [
          "aat:300006495"
        ],
        "id": 7479574,
        "name:xx": "Yujing Guozhong"
      }
    },
    {
      "geometry": {
        "type": "Point",
        "coordinates": [
          120.492775,
          23.121644
        ]
      },
      "type": "Feature",
      "properties": {
        "hierarchy": [
          "tgn:7479576",
          "tgn:1000004",
          "tgn:7490934",
          "tgn:1000141",
          "tgn:7029392"
        ],
        "placetype": [
          "aat:300007595"
        ],
        "id": 7479576,
        "name:xx": "Yuxian Gong"
      }
    },
    {
      "geometry": {
        "type": "Point",
        "coordinates": [
          120.496011,
          23.133952
        ]
      },
      "type": "Feature",
      "properties": {
        "hierarchy": [
          "tgn:7479577",
          "tgn:1000004",
          "tgn:7490934",
          "tgn:1000141",
          "tgn:7029392"
        ],
        "placetype": [
          "aat:300007595"
        ],
        "id": 7479577,
        "name:xx": "Shennong Miao"
      }
    },
    {
      "geometry": {
        "type": "Point",
        "coordinates": [
          120.467648,
          23.129594
        ]
      },
      "type": "Feature",
      "properties": {
        "hierarchy": [
          "tgn:7479578",
          "tgn:1000004",
          "tgn:7490934",
          "tgn:1000141",
          "tgn:7029392"
        ],
        "placetype": [
          "aat:300008347"
        ],
        "id": 7479578,
        "name:xx": "Houdan"
      }
    },
    {
      "geometry": {
        "type": "Point",
        "coordinates": [
          120.478426,
          23.134554
        ]
      },
      "type": "Feature",
      "properties": {
        "hierarchy": [
          "tgn:7479579",
          "tgn:1000004",
          "tgn:7490934",
          "tgn:1000141",
          "tgn:7029392"
        ],
        "placetype": [
          "aat:300008347"
        ],
        "id": 7479579,
        "name:xx": "Xiashanjiao"
      }
    }
  ]
}
