{
  "type": "FeatureCollection",
  "features": [
    {
      "geometry": {
        "type": "Point",
        "coordinates": [
          121.632532,
          24.426869
        ]
      },
      "type": "Feature",
      "properties": {
        "hierarchy": [
          "tgn:7480380",
          "tgn:1000004",
          "tgn:7489179",
          "tgn:1000141",
          "tgn:7029392"
        ],
        "placetype": [
          "aat:300008699"
        ],
        "id": 7480380,
        "name:xx": "Liuxing Xi"
      }
    },
    {
      "geometry": {
        "type": "Point",
        "coordinates": [
          121.740425,
          24.269749
        ]
      },
      "type": "Feature",
      "properties": {
        "hierarchy": [
          "tgn:7480381",
          "tgn:7001010",
          "tgn:1000004",
          "tgn:1000141",
          "tgn:7029392"
        ],
        "placetype": [
          "aat:300007466"
        ],
        "id": 7480381,
        "name:xx": "Hezhong Jiaohui"
      }
    },
    {
      "geometry": {
        "type": "Point",
        "coordinates": [
          121.739059,
          24.328166
        ]
      },
      "type": "Feature",
      "properties": {
        "hierarchy": [
          "tgn:7480382",
          "tgn:1000004",
          "tgn:7489179",
          "tgn:1000141",
          "tgn:7029392"
        ],
        "placetype": [
          "aat:300006495"
        ],
        "id": 7480382,
        "name:xx": "Aohua Guoxiao"
      }
    },
    {
      "geometry": {
        "type": "Point",
        "coordinates": [
          121.741171,
          24.32997
        ]
      },
      "type": "Feature",
      "properties": {
        "hierarchy": [
          "tgn:7480383",
          "tgn:1000004",
          "tgn:7489179",
          "tgn:1000141",
          "tgn:7029392"
        ],
        "placetype": [
          "aat:300007836"
        ],
        "id": 7480383,
        "name:xx": "Aohua Qiao"
      }
    },
    {
      "geometry": {
        "type": "Point",
        "coordinates": [
          121.741121,
          24.326638
        ]
      },
      "type": "Feature",
      "properties": {
        "hierarchy": [
          "tgn:7480384",
          "tgn:1000004",
          "tgn:7489179",
          "tgn:1000141",
          "tgn:7029392"
        ],
        "placetype": [
          "aat:300008699"
        ],
        "id": 7480384,
        "name:xx": "Aohua Xi"
      }
    },
    {
      "geometry": {
        "type": "Point",
        "coordinates": [
          121.733052,
          24.35068
        ]
      },
      "type": "Feature",
      "properties": {
        "hierarchy": [
          "tgn:7480385",
          "tgn:1000004",
          "tgn:7489179",
          "tgn:1000141",
          "tgn:7029392"
        ],
        "placetype": [
          "aat:300008699"
        ],
        "id": 7480385,
        "name:xx": "Feng Xi"
      }
    },
    {
      "geometry": {
        "type": "Point",
        "coordinates": [
          121.748386,
          24.439205
        ]
      },
      "type": "Feature",
      "properties": {
        "hierarchy": [
          "tgn:7480386",
          "tgn:1000004",
          "tgn:7489179",
          "tgn:1000141",
          "tgn:7029392"
        ],
        "placetype": [
          "aat:300008699"
        ],
        "id": 7480386,
        "name:xx": "Dameihan Xi"
      }
    },
    {
      "geometry": {
        "type": "Point",
        "coordinates": [
          121.74085,
          24.266297
        ]
      },
      "type": "Feature",
      "properties": {
        "hierarchy": [
          "tgn:7480387",
          "tgn:7001010",
          "tgn:1000004",
          "tgn:1000141",
          "tgn:7029392"
        ],
        "placetype": [
          "aat:300006495"
        ],
        "id": 7480387,
        "name:xx": "Heping Guoxiao Fenxiao"
      }
    },
    {
      "geometry": {
        "type": "Point",
        "coordinates": [
          121.739849,
          24.265313
        ]
      },
      "type": "Feature",
      "properties": {
        "hierarchy": [
          "tgn:7480388",
          "tgn:7001010",
          "tgn:1000004",
          "tgn:1000141",
          "tgn:7029392"
        ],
        "placetype": [
          "aat:300007836"
        ],
        "id": 7480388,
        "name:xx": "Heping Qiao"
      }
    },
    {
      "geometry": {
        "type": "Point",
        "coordinates": [
          121.748043,
          24.324772
        ]
      },
      "type": "Feature",
      "properties": {
        "hierarchy": [
          "tgn:7480389",
          "tgn:1000004",
          "tgn:7489179",
          "tgn:1000141",
          "tgn:7029392"
        ],
        "placetype": [
          "aat:300007899"
        ],
        "id": 7480389,
        "name:xx": "Hanben Suidao"
      }
    }
  ]
}
