{
  "type": "FeatureCollection",
  "features": [
    {
      "geometry": {
        "type": "Point",
        "coordinates": [
          120.323743,
          23.076661
        ]
      },
      "type": "Feature",
      "properties": {
        "hierarchy": [
          "tgn:7492580",
          "tgn:1000004",
          "tgn:7490934",
          "tgn:1000141",
          "tgn:7029392"
        ],
        "placetype": [
          "aat:300008347"
        ],
        "id": 7492580,
        "name:xx": "Tanding"
      }
    },
    {
      "geometry": {
        "type": "Point",
        "coordinates": [
          120.362222,
          23.391667
        ]
      },
      "type": "Feature",
      "properties": {
        "hierarchy": [
          "tgn:7492581",
          "tgn:1000004",
          "tgn:7490934",
          "tgn:1000141",
          "tgn:7029392"
        ],
        "placetype": [
          "aat:300008347"
        ],
        "id": 7492581,
        "name:xx": "Tandihu"
      }
    },
    {
      "geometry": {
        "type": "Point",
        "coordinates": [
          121.419535,
          25.001956
        ]
      },
      "type": "Feature",
      "properties": {
        "hierarchy": [
          "tgn:7492582",
          "tgn:1000004",
          "tgn:1000454",
          "tgn:1000141",
          "tgn:7029392"
        ],
        "placetype": [
          "aat:300008347"
        ],
        "id": 7492582,
        "name:xx": "Tandi"
      }
    },
    {
      "geometry": {
        "type": "Point",
        "coordinates": [
          120.455985,
          23.591974
        ]
      },
      "type": "Feature",
      "properties": {
        "hierarchy": [
          "tgn:7492583",
          "tgn:7468018",
          "tgn:1000004",
          "tgn:1000141",
          "tgn:7029392"
        ],
        "placetype": [
          "aat:300008347"
        ],
        "id": 7492583,
        "name:xx": "Tandi"
      }
    },
    {
      "geometry": {
        "type": "Point",
        "coordinates": [
          121.212222,
          24.788611
        ]
      },
      "type": "Feature",
      "properties": {
        "hierarchy": [
          "tgn:7492584",
          "tgn:1000004",
          "tgn:7471332",
          "tgn:1000141",
          "tgn:7029392"
        ],
        "placetype": [
          "aat:300008347"
        ],
        "id": 7492584,
        "name:xx": "Siliao"
      }
    },
    {
      "geometry": {
        "type": "Point",
        "coordinates": [
          121.431389,
          24.6475
        ]
      },
      "type": "Feature",
      "properties": {
        "hierarchy": [
          "tgn:7492585",
          "tgn:1000004",
          "tgn:7001013",
          "tgn:1000141",
          "tgn:7029392"
        ],
        "placetype": [
          "aat:300008347"
        ],
        "id": 7492585,
        "name:xx": "Sileng"
      }
    },
    {
      "geometry": {
        "type": "Point",
        "coordinates": [
          120.773056,
          23.139444
        ]
      },
      "type": "Feature",
      "properties": {
        "hierarchy": [
          "tgn:7492586",
          "tgn:7001004",
          "tgn:1000004",
          "tgn:1000141",
          "tgn:7029392"
        ],
        "placetype": [
          "aat:300008798"
        ],
        "id": 7492586,
        "name:xx": "Silabaku Shan"
      }
    },
    {
      "geometry": {
        "type": "Point",
        "coordinates": [
          120.439444,
          23.334167
        ]
      },
      "type": "Feature",
      "properties": {
        "hierarchy": [
          "tgn:7492587",
          "tgn:1000004",
          "tgn:7490934",
          "tgn:1000141",
          "tgn:7029392"
        ],
        "placetype": [
          "aat:300008347"
        ],
        "id": 7492587,
        "name:xx": "Shanziding"
      }
    },
    {
      "geometry": {
        "type": "Point",
        "coordinates": [
          120.255556,
          22.642778
        ]
      },
      "type": "Feature",
      "properties": {
        "hierarchy": [
          "tgn:7492588",
          "tgn:7001004",
          "tgn:1000004",
          "tgn:1000141",
          "tgn:7029392"
        ],
        "placetype": [
          "aat:300008347"
        ],
        "id": 7492588,
        "name:xx": "Shanding"
      }
    },
    {
      "geometry": {
        "type": "Point",
        "coordinates": [
          121.340086,
          24.985068
        ]
      },
      "type": "Feature",
      "properties": {
        "hierarchy": [
          "tgn:7492589",
          "tgn:1000004",
          "tgn:7001013",
          "tgn:1000141",
          "tgn:7029392"
        ],
        "placetype": [
          "aat:300008777"
        ],
        "id": 7492589,
        "name:xx": "Shanziding"
      }
    }
  ]
}
