{
  "type": "FeatureCollection",
  "features": [
    {
      "geometry": {
        "type": "Point",
        "coordinates": [
          74.540368,
          32.797172
        ]
      },
      "type": "Feature",
      "properties": {
        "hierarchy": [
          "tgn:7592160",
          "tgn:1000004",
          "tgn:7000198",
          "tgn:7000799",
          "tgn:7029392"
        ],
        "placetype": [
          "aat:300008347"
        ],
        "name:en": "Dateāl",
        "id": 7592160
      }
    },
    {
      "geometry": {
        "type": "Point",
        "coordinates": [
          74.535603,
          32.794686
        ]
      },
      "type": "Feature",
      "properties": {
        "hierarchy": [
          "tgn:7592161",
          "tgn:1000004",
          "tgn:7000198",
          "tgn:7000799",
          "tgn:7029392"
        ],
        "placetype": [
          "aat:300008347"
        ],
        "name:en": "Bhopur",
        "id": 7592161
      }
    },
    {
      "geometry": {
        "type": "Point",
        "coordinates": [
          74.548402,
          32.77936
        ]
      },
      "type": "Feature",
      "properties": {
        "hierarchy": [
          "tgn:7592162",
          "tgn:1000004",
          "tgn:7000198",
          "tgn:7000799",
          "tgn:7029392"
        ],
        "placetype": [
          "aat:300008347"
        ],
        "name:en": "Gajrāl",
        "id": 7592162
      }
    },
    {
      "geometry": {
        "type": "Point",
        "coordinates": [
          74.558333,
          32.783333
        ]
      },
      "type": "Feature",
      "properties": {
        "hierarchy": [
          "tgn:7592163",
          "tgn:1000004",
          "tgn:7000198",
          "tgn:7000799",
          "tgn:7029392"
        ],
        "placetype": [
          "aat:300167671"
        ],
        "name:en": "Kotli Manhāsān",
        "id": 7592163
      }
    },
    {
      "geometry": {
        "type": "Point",
        "coordinates": [
          74.579167,
          32.795833
        ]
      },
      "type": "Feature",
      "properties": {
        "hierarchy": [
          "tgn:7592164",
          "tgn:1000004",
          "tgn:7000198",
          "tgn:7000799",
          "tgn:7029392"
        ],
        "placetype": [
          "aat:300008347"
        ],
        "name:en": "Kulle",
        "id": 7592164
      }
    },
    {
      "geometry": {
        "type": "Point",
        "coordinates": [
          74.578723,
          32.806358
        ]
      },
      "type": "Feature",
      "properties": {
        "hierarchy": [
          "tgn:7592165",
          "tgn:1000004",
          "tgn:7000198",
          "tgn:7000799",
          "tgn:7029392"
        ],
        "placetype": [
          "aat:300008347"
        ],
        "name:en": "Indri",
        "id": 7592165
      }
    },
    {
      "geometry": {
        "type": "Point",
        "coordinates": [
          74.562248,
          32.807094
        ]
      },
      "type": "Feature",
      "properties": {
        "hierarchy": [
          "tgn:7592166",
          "tgn:1000004",
          "tgn:7000198",
          "tgn:7000799",
          "tgn:7029392"
        ],
        "placetype": [
          "aat:300008347"
        ],
        "name:en": "Bakor",
        "id": 7592166
      }
    },
    {
      "geometry": {
        "type": "Point",
        "coordinates": [
          74.575137,
          32.815547
        ]
      },
      "type": "Feature",
      "properties": {
        "hierarchy": [
          "tgn:7592167",
          "tgn:1000004",
          "tgn:7000198",
          "tgn:7000799",
          "tgn:7029392"
        ],
        "placetype": [
          "aat:300008347"
        ],
        "name:en": "Mān Chak",
        "id": 7592167
      }
    },
    {
      "geometry": {
        "type": "Point",
        "coordinates": [
          74.563204,
          32.821087
        ]
      },
      "type": "Feature",
      "properties": {
        "hierarchy": [
          "tgn:7592168",
          "tgn:1000004",
          "tgn:7000198",
          "tgn:7000799",
          "tgn:7029392"
        ],
        "placetype": [
          "aat:300008347"
        ],
        "name:en": "Dadora",
        "id": 7592168
      }
    },
    {
      "geometry": {
        "type": "Point",
        "coordinates": [
          74.561077,
          32.817936
        ]
      },
      "type": "Feature",
      "properties": {
        "hierarchy": [
          "tgn:7592169",
          "tgn:1000004",
          "tgn:7000198",
          "tgn:7000799",
          "tgn:7029392"
        ],
        "placetype": [
          "aat:300008347"
        ],
        "name:en": "Dhon Chak",
        "id": 7592169
      }
    }
  ]
}
