{
  "type": "FeatureCollection",
  "features": [
    {
      "geometry": {
        "type": "Point",
        "coordinates": [
          33.584438,
          28.940132
        ]
      },
      "type": "Feature",
      "properties": {
        "hierarchy": [
          "tgn:7529670",
          "tgn:7001242",
          "tgn:7016833",
          "tgn:7001336",
          "tgn:7029392"
        ],
        "placetype": [
          "aat:300008795"
        ],
        "name:en": "Marḩah, Jabal",
        "id": 7529670
      }
    },
    {
      "geometry": {
        "type": "Point",
        "coordinates": [
          33.564972,
          28.96535
        ]
      },
      "type": "Feature",
      "properties": {
        "hierarchy": [
          "tgn:7529671",
          "tgn:7001242",
          "tgn:7016833",
          "tgn:7001336",
          "tgn:7029392"
        ],
        "placetype": [
          "aat:300008795"
        ],
        "name:en": "Ḩutaymī, Jabal",
        "id": 7529671
      }
    },
    {
      "geometry": {
        "type": "Point",
        "coordinates": [
          33.765,
          28.766667
        ]
      },
      "type": "Feature",
      "properties": {
        "hierarchy": [
          "tgn:7529672",
          "tgn:7001242",
          "tgn:7016833",
          "tgn:7001336",
          "tgn:7029392"
        ],
        "placetype": [
          "aat:300005926"
        ],
        "name:en": "Ash Shaykh Abū Nujaymah",
        "id": 7529672
      }
    },
    {
      "geometry": {
        "type": "Point",
        "coordinates": [
          33.75853,
          28.783438
        ]
      },
      "type": "Feature",
      "properties": {
        "hierarchy": [
          "tgn:7529673",
          "tgn:7001242",
          "tgn:7016833",
          "tgn:7001336",
          "tgn:7029392"
        ],
        "placetype": [
          "aat:300008795"
        ],
        "name:en": "Ḩamrah, Jabal",
        "id": 7529673
      }
    },
    {
      "geometry": {
        "type": "Point",
        "coordinates": [
          33.581682,
          28.949352
        ]
      },
      "type": "Feature",
      "properties": {
        "hierarchy": [
          "tgn:7529674",
          "tgn:7001242",
          "tgn:7016833",
          "tgn:7001336",
          "tgn:7029392"
        ],
        "placetype": [
          "aat:300379998"
        ],
        "name:en": "Ţayyibah, Wādī",
        "id": 7529674
      }
    },
    {
      "geometry": {
        "type": "Point",
        "coordinates": [
          33.583031,
          28.87438
        ]
      },
      "type": "Feature",
      "properties": {
        "hierarchy": [
          "tgn:7529675",
          "tgn:7001242",
          "tgn:7016833",
          "tgn:7001336",
          "tgn:7029392"
        ],
        "placetype": [
          "aat:300008795"
        ],
        "name:en": "Abū Ţurayfīyah, Jabal",
        "id": 7529675
      }
    },
    {
      "geometry": {
        "type": "Point",
        "coordinates": [
          33.556944,
          28.914167
        ]
      },
      "type": "Feature",
      "properties": {
        "hierarchy": [
          "tgn:7529676",
          "tgn:7001242",
          "tgn:7016833",
          "tgn:7001336",
          "tgn:7029392"
        ],
        "placetype": [
          "aat:300008777"
        ],
        "name:en": "Al Quwayr",
        "id": 7529676
      }
    },
    {
      "geometry": {
        "type": "Point",
        "coordinates": [
          33.560803,
          28.911312
        ]
      },
      "type": "Feature",
      "properties": {
        "hierarchy": [
          "tgn:7529677",
          "tgn:7001242",
          "tgn:7016833",
          "tgn:7001336",
          "tgn:7029392"
        ],
        "placetype": [
          "aat:300008795"
        ],
        "name:en": "Umm Raḑīm, Jabal",
        "id": 7529677
      }
    },
    {
      "geometry": {
        "type": "Point",
        "coordinates": [
          33.517293,
          28.841402
        ]
      },
      "type": "Feature",
      "properties": {
        "hierarchy": [
          "tgn:7529678",
          "tgn:7001242",
          "tgn:7016833",
          "tgn:7001336",
          "tgn:7029392"
        ],
        "placetype": [
          "aat:300379998"
        ],
        "name:en": "Tibīq, Wādī",
        "id": 7529678
      }
    },
    {
      "geometry": {
        "type": "Point",
        "coordinates": [
          33.657472,
          28.863112
        ]
      },
      "type": "Feature",
      "properties": {
        "hierarchy": [
          "tgn:7529679",
          "tgn:7001242",
          "tgn:7016833",
          "tgn:7001336",
          "tgn:7029392"
        ],
        "placetype": [
          "aat:300379998"
        ],
        "name:en": "Līwah, Wādī",
        "id": 7529679
      }
    }
  ]
}
