{
  "type": "FeatureCollection",
  "features": [
    {
      "geometry": {
        "type": "Point",
        "coordinates": [
          76.160427,
          30.506812
        ]
      },
      "type": "Feature",
      "properties": {
        "hierarchy": [
          "tgn:7583820",
          "tgn:1000004",
          "tgn:7000198",
          "tgn:7016883",
          "tgn:7029392"
        ],
        "placetype": [
          "aat:300008347"
        ],
        "name:en": "Kālsana",
        "id": 7583820
      }
    },
    {
      "geometry": {
        "type": "Point",
        "coordinates": [
          76.16827,
          30.510101
        ]
      },
      "type": "Feature",
      "properties": {
        "hierarchy": [
          "tgn:7583821",
          "tgn:1000004",
          "tgn:7000198",
          "tgn:7016883",
          "tgn:7029392"
        ],
        "placetype": [
          "aat:300008347"
        ],
        "name:en": "Gobindpura",
        "id": 7583821
      }
    },
    {
      "geometry": {
        "type": "Point",
        "coordinates": [
          76.194516,
          30.557242
        ]
      },
      "type": "Feature",
      "properties": {
        "hierarchy": [
          "tgn:7583822",
          "tgn:1000004",
          "tgn:7000198",
          "tgn:7016883",
          "tgn:7029392"
        ],
        "placetype": [
          "aat:300008347"
        ],
        "name:en": "Baraichān",
        "id": 7583822
      }
    },
    {
      "geometry": {
        "type": "Point",
        "coordinates": [
          76.198561,
          30.581528
        ]
      },
      "type": "Feature",
      "properties": {
        "hierarchy": [
          "tgn:7583823",
          "tgn:1000004",
          "tgn:7000198",
          "tgn:7016883",
          "tgn:7029392"
        ],
        "placetype": [
          "aat:300008347"
        ],
        "name:en": "Bhanbriān",
        "id": 7583823
      }
    },
    {
      "geometry": {
        "type": "Point",
        "coordinates": [
          76.18262,
          30.557663
        ]
      },
      "type": "Feature",
      "properties": {
        "hierarchy": [
          "tgn:7583824",
          "tgn:1000004",
          "tgn:7000198",
          "tgn:7016883",
          "tgn:7029392"
        ],
        "placetype": [
          "aat:300006075"
        ],
        "name:en": "Harīpur Sub Minor",
        "id": 7583824
      }
    },
    {
      "geometry": {
        "type": "Point",
        "coordinates": [
          76.225142,
          30.57337
        ]
      },
      "type": "Feature",
      "properties": {
        "hierarchy": [
          "tgn:7583825",
          "tgn:1000004",
          "tgn:7000198",
          "tgn:7016883",
          "tgn:7029392"
        ],
        "placetype": [
          "aat:300008347"
        ],
        "name:en": "Nūrpura",
        "id": 7583825
      }
    },
    {
      "geometry": {
        "type": "Point",
        "coordinates": [
          76.216264,
          30.566775
        ]
      },
      "type": "Feature",
      "properties": {
        "hierarchy": [
          "tgn:7583826",
          "tgn:1000004",
          "tgn:7000198",
          "tgn:7016883",
          "tgn:7029392"
        ],
        "placetype": [
          "aat:300008347"
        ],
        "name:en": "Alipur Jalāl",
        "id": 7583826
      }
    },
    {
      "geometry": {
        "type": "Point",
        "coordinates": [
          76.207818,
          30.564445
        ]
      },
      "type": "Feature",
      "properties": {
        "hierarchy": [
          "tgn:7583827",
          "tgn:1000004",
          "tgn:7000198",
          "tgn:7016883",
          "tgn:7029392"
        ],
        "placetype": [
          "aat:300008347"
        ],
        "name:en": "Bhatton",
        "id": 7583827
      }
    },
    {
      "geometry": {
        "type": "Point",
        "coordinates": [
          76.222974,
          30.55892
        ]
      },
      "type": "Feature",
      "properties": {
        "hierarchy": [
          "tgn:7583828",
          "tgn:1000004",
          "tgn:7000198",
          "tgn:7016883",
          "tgn:7029392"
        ],
        "placetype": [
          "aat:300008347"
        ],
        "name:en": "Akālgarh",
        "id": 7583828
      }
    },
    {
      "geometry": {
        "type": "Point",
        "coordinates": [
          76.246,
          30.561926
        ]
      },
      "type": "Feature",
      "properties": {
        "hierarchy": [
          "tgn:7583829",
          "tgn:1000004",
          "tgn:7000198",
          "tgn:7016883",
          "tgn:7029392"
        ],
        "placetype": [
          "aat:300008347"
        ],
        "name:en": "Bhagwānpura",
        "id": 7583829
      }
    }
  ]
}
