{
  "type": "FeatureCollection",
  "features": [
    {
      "geometry": {
        "type": "Point",
        "coordinates": [
          76.35,
          34.655556
        ]
      },
      "type": "Feature",
      "properties": {
        "hierarchy": [
          "tgn:7589740",
          "tgn:1000004",
          "tgn:7000198",
          "tgn:7000799",
          "tgn:7029392"
        ],
        "placetype": [
          "aat:300007836"
        ],
        "name:en": "Soman Bridge",
        "id": 7589740
      }
    },
    {
      "geometry": {
        "type": "Point",
        "coordinates": [
          76.34695,
          34.659711
        ]
      },
      "type": "Feature",
      "properties": {
        "hierarchy": [
          "tgn:7589741",
          "tgn:1000004",
          "tgn:7000198",
          "tgn:7000799",
          "tgn:7029392"
        ],
        "placetype": [
          "aat:300008347"
        ],
        "name:en": "Damgul",
        "id": 7589741
      }
    },
    {
      "geometry": {
        "type": "Point",
        "coordinates": [
          76.338889,
          34.6625
        ]
      },
      "type": "Feature",
      "properties": {
        "hierarchy": [
          "tgn:7589742",
          "tgn:1000004",
          "tgn:7000198",
          "tgn:7000799",
          "tgn:7029392"
        ],
        "placetype": [
          "aat:300008347"
        ],
        "name:en": "Grugurdo",
        "id": 7589742
      }
    },
    {
      "geometry": {
        "type": "Point",
        "coordinates": [
          76.343056,
          34.658333
        ]
      },
      "type": "Feature",
      "properties": {
        "hierarchy": [
          "tgn:7589743",
          "tgn:1000004",
          "tgn:7000198",
          "tgn:7000799",
          "tgn:7029392"
        ],
        "placetype": [
          "aat:300008347"
        ],
        "name:en": "Yogmāthāng",
        "id": 7589743
      }
    },
    {
      "geometry": {
        "type": "Point",
        "coordinates": [
          76.344444,
          34.654167
        ]
      },
      "type": "Feature",
      "properties": {
        "hierarchy": [
          "tgn:7589744",
          "tgn:1000004",
          "tgn:7000198",
          "tgn:7000799",
          "tgn:7029392"
        ],
        "placetype": [
          "aat:300008347"
        ],
        "name:en": "Sachik",
        "id": 7589744
      }
    },
    {
      "geometry": {
        "type": "Point",
        "coordinates": [
          76.341667,
          34.656944
        ]
      },
      "type": "Feature",
      "properties": {
        "hierarchy": [
          "tgn:7589745",
          "tgn:1000004",
          "tgn:7000198",
          "tgn:7000799",
          "tgn:7029392"
        ],
        "placetype": [
          "aat:300008347"
        ],
        "name:en": "Batālik",
        "id": 7589745
      }
    },
    {
      "geometry": {
        "type": "Point",
        "coordinates": [
          76.291667,
          34.654167
        ]
      },
      "type": "Feature",
      "properties": {
        "hierarchy": [
          "tgn:7589746",
          "tgn:1000004",
          "tgn:7000198",
          "tgn:7000799",
          "tgn:7029392"
        ],
        "placetype": [
          "aat:300008347"
        ],
        "name:en": "Sarche",
        "id": 7589746
      }
    },
    {
      "geometry": {
        "type": "Point",
        "coordinates": [
          76.446974,
          34.633526
        ]
      },
      "type": "Feature",
      "properties": {
        "hierarchy": [
          "tgn:7589747",
          "tgn:1000004",
          "tgn:7000198",
          "tgn:7000799",
          "tgn:7029392"
        ],
        "placetype": [
          "aat:300008347"
        ],
        "name:en": "Garkhun",
        "id": 7589747
      }
    },
    {
      "geometry": {
        "type": "Point",
        "coordinates": [
          76.416667,
          34.6375
        ]
      },
      "type": "Feature",
      "properties": {
        "hierarchy": [
          "tgn:7589748",
          "tgn:1000004",
          "tgn:7000198",
          "tgn:7000799",
          "tgn:7029392"
        ],
        "placetype": [
          "aat:300008347"
        ],
        "name:en": "Chorten",
        "id": 7589748
      }
    },
    {
      "geometry": {
        "type": "Point",
        "coordinates": [
          76.384722,
          34.634722
        ]
      },
      "type": "Feature",
      "properties": {
        "hierarchy": [
          "tgn:7589749",
          "tgn:1000004",
          "tgn:7000198",
          "tgn:7000799",
          "tgn:7029392"
        ],
        "placetype": [
          "aat:300008347"
        ],
        "name:en": "Gampa",
        "id": 7589749
      }
    }
  ]
}
