{
  "type": "FeatureCollection",
  "features": [
    {
      "geometry": {
        "type": "Point",
        "coordinates": [
          83.303968,
          25.672661
        ]
      },
      "type": "Feature",
      "properties": {
        "hierarchy": [
          "tgn:7556270",
          "tgn:1000004",
          "tgn:7000198",
          "tgn:7016722",
          "tgn:7029392"
        ],
        "placetype": [
          "aat:300008347"
        ],
        "name:en": "Sādāt",
        "id": 7556270
      }
    },
    {
      "geometry": {
        "type": "Point",
        "coordinates": [
          74.083333,
          14.866667
        ]
      },
      "type": "Feature",
      "properties": {
        "hierarchy": [
          "tgn:7556271",
          "tgn:1000004",
          "tgn:7018318",
          "tgn:7000198",
          "tgn:7029392"
        ],
        "placetype": [
          "aat:300132316"
        ],
        "name:en": "Sadāshivgarh Bay",
        "id": 7556271
      }
    },
    {
      "geometry": {
        "type": "Point",
        "coordinates": [
          74.116667,
          14.85
        ]
      },
      "type": "Feature",
      "properties": {
        "hierarchy": [
          "tgn:7556272",
          "tgn:1000004",
          "tgn:7000198",
          "tgn:1001882",
          "tgn:7029392"
        ],
        "placetype": [
          "aat:300008347"
        ],
        "name:en": "Sadāshivgarh",
        "id": 7556272
      }
    },
    {
      "geometry": {
        "type": "Point",
        "coordinates": [
          77.95,
          17.616667
        ]
      },
      "type": "Feature",
      "properties": {
        "hierarchy": [
          "tgn:7556273",
          "tgn:1001828",
          "tgn:1000004",
          "tgn:7000198",
          "tgn:7029392"
        ],
        "placetype": [
          "aat:300008347"
        ],
        "name:en": "Sadāseopet",
        "id": 7556273
      }
    },
    {
      "geometry": {
        "type": "Point",
        "coordinates": [
          73.776941,
          27.795347
        ]
      },
      "type": "Feature",
      "properties": {
        "hierarchy": [
          "tgn:7556274",
          "tgn:1000004",
          "tgn:7000198",
          "tgn:7016788",
          "tgn:7029392"
        ],
        "placetype": [
          "aat:300008347"
        ],
        "name:en": "Sadasar",
        "id": 7556274
      }
    },
    {
      "geometry": {
        "type": "Point",
        "coordinates": [
          73.15,
          20.766667
        ]
      },
      "type": "Feature",
      "properties": {
        "hierarchy": [
          "tgn:7556275",
          "tgn:1000004",
          "tgn:1001869",
          "tgn:7000198",
          "tgn:7029392"
        ],
        "placetype": [
          "aat:300008347"
        ],
        "name:en": "Sādarval",
        "id": 7556275
      }
    },
    {
      "geometry": {
        "type": "Point",
        "coordinates": [
          75.448282,
          29.317805
        ]
      },
      "type": "Feature",
      "properties": {
        "hierarchy": [
          "tgn:7556276",
          "tgn:1000004",
          "tgn:1001871",
          "tgn:7000198",
          "tgn:7029392"
        ],
        "placetype": [
          "aat:300008347"
        ],
        "name:en": "Sadalpur",
        "id": 7556276
      }
    },
    {
      "geometry": {
        "type": "Point",
        "coordinates": [
          77.866667,
          13.633333
        ]
      },
      "type": "Feature",
      "properties": {
        "hierarchy": [
          "tgn:7556277",
          "tgn:1000004",
          "tgn:7000198",
          "tgn:1001882",
          "tgn:7029392"
        ],
        "placetype": [
          "aat:300008347"
        ],
        "name:en": "Sadali",
        "id": 7556277
      }
    },
    {
      "geometry": {
        "type": "Point",
        "coordinates": [
          74.55,
          16.566667
        ]
      },
      "type": "Feature",
      "properties": {
        "hierarchy": [
          "tgn:7556278",
          "tgn:1000004",
          "tgn:7000198",
          "tgn:1001882",
          "tgn:7029392"
        ],
        "placetype": [
          "aat:300008347"
        ],
        "name:en": "Sadalgi",
        "id": 7556278
      }
    }
  ]
}
