{
  "type": "FeatureCollection",
  "features": [
    {
      "geometry": {
        "type": "Point",
        "coordinates": [
          120.55,
          24.0667
        ]
      },
      "type": "Feature",
      "properties": {
        "hierarchy": [
          "tgn:1085340",
          "tgn:1000004",
          "tgn:7467799",
          "tgn:1000141",
          "tgn:7029392"
        ],
        "placetype": [
          "aat:300008347"
        ],
        "id": 1085340,
        "name:xx": "Lu-kang"
      }
    },
    {
      "geometry": {
        "type": "Point",
        "coordinates": [
          121.663498,
          25.1141
        ]
      },
      "type": "Feature",
      "properties": {
        "hierarchy": [
          "tgn:1085341",
          "tgn:1000957",
          "tgn:1000004",
          "tgn:1000141",
          "tgn:7029392"
        ],
        "placetype": [
          "aat:300008347"
        ],
        "id": 1085341,
        "name:xx": "Lu-liao"
      }
    },
    {
      "geometry": {
        "type": "Point",
        "coordinates": [
          121.213611,
          24.865556
        ]
      },
      "type": "Feature",
      "properties": {
        "hierarchy": [
          "tgn:1085342",
          "tgn:1000004",
          "tgn:7001013",
          "tgn:1000141",
          "tgn:7029392"
        ],
        "placetype": [
          "aat:300008347"
        ],
        "id": 1085342,
        "name:xx": "Lung-t'an"
      }
    },
    {
      "geometry": {
        "type": "Point",
        "coordinates": [
          121.1333,
          22.9167
        ]
      },
      "type": "Feature",
      "properties": {
        "hierarchy": [
          "tgn:1085343",
          "tgn:1000004",
          "tgn:7491221",
          "tgn:1000141",
          "tgn:7029392"
        ],
        "placetype": [
          "aat:300008347"
        ],
        "id": 1085343,
        "name:xx": "Luye"
      }
    },
    {
      "geometry": {
        "type": "Point",
        "coordinates": [
          119.570043,
          23.569958
        ]
      },
      "type": "Feature",
      "properties": {
        "hierarchy": [
          "tgn:1085344",
          "tgn:1000004",
          "tgn:7004300",
          "tgn:1000141",
          "tgn:7004297",
          "tgn:7029392"
        ],
        "placetype": [
          "aat:300008347",
          "aat:300387220",
          "aat:300008375"
        ],
        "id": 1085344,
        "name:xx": "Ma-kung"
      }
    },
    {
      "geometry": {
        "type": "Point",
        "coordinates": [
          121.665278,
          25.165278
        ]
      },
      "type": "Feature",
      "properties": {
        "hierarchy": [
          "tgn:1085345",
          "tgn:1000004",
          "tgn:1000454",
          "tgn:1000141",
          "tgn:7029392"
        ],
        "placetype": [
          "aat:300008347"
        ],
        "id": 1085345,
        "name:xx": "Ma-lien-kang"
      }
    },
    {
      "geometry": {
        "type": "Point",
        "coordinates": [
          120.245278,
          23.185556
        ]
      },
      "type": "Feature",
      "properties": {
        "hierarchy": [
          "tgn:1085346",
          "tgn:1000004",
          "tgn:7490934",
          "tgn:1000141",
          "tgn:7029392"
        ],
        "placetype": [
          "aat:300008347"
        ],
        "id": 1085346,
        "name:xx": "Ma-tou"
      }
    },
    {
      "geometry": {
        "type": "Point",
        "coordinates": [
          120.542374,
          22.900293
        ]
      },
      "type": "Feature",
      "properties": {
        "hierarchy": [
          "tgn:1085347",
          "tgn:7001004",
          "tgn:1000004",
          "tgn:1000141",
          "tgn:7029392"
        ],
        "placetype": [
          "aat:300008347"
        ],
        "id": 1085347,
        "name:xx": "Mei-nung"
      }
    },
    {
      "geometry": {
        "type": "Point",
        "coordinates": [
          120.82367,
          24.564271
        ]
      },
      "type": "Feature",
      "properties": {
        "hierarchy": [
          "tgn:1085348",
          "tgn:7487020",
          "tgn:1000004",
          "tgn:1000141",
          "tgn:7029392"
        ],
        "placetype": [
          "aat:300008347",
          "aat:300387220"
        ],
        "id": 1085348,
        "name:xx": "Miao-li"
      }
    },
    {
      "geometry": {
        "type": "Point",
        "coordinates": [
          121.5667,
          24.9833
        ]
      },
      "type": "Feature",
      "properties": {
        "hierarchy": [
          "tgn:1085349",
          "tgn:1000004",
          "tgn:1000959",
          "tgn:1000141",
          "tgn:7029392"
        ],
        "placetype": [
          "aat:300008347"
        ],
        "id": 1085349,
        "name:xx": "Mu-cha"
      }
    }
  ]
}
