{
  "type": "FeatureCollection",
  "features": [
    {
      "geometry": {
        "type": "Point",
        "coordinates": [
          4.033333,
          51.133333
        ]
      },
      "type": "Feature",
      "properties": {
        "hierarchy": [
          "tgn:7241380",
          "tgn:7003457",
          "tgn:1000003",
          "tgn:1000063",
          "tgn:7018236",
          "tgn:7029392"
        ],
        "placetype": [
          "aat:300008699"
        ],
        "id": 7241380,
        "name:xx": "Klaverbeek"
      }
    },
    {
      "geometry": {
        "type": "Point",
        "coordinates": [
          4.254028,
          51.056546
        ]
      },
      "type": "Feature",
      "properties": {
        "hierarchy": [
          "tgn:7241381",
          "tgn:7003456",
          "tgn:1000003",
          "tgn:1000063",
          "tgn:7018236",
          "tgn:7029392"
        ],
        "placetype": [
          "aat:300008699"
        ],
        "id": 7241381,
        "name:xx": "Klaverbeek"
      }
    },
    {
      "geometry": {
        "type": "Point",
        "coordinates": [
          3.222235,
          50.798858
        ]
      },
      "type": "Feature",
      "properties": {
        "hierarchy": [
          "tgn:7241382",
          "tgn:7003458",
          "tgn:1000003",
          "tgn:1000063",
          "tgn:7018236",
          "tgn:7029392"
        ],
        "placetype": [
          "aat:300008347"
        ],
        "id": 7241382,
        "name:xx": "Klarenhoek"
      }
    },
    {
      "geometry": {
        "type": "Point",
        "coordinates": [
          3.607456,
          50.989375
        ]
      },
      "type": "Feature",
      "properties": {
        "hierarchy": [
          "tgn:7241383",
          "tgn:7003457",
          "tgn:1000003",
          "tgn:1000063",
          "tgn:7018236",
          "tgn:7029392"
        ],
        "placetype": [
          "aat:300008347"
        ],
        "id": 7241383,
        "name:xx": "Klapstraat"
      }
    },
    {
      "geometry": {
        "type": "Point",
        "coordinates": [
          4.166667,
          50.85
        ]
      },
      "type": "Feature",
      "properties": {
        "hierarchy": [
          "tgn:7241384",
          "tgn:7003457",
          "tgn:1000003",
          "tgn:1000063",
          "tgn:7018236",
          "tgn:7029392"
        ],
        "placetype": [
          "aat:300008699"
        ],
        "id": 7241384,
        "name:xx": "Klapscheutbeek"
      }
    },
    {
      "geometry": {
        "type": "Point",
        "coordinates": [
          4.159894,
          50.848376
        ]
      },
      "type": "Feature",
      "properties": {
        "hierarchy": [
          "tgn:7241385",
          "tgn:7003457",
          "tgn:1000003",
          "tgn:1000063",
          "tgn:7018236",
          "tgn:7029392"
        ],
        "placetype": [
          "aat:300008347"
        ],
        "id": 7241385,
        "name:xx": "Klapscheut"
      }
    },
    {
      "geometry": {
        "type": "Point",
        "coordinates": [
          4.254124,
          51.221175
        ]
      },
      "type": "Feature",
      "properties": {
        "hierarchy": [
          "tgn:7241386",
          "tgn:7003457",
          "tgn:1000003",
          "tgn:1000063",
          "tgn:7018236",
          "tgn:7029392"
        ],
        "placetype": [
          "aat:300008347"
        ],
        "id": 7241386,
        "name:xx": "Klapperhoek"
      }
    },
    {
      "geometry": {
        "type": "Point",
        "coordinates": [
          3.983333,
          51.05
        ]
      },
      "type": "Feature",
      "properties": {
        "hierarchy": [
          "tgn:7241387",
          "tgn:7003457",
          "tgn:1000003",
          "tgn:1000063",
          "tgn:7018236",
          "tgn:7029392"
        ],
        "placetype": [
          "aat:300008347"
        ],
        "id": 7241387,
        "name:xx": "Klappelstraat"
      }
    },
    {
      "geometry": {
        "type": "Point",
        "coordinates": [
          4.15,
          51.183333
        ]
      },
      "type": "Feature",
      "properties": {
        "hierarchy": [
          "tgn:7241388",
          "tgn:7003457",
          "tgn:1000003",
          "tgn:1000063",
          "tgn:7018236",
          "tgn:7029392"
        ],
        "placetype": [
          "aat:300008699"
        ],
        "id": 7241388,
        "name:xx": "Klappebeek"
      }
    },
    {
      "geometry": {
        "type": "Point",
        "coordinates": [
          4.55,
          51.15
        ]
      },
      "type": "Feature",
      "properties": {
        "hierarchy": [
          "tgn:7241389",
          "tgn:7003456",
          "tgn:1000003",
          "tgn:1000063",
          "tgn:7018236",
          "tgn:7029392"
        ],
        "placetype": [
          "aat:300008347"
        ],
        "id": 7241389,
        "name:xx": "Klaplaar"
      }
    }
  ]
}
