{
  "type": "FeatureCollection",
  "features": [
    {
      "geometry": {
        "type": "Point",
        "coordinates": [
          121.032552,
          23.548613
        ]
      },
      "type": "Feature",
      "properties": {
        "hierarchy": [
          "tgn:7499600",
          "tgn:7488858",
          "tgn:1000004",
          "tgn:1000141",
          "tgn:7029392"
        ],
        "placetype": [
          "aat:300008798"
        ],
        "id": 7499600,
        "name:xx": "Penju Shan"
      }
    },
    {
      "geometry": {
        "type": "Point",
        "coordinates": [
          121.245101,
          23.595371
        ]
      },
      "type": "Feature",
      "properties": {
        "hierarchy": [
          "tgn:7499601",
          "tgn:7001010",
          "tgn:1000004",
          "tgn:1000141",
          "tgn:7029392"
        ],
        "placetype": [
          "aat:300008798"
        ],
        "id": 7499601,
        "name:xx": "Amannalai Shan"
      }
    },
    {
      "geometry": {
        "type": "Point",
        "coordinates": [
          121.244747,
          23.604358
        ]
      },
      "type": "Feature",
      "properties": {
        "hierarchy": [
          "tgn:7499602",
          "tgn:7001010",
          "tgn:1000004",
          "tgn:1000141",
          "tgn:7029392"
        ],
        "placetype": [
          "aat:300008798"
        ],
        "id": 7499602,
        "name:xx": "Dalishi Feng"
      }
    },
    {
      "geometry": {
        "type": "Point",
        "coordinates": [
          121.245233,
          23.610917
        ]
      },
      "type": "Feature",
      "properties": {
        "hierarchy": [
          "tgn:7499603",
          "tgn:7001010",
          "tgn:1000004",
          "tgn:1000141",
          "tgn:7029392"
        ],
        "placetype": [
          "aat:300008798"
        ],
        "id": 7499603,
        "name:xx": "Abala Shan"
      }
    },
    {
      "geometry": {
        "type": "Point",
        "coordinates": [
          121.223561,
          23.602555
        ]
      },
      "type": "Feature",
      "properties": {
        "hierarchy": [
          "tgn:7499604",
          "tgn:7001010",
          "tgn:1000004",
          "tgn:1000141",
          "tgn:7029392"
        ],
        "placetype": [
          "aat:300008798"
        ],
        "id": 7499604,
        "name:xx": "Danda Shan Dongfeng"
      }
    },
    {
      "geometry": {
        "type": "Point",
        "coordinates": [
          121.359592,
          23.382748
        ]
      },
      "type": "Feature",
      "properties": {
        "hierarchy": [
          "tgn:7499605",
          "tgn:7001010",
          "tgn:1000004",
          "tgn:1000141",
          "tgn:7029392"
        ],
        "placetype": [
          "aat:300006495"
        ],
        "id": 7499605,
        "name:xx": "Gaoliao Guoxiao"
      }
    },
    {
      "geometry": {
        "type": "Point",
        "coordinates": [
          121.357065,
          23.394867
        ]
      },
      "type": "Feature",
      "properties": {
        "hierarchy": [
          "tgn:7499606",
          "tgn:7001010",
          "tgn:1000004",
          "tgn:1000141",
          "tgn:7029392"
        ],
        "placetype": [
          "aat:300006495"
        ],
        "id": 7499606,
        "name:xx": "Guanyin Guoxiao"
      }
    },
    {
      "geometry": {
        "type": "Point",
        "coordinates": [
          121.353195,
          23.41633
        ]
      },
      "type": "Feature",
      "properties": {
        "hierarchy": [
          "tgn:7499607",
          "tgn:7001010",
          "tgn:1000004",
          "tgn:1000141",
          "tgn:7029392"
        ],
        "placetype": [
          "aat:300006156"
        ],
        "id": 7499607,
        "name:xx": "Sanmin Tifang"
      }
    },
    {
      "geometry": {
        "type": "Point",
        "coordinates": [
          121.346951,
          23.428303
        ]
      },
      "type": "Feature",
      "properties": {
        "hierarchy": [
          "tgn:7499608",
          "tgn:7001010",
          "tgn:1000004",
          "tgn:1000141",
          "tgn:7029392"
        ],
        "placetype": [
          "aat:300007783"
        ],
        "id": 7499608,
        "name:xx": "Sanmin Zhan"
      }
    },
    {
      "geometry": {
        "type": "Point",
        "coordinates": [
          121.346314,
          23.423953
        ]
      },
      "type": "Feature",
      "properties": {
        "hierarchy": [
          "tgn:7499609",
          "tgn:7001010",
          "tgn:1000004",
          "tgn:1000141",
          "tgn:7029392"
        ],
        "placetype": [
          "aat:300007836"
        ],
        "id": 7499609,
        "name:xx": "Sanfu Qiao"
      }
    }
  ]
}
