{
  "type": "FeatureCollection",
  "features": [
    {
      "geometry": {
        "type": "Point",
        "coordinates": [
          82.961405,
          22.388257
        ]
      },
      "type": "Feature",
      "properties": {
        "hierarchy": [
          "tgn:7574781",
          "tgn:1000004",
          "tgn:7031781",
          "tgn:7000198",
          "tgn:7029392"
        ],
        "placetype": [
          "aat:300008347"
        ],
        "name:en": "Madanpur",
        "id": 7574781
      }
    },
    {
      "geometry": {
        "type": "Point",
        "coordinates": [
          83.516667,
          20.316667
        ]
      },
      "type": "Feature",
      "properties": {
        "hierarchy": [
          "tgn:7574782",
          "tgn:1000004",
          "tgn:7000198",
          "tgn:7016694",
          "tgn:7029392"
        ],
        "placetype": [
          "aat:300008347"
        ],
        "name:en": "Madanpur",
        "id": 7574782
      }
    },
    {
      "geometry": {
        "type": "Point",
        "coordinates": [
          79.966667,
          23.166667
        ]
      },
      "type": "Feature",
      "properties": {
        "hierarchy": [
          "tgn:7574783",
          "tgn:1000004",
          "tgn:7000198",
          "tgn:1001894",
          "tgn:7029392"
        ],
        "placetype": [
          "aat:300007783"
        ],
        "name:en": "Madan Mahal",
        "id": 7574783
      }
    },
    {
      "geometry": {
        "type": "Point",
        "coordinates": [
          74.366667,
          14.583333
        ]
      },
      "type": "Feature",
      "properties": {
        "hierarchy": [
          "tgn:7574784",
          "tgn:1000004",
          "tgn:7000198",
          "tgn:1001882",
          "tgn:7029392"
        ],
        "placetype": [
          "aat:300008347"
        ],
        "name:en": "MƒÅdangeri",
        "id": 7574784
      }
    },
    {
      "geometry": {
        "type": "Point",
        "coordinates": [
          74.85873,
          26.58985
        ]
      },
      "type": "Feature",
      "properties": {
        "hierarchy": [
          "tgn:7574785",
          "tgn:1000004",
          "tgn:7000198",
          "tgn:7016788",
          "tgn:7029392"
        ],
        "placetype": [
          "aat:300008347"
        ],
        "name:en": "Madanganj",
        "id": 7574785
      }
    },
    {
      "geometry": {
        "type": "Point",
        "coordinates": [
          78.55,
          13.65
        ]
      },
      "type": "Feature",
      "properties": {
        "hierarchy": [
          "tgn:7574786",
          "tgn:1001828",
          "tgn:1000004",
          "tgn:7000198",
          "tgn:7029392"
        ],
        "placetype": [
          "aat:300007783"
        ],
        "name:en": "Madanapalle Road",
        "id": 7574786
      }
    },
    {
      "geometry": {
        "type": "Point",
        "coordinates": [
          84.368285,
          24.849793
        ]
      },
      "type": "Feature",
      "properties": {
        "hierarchy": [
          "tgn:7574789",
          "tgn:1000004",
          "tgn:1001842",
          "tgn:7000198",
          "tgn:7029392"
        ],
        "placetype": [
          "aat:300008347"
        ],
        "name:en": "Kurma",
        "id": 7574789
      }
    }
  ]
}
