{
  "type": "FeatureCollection",
  "features": [
    {
      "geometry": {
        "type": "Point",
        "coordinates": [
          120.553791,
          23.758146
        ]
      },
      "type": "Feature",
      "properties": {
        "hierarchy": [
          "tgn:7478350",
          "tgn:1000004",
          "tgn:7001014",
          "tgn:1000141",
          "tgn:7029392"
        ],
        "placetype": [
          "aat:300007836"
        ],
        "id": 7478350,
        "name:xx": "Liuhe Qiao"
      }
    },
    {
      "geometry": {
        "type": "Point",
        "coordinates": [
          120.590679,
          23.770371
        ]
      },
      "type": "Feature",
      "properties": {
        "hierarchy": [
          "tgn:7478351",
          "tgn:1000004",
          "tgn:7001014",
          "tgn:1000141",
          "tgn:7029392"
        ],
        "placetype": [
          "aat:300008347"
        ],
        "id": 7478351,
        "name:xx": "Ruihe"
      }
    },
    {
      "geometry": {
        "type": "Point",
        "coordinates": [
          120.5976,
          23.767157
        ]
      },
      "type": "Feature",
      "properties": {
        "hierarchy": [
          "tgn:7478352",
          "tgn:1000004",
          "tgn:7001014",
          "tgn:1000141",
          "tgn:7029392"
        ],
        "placetype": [
          "aat:300006495"
        ],
        "id": 7478352,
        "name:xx": "Minsheng Guoxiao"
      }
    },
    {
      "geometry": {
        "type": "Point",
        "coordinates": [
          120.55545,
          23.753538
        ]
      },
      "type": "Feature",
      "properties": {
        "hierarchy": [
          "tgn:7478353",
          "tgn:1000004",
          "tgn:7001014",
          "tgn:1000141",
          "tgn:7029392"
        ],
        "placetype": [
          "aat:300007836"
        ],
        "id": 7478353,
        "name:xx": "Zhuwei Qiao"
      }
    },
    {
      "geometry": {
        "type": "Point",
        "coordinates": [
          120.610846,
          23.769052
        ]
      },
      "type": "Feature",
      "properties": {
        "hierarchy": [
          "tgn:7478354",
          "tgn:1000004",
          "tgn:7001014",
          "tgn:1000141",
          "tgn:7029392"
        ],
        "placetype": [
          "aat:300008347"
        ],
        "id": 7478354,
        "name:xx": "Ren'ai"
      }
    },
    {
      "geometry": {
        "type": "Point",
        "coordinates": [
          120.598848,
          23.769646
        ]
      },
      "type": "Feature",
      "properties": {
        "hierarchy": [
          "tgn:7478355",
          "tgn:1000004",
          "tgn:7001014",
          "tgn:1000141",
          "tgn:7029392"
        ],
        "placetype": [
          "aat:300008347"
        ],
        "id": 7478355,
        "name:xx": "Dingwutuzi"
      }
    },
    {
      "geometry": {
        "type": "Point",
        "coordinates": [
          120.612,
          23.7759
        ]
      },
      "type": "Feature",
      "properties": {
        "hierarchy": [
          "tgn:7478356",
          "tgn:1000004",
          "tgn:7467799",
          "tgn:1000141",
          "tgn:7029392"
        ],
        "placetype": [
          "aat:300008347"
        ],
        "id": 7478356,
        "name:xx": "Rongxing"
      }
    },
    {
      "geometry": {
        "type": "Point",
        "coordinates": [
          120.595998,
          23.834149
        ]
      },
      "type": "Feature",
      "properties": {
        "hierarchy": [
          "tgn:7478357",
          "tgn:1000004",
          "tgn:7467799",
          "tgn:1000141",
          "tgn:7029392"
        ],
        "placetype": [
          "aat:300008347"
        ],
        "id": 7478357,
        "name:xx": "Sikuaicuo"
      }
    },
    {
      "geometry": {
        "type": "Point",
        "coordinates": [
          120.6138,
          23.832
        ]
      },
      "type": "Feature",
      "properties": {
        "hierarchy": [
          "tgn:7478358",
          "tgn:1000004",
          "tgn:7467799",
          "tgn:1000141",
          "tgn:7029392"
        ],
        "placetype": [
          "aat:300008777"
        ],
        "id": 7478358,
        "name:xx": "Dapeng Shan"
      }
    },
    {
      "geometry": {
        "type": "Point",
        "coordinates": [
          120.597157,
          23.840838
        ]
      },
      "type": "Feature",
      "properties": {
        "hierarchy": [
          "tgn:7478359",
          "tgn:1000004",
          "tgn:7467799",
          "tgn:1000141",
          "tgn:7029392"
        ],
        "placetype": [
          "aat:300008347"
        ],
        "id": 7478359,
        "name:xx": "Da'an"
      }
    }
  ]
}
