{
  "type": "FeatureCollection",
  "features": [
    {
      "geometry": {
        "type": "Point",
        "coordinates": [
          77.333333,
          19.666667
        ]
      },
      "type": "Feature",
      "properties": {
        "hierarchy": [
          "tgn:7570630",
          "tgn:1000004",
          "tgn:7000198",
          "tgn:1001895",
          "tgn:7029392"
        ],
        "placetype": [
          "aat:300008347"
        ],
        "name:en": "Kalamnūri",
        "id": 7570630
      }
    },
    {
      "geometry": {
        "type": "Point",
        "coordinates": [
          76.05,
          18.366667
        ]
      },
      "type": "Feature",
      "properties": {
        "hierarchy": [
          "tgn:7570631",
          "tgn:1000004",
          "tgn:7000198",
          "tgn:1001895",
          "tgn:7029392"
        ],
        "placetype": [
          "aat:300007783"
        ],
        "name:en": "Kalamb Road",
        "id": 7570631
      }
    },
    {
      "geometry": {
        "type": "Point",
        "coordinates": [
          78.55,
          21.35
        ]
      },
      "type": "Feature",
      "properties": {
        "hierarchy": [
          "tgn:7570633",
          "tgn:1000004",
          "tgn:7000198",
          "tgn:1001895",
          "tgn:7029392"
        ],
        "placetype": [
          "aat:300007783"
        ],
        "name:en": "Kalambha",
        "id": 7570633
      }
    },
    {
      "geometry": {
        "type": "Point",
        "coordinates": [
          85.283427,
          23.19666
        ]
      },
      "type": "Feature",
      "properties": {
        "hierarchy": [
          "tgn:7570635",
          "tgn:1000004",
          "tgn:7000198",
          "tgn:7031783",
          "tgn:7029392"
        ],
        "placetype": [
          "aat:300008347"
        ],
        "name:en": "Kālāmāti",
        "id": 7570635
      }
    },
    {
      "geometry": {
        "type": "Point",
        "coordinates": [
          78.483333,
          14.65
        ]
      },
      "type": "Feature",
      "properties": {
        "hierarchy": [
          "tgn:7570636",
          "tgn:1001828",
          "tgn:1000004",
          "tgn:7000198",
          "tgn:7029392"
        ],
        "placetype": [
          "aat:300007783"
        ],
        "name:en": "Kalamalla",
        "id": 7570636
      }
    },
    {
      "geometry": {
        "type": "Point",
        "coordinates": [
          76.662556,
          22.144011
        ]
      },
      "type": "Feature",
      "properties": {
        "hierarchy": [
          "tgn:7570637",
          "tgn:1000004",
          "tgn:7000198",
          "tgn:1001894",
          "tgn:7029392"
        ],
        "placetype": [
          "aat:300008699"
        ],
        "name:en": "Kālāmachak Nadī",
        "id": 7570637
      }
    },
    {
      "geometry": {
        "type": "Point",
        "coordinates": [
          78.333333,
          20.45
        ]
      },
      "type": "Feature",
      "properties": {
        "hierarchy": [
          "tgn:7570638",
          "tgn:1000004",
          "tgn:7000198",
          "tgn:1001895",
          "tgn:7029392"
        ],
        "placetype": [
          "aat:300008347"
        ],
        "name:en": "Kalam",
        "id": 7570638
      }
    },
    {
      "geometry": {
        "type": "Point",
        "coordinates": [
          76.033333,
          18.583333
        ]
      },
      "type": "Feature",
      "properties": {
        "hierarchy": [
          "tgn:7570639",
          "tgn:1000004",
          "tgn:7000198",
          "tgn:1001895",
          "tgn:7029392"
        ],
        "placetype": [
          "aat:300008347"
        ],
        "name:en": "Kalam",
        "id": 7570639
      }
    }
  ]
}
