{
  "type": "FeatureCollection",
  "features": [
    {
      "geometry": {
        "type": "Point",
        "coordinates": [
          77.028056,
          31.170833
        ]
      },
      "type": "Feature",
      "properties": {
        "hierarchy": [
          "tgn:7568320",
          "tgn:1000004",
          "tgn:7000198",
          "tgn:1001996",
          "tgn:7029392"
        ],
        "placetype": [
          "aat:300008863"
        ],
        "name:en": "Jhāltu Protected Forest",
        "id": 7568320
      }
    },
    {
      "geometry": {
        "type": "Point",
        "coordinates": [
          77.013889,
          31.169444
        ]
      },
      "type": "Feature",
      "properties": {
        "hierarchy": [
          "tgn:7568321",
          "tgn:1000004",
          "tgn:7000198",
          "tgn:1001996",
          "tgn:7029392"
        ],
        "placetype": [
          "aat:300008863"
        ],
        "name:en": "Chaīyān Protected Forest",
        "id": 7568321
      }
    },
    {
      "geometry": {
        "type": "Point",
        "coordinates": [
          77.008611,
          31.171944
        ]
      },
      "type": "Feature",
      "properties": {
        "hierarchy": [
          "tgn:7568322",
          "tgn:1000004",
          "tgn:7000198",
          "tgn:1001996",
          "tgn:7029392"
        ],
        "placetype": [
          "aat:300008863"
        ],
        "name:en": "Kothi Protected Forest",
        "id": 7568322
      }
    },
    {
      "geometry": {
        "type": "Point",
        "coordinates": [
          77.002019,
          31.175933
        ]
      },
      "type": "Feature",
      "properties": {
        "hierarchy": [
          "tgn:7568323",
          "tgn:1000004",
          "tgn:7000198",
          "tgn:1001996",
          "tgn:7029392"
        ],
        "placetype": [
          "aat:300008347"
        ],
        "name:en": "Thalog",
        "id": 7568323
      }
    },
    {
      "geometry": {
        "type": "Point",
        "coordinates": [
          77.001389,
          31.176389
        ]
      },
      "type": "Feature",
      "properties": {
        "hierarchy": [
          "tgn:7568324",
          "tgn:1000004",
          "tgn:7000198",
          "tgn:1001996",
          "tgn:7029392"
        ],
        "placetype": [
          "aat:300008863"
        ],
        "name:en": "Thalog Protected Forest",
        "id": 7568324
      }
    },
    {
      "geometry": {
        "type": "Point",
        "coordinates": [
          77.01,
          31.174444
        ]
      },
      "type": "Feature",
      "properties": {
        "hierarchy": [
          "tgn:7568325",
          "tgn:1000004",
          "tgn:7000198",
          "tgn:1001996",
          "tgn:7029392"
        ],
        "placetype": [
          "aat:300008347"
        ],
        "name:en": "Kothi",
        "id": 7568325
      }
    },
    {
      "geometry": {
        "type": "Point",
        "coordinates": [
          77.019444,
          31.175
        ]
      },
      "type": "Feature",
      "properties": {
        "hierarchy": [
          "tgn:7568326",
          "tgn:1000004",
          "tgn:7000198",
          "tgn:1001996",
          "tgn:7029392"
        ],
        "placetype": [
          "aat:300008347"
        ],
        "name:en": "Chaīyan",
        "id": 7568326
      }
    },
    {
      "geometry": {
        "type": "Point",
        "coordinates": [
          77.024722,
          31.175833
        ]
      },
      "type": "Feature",
      "properties": {
        "hierarchy": [
          "tgn:7568327",
          "tgn:1000004",
          "tgn:7000198",
          "tgn:1001996",
          "tgn:7029392"
        ],
        "placetype": [
          "aat:300008347"
        ],
        "name:en": "Purohi",
        "id": 7568327
      }
    },
    {
      "geometry": {
        "type": "Point",
        "coordinates": [
          77.038333,
          31.181944
        ]
      },
      "type": "Feature",
      "properties": {
        "hierarchy": [
          "tgn:7568328",
          "tgn:1000004",
          "tgn:7000198",
          "tgn:1001996",
          "tgn:7029392"
        ],
        "placetype": [
          "aat:300008347"
        ],
        "name:en": "Giānchāri",
        "id": 7568328
      }
    },
    {
      "geometry": {
        "type": "Point",
        "coordinates": [
          77.028056,
          31.180833
        ]
      },
      "type": "Feature",
      "properties": {
        "hierarchy": [
          "tgn:7568329",
          "tgn:1000004",
          "tgn:7000198",
          "tgn:1001996",
          "tgn:7029392"
        ],
        "placetype": [
          "aat:300008347"
        ],
        "name:en": "Ghāt",
        "id": 7568329
      }
    }
  ]
}
