{
  "type": "FeatureCollection",
  "features": [
    {
      "geometry": {
        "type": "Point",
        "coordinates": [
          121.564297,
          24.948517
        ]
      },
      "type": "Feature",
      "properties": {
        "hierarchy": [
          "tgn:7473110",
          "tgn:1000004",
          "tgn:1000454",
          "tgn:1000141",
          "tgn:7029392"
        ],
        "placetype": [
          "aat:300008347"
        ],
        "id": 7473110,
        "name:xx": "Shi'erfen"
      }
    },
    {
      "geometry": {
        "type": "Point",
        "coordinates": [
          121.529782,
          24.899018
        ]
      },
      "type": "Feature",
      "properties": {
        "hierarchy": [
          "tgn:7473111",
          "tgn:1000004",
          "tgn:1000454",
          "tgn:1000141",
          "tgn:7029392"
        ],
        "placetype": [
          "aat:300008347"
        ],
        "id": 7473111,
        "name:xx": "Daliao"
      }
    },
    {
      "geometry": {
        "type": "Point",
        "coordinates": [
          121.528216,
          24.905754
        ]
      },
      "type": "Feature",
      "properties": {
        "hierarchy": [
          "tgn:7473112",
          "tgn:1000004",
          "tgn:1000454",
          "tgn:1000141",
          "tgn:7029392"
        ],
        "placetype": [
          "aat:300008347"
        ],
        "id": 7473112,
        "name:xx": "Erliao"
      }
    },
    {
      "geometry": {
        "type": "Point",
        "coordinates": [
          121.509489,
          24.912048
        ]
      },
      "type": "Feature",
      "properties": {
        "hierarchy": [
          "tgn:7473113",
          "tgn:1000004",
          "tgn:1000454",
          "tgn:1000141",
          "tgn:7029392"
        ],
        "placetype": [
          "aat:300008347"
        ],
        "id": 7473113,
        "name:xx": "Shizitoujiao"
      }
    },
    {
      "geometry": {
        "type": "Point",
        "coordinates": [
          121.53572,
          24.918879
        ]
      },
      "type": "Feature",
      "properties": {
        "hierarchy": [
          "tgn:7473114",
          "tgn:1000004",
          "tgn:1000454",
          "tgn:1000141",
          "tgn:7029392"
        ],
        "placetype": [
          "aat:300008347"
        ],
        "id": 7473114,
        "name:xx": "Mengmenggu"
      }
    },
    {
      "geometry": {
        "type": "Point",
        "coordinates": [
          121.5287,
          24.9303
        ]
      },
      "type": "Feature",
      "properties": {
        "hierarchy": [
          "tgn:7473115",
          "tgn:1000004",
          "tgn:1000454",
          "tgn:1000141",
          "tgn:7029392"
        ],
        "placetype": [
          "aat:300008347"
        ],
        "id": 7473115,
        "name:xx": "Huangkukou"
      }
    },
    {
      "geometry": {
        "type": "Point",
        "coordinates": [
          121.522584,
          24.957942
        ]
      },
      "type": "Feature",
      "properties": {
        "hierarchy": [
          "tgn:7473116",
          "tgn:1000004",
          "tgn:1000454",
          "tgn:1000141",
          "tgn:7029392"
        ],
        "placetype": [
          "aat:300008347"
        ],
        "id": 7473116,
        "name:xx": "Dahudi"
      }
    },
    {
      "geometry": {
        "type": "Point",
        "coordinates": [
          121.51173,
          24.958778
        ]
      },
      "type": "Feature",
      "properties": {
        "hierarchy": [
          "tgn:7473117",
          "tgn:1000004",
          "tgn:1000454",
          "tgn:1000141",
          "tgn:7029392"
        ],
        "placetype": [
          "aat:300008347"
        ],
        "id": 7473117,
        "name:xx": "Yigupo"
      }
    },
    {
      "geometry": {
        "type": "Point",
        "coordinates": [
          121.523961,
          24.967915
        ]
      },
      "type": "Feature",
      "properties": {
        "hierarchy": [
          "tgn:7473118",
          "tgn:1000004",
          "tgn:1000454",
          "tgn:1000141",
          "tgn:7029392"
        ],
        "placetype": [
          "aat:300008347"
        ],
        "id": 7473118,
        "name:xx": "Ankengxia"
      }
    },
    {
      "geometry": {
        "type": "Point",
        "coordinates": [
          121.516137,
          24.97883
        ]
      },
      "type": "Feature",
      "properties": {
        "hierarchy": [
          "tgn:7473119",
          "tgn:1000004",
          "tgn:1000959",
          "tgn:1000141",
          "tgn:7029392"
        ],
        "placetype": [
          "aat:300008347"
        ],
        "id": 7473119,
        "name:xx": "Neiwazi"
      }
    }
  ]
}
