{
  "type": "FeatureCollection",
  "features": [
    {
      "geometry": {
        "type": "Point",
        "coordinates": [
          77.249062,
          30.750214
        ]
      },
      "type": "Feature",
      "properties": {
        "hierarchy": [
          "tgn:7552180",
          "tgn:1000004",
          "tgn:7000198",
          "tgn:1001996",
          "tgn:7029392"
        ],
        "placetype": [
          "aat:300008347"
        ],
        "name:en": "Mﾄ］garh",
        "id": 7552180
      }
    },
    {
      "geometry": {
        "type": "Point",
        "coordinates": [
          80.516667,
          18.25
        ]
      },
      "type": "Feature",
      "properties": {
        "hierarchy": [
          "tgn:7552181",
          "tgn:1001828",
          "tgn:1000004",
          "tgn:7000198",
          "tgn:7029392"
        ],
        "placetype": [
          "aat:300008347"
        ],
        "name:en": "Mangapet",
        "id": 7552181
      }
    },
    {
      "geometry": {
        "type": "Point",
        "coordinates": [
          78.266667,
          14.75
        ]
      },
      "type": "Feature",
      "properties": {
        "hierarchy": [
          "tgn:7552182",
          "tgn:1001828",
          "tgn:1000004",
          "tgn:7000198",
          "tgn:7029392"
        ],
        "placetype": [
          "aat:300007783"
        ],
        "name:en": "Mangapatnam",
        "id": 7552182
      }
    },
    {
      "geometry": {
        "type": "Point",
        "coordinates": [
          73.283333,
          18.233333
        ]
      },
      "type": "Feature",
      "properties": {
        "hierarchy": [
          "tgn:7552183",
          "tgn:1000004",
          "tgn:7000198",
          "tgn:1001895",
          "tgn:7029392"
        ],
        "placetype": [
          "aat:300008347"
        ],
        "name:en": "Mﾄ］gaon",
        "id": 7552183
      }
    },
    {
      "geometry": {
        "type": "Point",
        "coordinates": [
          73.766667,
          15.983333
        ]
      },
      "type": "Feature",
      "properties": {
        "hierarchy": [
          "tgn:7552184",
          "tgn:1000004",
          "tgn:7000198",
          "tgn:1001895",
          "tgn:7029392"
        ],
        "placetype": [
          "aat:300008347"
        ],
        "name:en": "Mﾄ］gaon",
        "id": 7552184
      }
    },
    {
      "geometry": {
        "type": "Point",
        "coordinates": [
          76.55,
          9.583333
        ]
      },
      "type": "Feature",
      "properties": {
        "hierarchy": [
          "tgn:7552185",
          "tgn:1000004",
          "tgn:7000198",
          "tgn:1001886",
          "tgn:7029392"
        ],
        "placetype": [
          "aat:300008347"
        ],
        "name:en": "Manganam",
        "id": 7552185
      }
    },
    {
      "geometry": {
        "type": "Point",
        "coordinates": [
          74.263825,
          24.879229
        ]
      },
      "type": "Feature",
      "properties": {
        "hierarchy": [
          "tgn:7552186",
          "tgn:1000004",
          "tgn:7000198",
          "tgn:7016788",
          "tgn:7029392"
        ],
        "placetype": [
          "aat:300008347"
        ],
        "name:en": "Mangﾄ］a",
        "id": 7552186
      }
    },
    {
      "geometry": {
        "type": "Point",
        "coordinates": [
          88.522059,
          27.50965
        ]
      },
      "type": "Feature",
      "properties": {
        "hierarchy": [
          "tgn:7552187",
          "tgn:1000004",
          "tgn:7000198",
          "tgn:1001957",
          "tgn:7029392"
        ],
        "placetype": [
          "aat:300008347"
        ],
        "name:en": "Mangan",
        "id": 7552187
      }
    },
    {
      "geometry": {
        "type": "Point",
        "coordinates": [
          79.685801,
          26.511186
        ]
      },
      "type": "Feature",
      "properties": {
        "hierarchy": [
          "tgn:7552189",
          "tgn:1000004",
          "tgn:7000198",
          "tgn:7016722",
          "tgn:7029392"
        ],
        "placetype": [
          "aat:300008347"
        ],
        "name:en": "Mangalpur",
        "id": 7552189
      }
    }
  ]
}
