{
  "type": "FeatureCollection",
  "features": [
    {
      "geometry": {
        "type": "Point",
        "coordinates": [
          32.404949,
          26.112568
        ]
      },
      "type": "Feature",
      "properties": {
        "hierarchy": [
          "tgn:4003850",
          "tgn:7001242",
          "tgn:7016833",
          "tgn:7000123",
          "tgn:7029392"
        ],
        "placetype": [
          "aat:300008347",
          "aat:300008375"
        ],
        "name:en": "Fāw Qiblī",
        "id": 4003850
      }
    },
    {
      "geometry": {
        "type": "Point",
        "coordinates": [
          -0.916667,
          51.566667
        ]
      },
      "type": "Feature",
      "properties": {
        "hierarchy": [
          "tgn:4003852",
          "tgn:7002445",
          "tgn:7008104",
          "tgn:1000003",
          "tgn:7008591",
          "tgn:7029392"
        ],
        "placetype": [
          "aat:300008347"
        ],
        "id": 4003852,
        "name:ang": "Falelie"
      }
    },
    {
      "geometry": {
        "type": "Point",
        "coordinates": [
          0.35,
          46.95
        ]
      },
      "type": "Feature",
      "properties": {
        "hierarchy": [
          "tgn:4003853",
          "tgn:1000003",
          "tgn:7002877",
          "tgn:1000070",
          "tgn:7029392"
        ],
        "placetype": [
          "aat:300008347"
        ],
        "id": 4003853,
        "name:xx": "Faye-la-Vineuse"
      }
    },
    {
      "geometry": {
        "type": "Point",
        "coordinates": [
          34.5167,
          57.4667
        ]
      },
      "type": "Feature",
      "properties": {
        "hierarchy": [
          "tgn:4003858",
          "tgn:1000004",
          "tgn:7012941",
          "tgn:7018214",
          "tgn:7002435",
          "tgn:7029392"
        ],
        "placetype": [
          "aat:300008347"
        ],
        "id": 4003858,
        "name:xx": "Fedovo"
      }
    },
    {
      "geometry": {
        "type": "Point",
        "coordinates": [
          7.6833,
          48.4833
        ]
      },
      "type": "Feature",
      "properties": {
        "hierarchy": [
          "tgn:4003859",
          "tgn:7002870",
          "tgn:1000003",
          "tgn:1000070",
          "tgn:7029392"
        ],
        "placetype": [
          "aat:300008347"
        ],
        "id": 4003859,
        "name:xx": "Fegersheim"
      }
    }
  ]
}
