{
  "type": "FeatureCollection",
  "features": [
    {
      "geometry": {
        "type": "Point",
        "coordinates": [
          34.093056,
          29.649167
        ]
      },
      "type": "Feature",
      "properties": {
        "hierarchy": [
          "tgn:7541930",
          "tgn:7001242",
          "tgn:7016833",
          "tgn:7001336",
          "tgn:7029392"
        ],
        "placetype": [
          "aat:300259572"
        ],
        "id": 7541930,
        "name:xx": "Sha'wá, Darb al"
      }
    },
    {
      "geometry": {
        "type": "Point",
        "coordinates": [
          34.236111,
          29.671667
        ]
      },
      "type": "Feature",
      "properties": {
        "hierarchy": [
          "tgn:7541931",
          "tgn:7001242",
          "tgn:7016833",
          "tgn:7001336",
          "tgn:7029392"
        ],
        "placetype": [
          "aat:300259572"
        ],
        "id": 7541931,
        "name:xx": "Sha'wī, Darb ash"
      }
    },
    {
      "geometry": {
        "type": "Point",
        "coordinates": [
          34.262778,
          29.676944
        ]
      },
      "type": "Feature",
      "properties": {
        "hierarchy": [
          "tgn:7541932",
          "tgn:7001242",
          "tgn:7016833",
          "tgn:7001336",
          "tgn:7029392"
        ],
        "placetype": [
          "aat:300008795"
        ],
        "id": 7541932,
        "name:xx": "Umm al Bārd, Jabal"
      }
    },
    {
      "geometry": {
        "type": "Point",
        "coordinates": [
          34.353889,
          29.7125
        ]
      },
      "type": "Feature",
      "properties": {
        "hierarchy": [
          "tgn:7541933",
          "tgn:7001242",
          "tgn:7016833",
          "tgn:7001336",
          "tgn:7029392"
        ],
        "placetype": [
          "aat:300008795"
        ],
        "id": 7541933,
        "name:xx": "Ralayshah, Jabal ar"
      }
    },
    {
      "geometry": {
        "type": "Point",
        "coordinates": [
          34.300556,
          29.709167
        ]
      },
      "type": "Feature",
      "properties": {
        "hierarchy": [
          "tgn:7541934",
          "tgn:7001242",
          "tgn:7016833",
          "tgn:7001336",
          "tgn:7029392"
        ],
        "placetype": [
          "aat:300379998"
        ],
        "id": 7541934,
        "name:xx": "Şabiyāt, Wādī aş"
      }
    },
    {
      "geometry": {
        "type": "Point",
        "coordinates": [
          30.716299,
          30.822434
        ]
      },
      "type": "Feature",
      "properties": {
        "hierarchy": [
          "tgn:7541935",
          "tgn:7001242",
          "tgn:1001075",
          "tgn:7016833",
          "tgn:7029392"
        ],
        "placetype": [
          "aat:300008347"
        ],
        "name:en": "Kafr ash Sharqāwah",
        "id": 7541935
      }
    },
    {
      "geometry": {
        "type": "Point",
        "coordinates": [
          30.572435,
          30.918417
        ]
      },
      "type": "Feature",
      "properties": {
        "hierarchy": [
          "tgn:7541936",
          "tgn:7001242",
          "tgn:1001075",
          "tgn:7016833",
          "tgn:7029392"
        ],
        "placetype": [
          "aat:300008347"
        ],
        "name:en": "'Izbat as Sālimīyah",
        "id": 7541936
      }
    },
    {
      "geometry": {
        "type": "Point",
        "coordinates": [
          30.576119,
          30.923568
        ]
      },
      "type": "Feature",
      "properties": {
        "hierarchy": [
          "tgn:7541937",
          "tgn:7001242",
          "tgn:1001075",
          "tgn:7016833",
          "tgn:7029392"
        ],
        "placetype": [
          "aat:300008347"
        ],
        "name:en": "'Izbat al 'Allāyah",
        "id": 7541937
      }
    },
    {
      "geometry": {
        "type": "Point",
        "coordinates": [
          30.580735,
          30.932897
        ]
      },
      "type": "Feature",
      "properties": {
        "hierarchy": [
          "tgn:7541938",
          "tgn:7001242",
          "tgn:1001075",
          "tgn:7016833",
          "tgn:7029392"
        ],
        "placetype": [
          "aat:300008347"
        ],
        "name:en": "'Izbat Aḩmad Farghalī",
        "id": 7541938
      }
    },
    {
      "geometry": {
        "type": "Point",
        "coordinates": [
          30.678911,
          30.822148
        ]
      },
      "type": "Feature",
      "properties": {
        "hierarchy": [
          "tgn:7541939",
          "tgn:7001242",
          "tgn:1001075",
          "tgn:7016833",
          "tgn:7029392"
        ],
        "placetype": [
          "aat:300000206"
        ],
        "name:en": "'Izbat 'Abd al Ḩamīd as Sibaytī",
        "id": 7541939
      }
    }
  ]
}
