{
  "type": "FeatureCollection",
  "features": [
    {
      "geometry": {
        "type": "Point",
        "coordinates": [
          11.4333,
          9.6167
        ]
      },
      "type": "Feature",
      "properties": {
        "hierarchy": [
          "tgn:1091930",
          "tgn:7001242",
          "tgn:1001838",
          "tgn:1000182",
          "tgn:7029392"
        ],
        "placetype": [
          "aat:300008347"
        ],
        "id": 1091930,
        "name:xx": "Dadiya"
      }
    },
    {
      "geometry": {
        "type": "Point",
        "coordinates": [
          4.0667,
          11.5667
        ]
      },
      "type": "Feature",
      "properties": {
        "hierarchy": [
          "tgn:1091931",
          "tgn:7001242",
          "tgn:7015046",
          "tgn:1000182",
          "tgn:7029392"
        ],
        "placetype": [
          "aat:300008347"
        ],
        "id": 1091931,
        "name:xx": "Dakingari"
      }
    },
    {
      "geometry": {
        "type": "Point",
        "coordinates": [
          11.3333,
          11.6833
        ]
      },
      "type": "Feature",
      "properties": {
        "hierarchy": [
          "tgn:1091932",
          "tgn:7001242",
          "tgn:7015050",
          "tgn:1000182",
          "tgn:7029392"
        ],
        "placetype": [
          "aat:300008347"
        ],
        "id": 1091932,
        "name:xx": "Damagun"
      }
    },
    {
      "geometry": {
        "type": "Point",
        "coordinates": [
          11.8333,
          11.8167
        ]
      },
      "type": "Feature",
      "properties": {
        "hierarchy": [
          "tgn:1091933",
          "tgn:7001242",
          "tgn:7015050",
          "tgn:1000182",
          "tgn:7029392"
        ],
        "placetype": [
          "aat:300008347",
          "aat:300387221",
          "aat:300008375"
        ],
        "id": 1091933,
        "name:xx": "Damaturu"
      }
    },
    {
      "geometry": {
        "type": "Point",
        "coordinates": [
          8.5167,
          12.4333
        ]
      },
      "type": "Feature",
      "properties": {
        "hierarchy": [
          "tgn:1091934",
          "tgn:7001242",
          "tgn:1001880",
          "tgn:1000182",
          "tgn:7029392"
        ],
        "placetype": [
          "aat:300008347"
        ],
        "id": 1091934,
        "name:xx": "Dambatta"
      }
    },
    {
      "geometry": {
        "type": "Point",
        "coordinates": [
          7.1333,
          11.45
        ]
      },
      "type": "Feature",
      "properties": {
        "hierarchy": [
          "tgn:1091935",
          "tgn:7001242",
          "tgn:7015580",
          "tgn:1000182",
          "tgn:7029392"
        ],
        "placetype": [
          "aat:300008347"
        ],
        "id": 1091935,
        "name:xx": "Dan Dume"
      }
    },
    {
      "geometry": {
        "type": "Point",
        "coordinates": [
          8.15,
          11.5333
        ]
      },
      "type": "Feature",
      "properties": {
        "hierarchy": [
          "tgn:1091936",
          "tgn:7001242",
          "tgn:1001880",
          "tgn:1000182",
          "tgn:7029392"
        ],
        "placetype": [
          "aat:300008347"
        ],
        "id": 1091936,
        "name:xx": "Dangora"
      }
    },
    {
      "geometry": {
        "type": "Point",
        "coordinates": [
          6.25,
          11.65
        ]
      },
      "type": "Feature",
      "properties": {
        "hierarchy": [
          "tgn:1091937",
          "tgn:7001242",
          "tgn:1001959",
          "tgn:1000182",
          "tgn:7029392"
        ],
        "placetype": [
          "aat:300008347"
        ],
        "id": 1091937,
        "name:xx": "Dan Gulbi"
      }
    },
    {
      "geometry": {
        "type": "Point",
        "coordinates": [
          5.35,
          12.85
        ]
      },
      "type": "Feature",
      "properties": {
        "hierarchy": [
          "tgn:1091938",
          "tgn:7001242",
          "tgn:1001959",
          "tgn:1000182",
          "tgn:7029392"
        ],
        "placetype": [
          "aat:300008347"
        ],
        "id": 1091938,
        "name:xx": "Dange"
      }
    },
    {
      "geometry": {
        "type": "Point",
        "coordinates": [
          7.5667,
          11.3833
        ]
      },
      "type": "Feature",
      "properties": {
        "hierarchy": [
          "tgn:1091939",
          "tgn:7001242",
          "tgn:7015580",
          "tgn:1000182",
          "tgn:7029392"
        ],
        "placetype": [
          "aat:300008347"
        ],
        "id": 1091939,
        "name:xx": "Danja"
      }
    }
  ]
}
