{
  "type": "FeatureCollection",
  "features": [
    {
      "geometry": {
        "type": "Point",
        "coordinates": [
          31.229543,
          30.005958
        ]
      },
      "type": "Feature",
      "properties": {
        "hierarchy": [
          "tgn:7539090",
          "tgn:7001242",
          "tgn:7016833",
          "tgn:1001091",
          "tgn:7029392"
        ],
        "placetype": [
          "aat:300007780"
        ],
        "id": 7539090,
        "name:xx": "Mārī Jirjis"
      }
    },
    {
      "geometry": {
        "type": "Point",
        "coordinates": [
          30.216667,
          31.066667
        ]
      },
      "type": "Feature",
      "properties": {
        "hierarchy": [
          "tgn:7539091",
          "tgn:7001242",
          "tgn:1001075",
          "tgn:7016833",
          "tgn:7029392"
        ],
        "placetype": [
          "aat:300000206"
        ],
        "name:en": "'Izbat al Marj",
        "id": 7539091
      }
    },
    {
      "geometry": {
        "type": "Point",
        "coordinates": [
          33.085663,
          23.298947
        ]
      },
      "type": "Feature",
      "properties": {
        "hierarchy": [
          "tgn:7539092",
          "tgn:7001242",
          "tgn:7016833",
          "tgn:7000122",
          "tgn:7029392"
        ],
        "placetype": [
          "aat:300379998"
        ],
        "name:en": "Mārīyah, Wādī",
        "id": 7539092
      }
    },
    {
      "geometry": {
        "type": "Point",
        "coordinates": [
          32.816667,
          23.333333
        ]
      },
      "type": "Feature",
      "properties": {
        "hierarchy": [
          "tgn:7539093",
          "tgn:7001242",
          "tgn:7016833",
          "tgn:7000122",
          "tgn:7029392"
        ],
        "placetype": [
          "aat:300055621"
        ],
        "name:en": "Mârîya",
        "id": 7539093
      }
    },
    {
      "geometry": {
        "type": "Point",
        "coordinates": [
          31.283333,
          29.933333
        ]
      },
      "type": "Feature",
      "properties": {
        "hierarchy": [
          "tgn:7539094",
          "tgn:7001242",
          "tgn:7016833",
          "tgn:1001091",
          "tgn:7029392"
        ],
        "placetype": [
          "aat:300000641"
        ],
        "name:en": "Dayr Mārī Jirjis",
        "id": 7539094
      }
    },
    {
      "geometry": {
        "type": "Point",
        "coordinates": [
          31.866667,
          26.233333
        ]
      },
      "type": "Feature",
      "properties": {
        "hierarchy": [
          "tgn:7539095",
          "tgn:7001242",
          "tgn:7016833",
          "tgn:7000123",
          "tgn:7029392"
        ],
        "placetype": [
          "aat:300000641"
        ],
        "name:en": "Dayr Mārī Jirjis",
        "id": 7539095
      }
    },
    {
      "geometry": {
        "type": "Point",
        "coordinates": [
          32.440907,
          25.562941
        ]
      },
      "type": "Feature",
      "properties": {
        "hierarchy": [
          "tgn:7539096",
          "tgn:7001242",
          "tgn:7016833",
          "tgn:7001334",
          "tgn:7029392"
        ],
        "placetype": [
          "aat:300000641"
        ],
        "name:en": "Dayr Mārī Jirjis",
        "id": 7539096
      }
    },
    {
      "geometry": {
        "type": "Point",
        "coordinates": [
          31.915833,
          31.3475
        ]
      },
      "type": "Feature",
      "properties": {
        "hierarchy": [
          "tgn:7539097",
          "tgn:7001242",
          "tgn:1001059",
          "tgn:7016833",
          "tgn:7029392"
        ],
        "placetype": [
          "aat:300008791"
        ],
        "name:en": "Marīḩ, Jazīrat al",
        "id": 7539097
      }
    },
    {
      "geometry": {
        "type": "Point",
        "coordinates": [
          32.833333,
          25.85
        ]
      },
      "type": "Feature",
      "properties": {
        "hierarchy": [
          "tgn:7539098",
          "tgn:7001242",
          "tgn:7016833",
          "tgn:7000123",
          "tgn:7029392"
        ],
        "placetype": [
          "aat:300000641"
        ],
        "name:en": "Dayr Mārī Buqţur",
        "id": 7539098
      }
    },
    {
      "geometry": {
        "type": "Point",
        "coordinates": [
          32.705593,
          25.815433
        ]
      },
      "type": "Feature",
      "properties": {
        "hierarchy": [
          "tgn:7539099",
          "tgn:7001242",
          "tgn:7016833",
          "tgn:7001334",
          "tgn:7029392"
        ],
        "placetype": [
          "aat:300000641"
        ],
        "name:en": "Dayr Mārī Buqţur",
        "id": 7539099
      }
    }
  ]
}
