{
  "type": "FeatureCollection",
  "features": [
    {
      "geometry": {
        "type": "Point",
        "coordinates": [
          74.252583,
          28.043184
        ]
      },
      "type": "Feature",
      "properties": {
        "hierarchy": [
          "tgn:7564320",
          "tgn:1000004",
          "tgn:7000198",
          "tgn:7016788",
          "tgn:7029392"
        ],
        "placetype": [
          "aat:300008347"
        ],
        "name:en": "Takiya",
        "id": 7564320
      }
    },
    {
      "geometry": {
        "type": "Point",
        "coordinates": [
          74.291617,
          28.103621
        ]
      },
      "type": "Feature",
      "properties": {
        "hierarchy": [
          "tgn:7564321",
          "tgn:1000004",
          "tgn:7000198",
          "tgn:7016788",
          "tgn:7029392"
        ],
        "placetype": [
          "aat:300008750"
        ],
        "name:en": "Hirnathal Dhora",
        "id": 7564321
      }
    },
    {
      "geometry": {
        "type": "Point",
        "coordinates": [
          74.289261,
          28.027404
        ]
      },
      "type": "Feature",
      "properties": {
        "hierarchy": [
          "tgn:7564322",
          "tgn:1000004",
          "tgn:7000198",
          "tgn:7016788",
          "tgn:7029392"
        ],
        "placetype": [
          "aat:300008750"
        ],
        "name:en": "Radāniyo Dhora",
        "id": 7564322
      }
    },
    {
      "geometry": {
        "type": "Point",
        "coordinates": [
          74.275042,
          28.093177
        ]
      },
      "type": "Feature",
      "properties": {
        "hierarchy": [
          "tgn:7564323",
          "tgn:1000004",
          "tgn:7000198",
          "tgn:7016788",
          "tgn:7029392"
        ],
        "placetype": [
          "aat:300006191"
        ],
        "name:en": "Saitāna Johra",
        "id": 7564323
      }
    },
    {
      "geometry": {
        "type": "Point",
        "coordinates": [
          74.30674,
          28.027385
        ]
      },
      "type": "Feature",
      "properties": {
        "hierarchy": [
          "tgn:7564324",
          "tgn:1000004",
          "tgn:7000198",
          "tgn:7016788",
          "tgn:7029392"
        ],
        "placetype": [
          "aat:300006191"
        ],
        "name:en": "Sālāi Johra",
        "id": 7564324
      }
    },
    {
      "geometry": {
        "type": "Point",
        "coordinates": [
          74.300012,
          28.013712
        ]
      },
      "type": "Feature",
      "properties": {
        "hierarchy": [
          "tgn:7564325",
          "tgn:1000004",
          "tgn:7000198",
          "tgn:7016788",
          "tgn:7029392"
        ],
        "placetype": [
          "aat:300006191"
        ],
        "name:en": "Jasnāna Thāno",
        "id": 7564325
      }
    },
    {
      "geometry": {
        "type": "Point",
        "coordinates": [
          74.322326,
          28.012791
        ]
      },
      "type": "Feature",
      "properties": {
        "hierarchy": [
          "tgn:7564326",
          "tgn:1000004",
          "tgn:7000198",
          "tgn:7016788",
          "tgn:7029392"
        ],
        "placetype": [
          "aat:300008750"
        ],
        "name:en": "Hakim Tibba",
        "id": 7564326
      }
    },
    {
      "geometry": {
        "type": "Point",
        "coordinates": [
          74.364787,
          28.062859
        ]
      },
      "type": "Feature",
      "properties": {
        "hierarchy": [
          "tgn:7564327",
          "tgn:1000004",
          "tgn:7000198",
          "tgn:7016788",
          "tgn:7029392"
        ],
        "placetype": [
          "aat:300008347"
        ],
        "name:en": "Jorāwarpura",
        "id": 7564327
      }
    },
    {
      "geometry": {
        "type": "Point",
        "coordinates": [
          74.370531,
          28.035829
        ]
      },
      "type": "Feature",
      "properties": {
        "hierarchy": [
          "tgn:7564328",
          "tgn:1000004",
          "tgn:7000198",
          "tgn:7016788",
          "tgn:7029392"
        ],
        "placetype": [
          "aat:300008347"
        ],
        "name:en": "Parsneu",
        "id": 7564328
      }
    },
    {
      "geometry": {
        "type": "Point",
        "coordinates": [
          74.429141,
          28.106731
        ]
      },
      "type": "Feature",
      "properties": {
        "hierarchy": [
          "tgn:7564329",
          "tgn:1000004",
          "tgn:7000198",
          "tgn:7016788",
          "tgn:7029392"
        ],
        "placetype": [
          "aat:300008347"
        ],
        "name:en": "Binnādesar",
        "id": 7564329
      }
    }
  ]
}
