{
  "type": "FeatureCollection",
  "features": [
    {
      "geometry": {
        "type": "Point",
        "coordinates": [
          121.342256,
          24.742111
        ]
      },
      "type": "Feature",
      "properties": {
        "hierarchy": [
          "tgn:7486190",
          "tgn:1000004",
          "tgn:7001013",
          "tgn:1000141",
          "tgn:7029392"
        ],
        "placetype": [
          "aat:300007836"
        ],
        "id": 7486190,
        "name:xx": "Ronghua Qiao"
      }
    },
    {
      "geometry": {
        "type": "Point",
        "coordinates": [
          121.34881,
          24.738878
        ]
      },
      "type": "Feature",
      "properties": {
        "hierarchy": [
          "tgn:7486191",
          "tgn:1000004",
          "tgn:7001013",
          "tgn:1000141",
          "tgn:7029392"
        ],
        "placetype": [
          "aat:300008347"
        ],
        "id": 7486191,
        "name:xx": "Ronghua"
      }
    },
    {
      "geometry": {
        "type": "Point",
        "coordinates": [
          121.280867,
          23.217071
        ]
      },
      "type": "Feature",
      "properties": {
        "hierarchy": [
          "tgn:7486192",
          "tgn:7001010",
          "tgn:1000004",
          "tgn:1000141",
          "tgn:7029392"
        ],
        "placetype": [
          "aat:300007836"
        ],
        "id": 7486192,
        "name:xx": "Rongxing Qiao"
      }
    },
    {
      "geometry": {
        "type": "Point",
        "coordinates": [
          120.899394,
          24.124906
        ]
      },
      "type": "Feature",
      "properties": {
        "hierarchy": [
          "tgn:7486194",
          "tgn:1000004",
          "tgn:7001009",
          "tgn:1000141",
          "tgn:7029392"
        ],
        "placetype": [
          "aat:300008347"
        ],
        "id": 7486194,
        "name:xx": "Niupingkeng"
      }
    },
    {
      "geometry": {
        "type": "Point",
        "coordinates": [
          119.95,
          26.166667
        ]
      },
      "type": "Feature",
      "properties": {
        "hierarchy": [
          "tgn:7486195",
          "tgn:7498210",
          "tgn:1000004",
          "tgn:1000141",
          "tgn:7029392"
        ],
        "placetype": [
          "aat:300008777"
        ],
        "id": 7486195,
        "name:xx": "Niubei Ling"
      }
    },
    {
      "geometry": {
        "type": "Point",
        "coordinates": [
          119.59751,
          23.587156
        ]
      },
      "type": "Feature",
      "properties": {
        "hierarchy": [
          "tgn:7486196",
          "tgn:1000004",
          "tgn:7004300",
          "tgn:1000141",
          "tgn:7029392"
        ],
        "placetype": [
          "aat:300386881"
        ],
        "id": 7486196,
        "name:xx": "Niumujian Yu"
      }
    },
    {
      "geometry": {
        "type": "Point",
        "coordinates": [
          120.66,
          23.562222
        ]
      },
      "type": "Feature",
      "properties": {
        "hierarchy": [
          "tgn:7486197",
          "tgn:7468018",
          "tgn:1000004",
          "tgn:1000141",
          "tgn:7029392"
        ],
        "placetype": [
          "aat:300008347"
        ],
        "id": 7486197,
        "name:xx": "Niumojiao"
      }
    },
    {
      "geometry": {
        "type": "Point",
        "coordinates": [
          120.980509,
          23.994587
        ]
      },
      "type": "Feature",
      "properties": {
        "hierarchy": [
          "tgn:7486198",
          "tgn:7488858",
          "tgn:1000004",
          "tgn:1000141",
          "tgn:7029392"
        ],
        "placetype": [
          "aat:300008795"
        ],
        "id": 7486198,
        "name:xx": "Niumian Shan"
      }
    },
    {
      "geometry": {
        "type": "Point",
        "coordinates": [
          120.975439,
          23.993097
        ]
      },
      "type": "Feature",
      "properties": {
        "hierarchy": [
          "tgn:7486199",
          "tgn:7488858",
          "tgn:1000004",
          "tgn:1000141",
          "tgn:7029392"
        ],
        "placetype": [
          "aat:300008347"
        ],
        "id": 7486199,
        "name:xx": "Niumian"
      }
    }
  ]
}
