{
  "type": "FeatureCollection",
  "features": [
    {
      "geometry": {
        "type": "Point",
        "coordinates": [
          81.766667,
          20.216667
        ]
      },
      "type": "Feature",
      "properties": {
        "hierarchy": [
          "tgn:7545880",
          "tgn:1000004",
          "tgn:7031781",
          "tgn:7000198",
          "tgn:7029392"
        ],
        "placetype": [
          "aat:300008347"
        ],
        "name:en": "Bāsanwāhi",
        "id": 7545880
      }
    },
    {
      "geometry": {
        "type": "Point",
        "coordinates": [
          84.663997,
          26.170064
        ]
      },
      "type": "Feature",
      "properties": {
        "hierarchy": [
          "tgn:7545881",
          "tgn:1000004",
          "tgn:1001842",
          "tgn:7000198",
          "tgn:7029392"
        ],
        "placetype": [
          "aat:300008347"
        ],
        "name:en": "Basantpur",
        "id": 7545881
      }
    },
    {
      "geometry": {
        "type": "Point",
        "coordinates": [
          87.465223,
          26.134441
        ]
      },
      "type": "Feature",
      "properties": {
        "hierarchy": [
          "tgn:7545882",
          "tgn:1000004",
          "tgn:1001842",
          "tgn:7000198",
          "tgn:7029392"
        ],
        "placetype": [
          "aat:300008347"
        ],
        "name:en": "Basantpur",
        "id": 7545882
      }
    },
    {
      "geometry": {
        "type": "Point",
        "coordinates": [
          85.399391,
          21.808132
        ]
      },
      "type": "Feature",
      "properties": {
        "hierarchy": [
          "tgn:7545883",
          "tgn:1000004",
          "tgn:7000198",
          "tgn:7016694",
          "tgn:7029392"
        ],
        "placetype": [
          "aat:300008347"
        ],
        "name:en": "Basantpur",
        "id": 7545883
      }
    },
    {
      "geometry": {
        "type": "Point",
        "coordinates": [
          75.544482,
          32.808861
        ]
      },
      "type": "Feature",
      "properties": {
        "hierarchy": [
          "tgn:7545885",
          "tgn:1000004",
          "tgn:7000198",
          "tgn:7000799",
          "tgn:7029392"
        ],
        "placetype": [
          "aat:300008347"
        ],
        "name:en": "Basantgarh",
        "id": 7545885
      }
    },
    {
      "geometry": {
        "type": "Point",
        "coordinates": [
          81.608079,
          22.909754
        ]
      },
      "type": "Feature",
      "properties": {
        "hierarchy": [
          "tgn:7545886",
          "tgn:1000004",
          "tgn:7000198",
          "tgn:1001894",
          "tgn:7029392"
        ],
        "placetype": [
          "aat:300008347"
        ],
        "name:en": "Basania",
        "id": 7545886
      }
    },
    {
      "geometry": {
        "type": "Point",
        "coordinates": [
          76.978018,
          27.293409
        ]
      },
      "type": "Feature",
      "properties": {
        "hierarchy": [
          "tgn:7545887",
          "tgn:1000004",
          "tgn:7000198",
          "tgn:7016788",
          "tgn:7029392"
        ],
        "placetype": [
          "aat:300008347"
        ],
        "name:en": "Baseth",
        "id": 7545887
      }
    },
    {
      "geometry": {
        "type": "Point",
        "coordinates": [
          77.779019,
          26.90259
        ]
      },
      "type": "Feature",
      "properties": {
        "hierarchy": [
          "tgn:7545888",
          "tgn:1000004",
          "tgn:7000198",
          "tgn:7016722",
          "tgn:7029392"
        ],
        "placetype": [
          "aat:300008347"
        ],
        "name:en": "Basai Nawāb",
        "id": 7545888
      }
    },
    {
      "geometry": {
        "type": "Point",
        "coordinates": [
          78.409174,
          25.15227
        ]
      },
      "type": "Feature",
      "properties": {
        "hierarchy": [
          "tgn:7545889",
          "tgn:1000004",
          "tgn:7000198",
          "tgn:1001894",
          "tgn:7029392"
        ],
        "placetype": [
          "aat:300008347"
        ],
        "name:en": "Basai",
        "id": 7545889
      }
    }
  ]
}
