{
  "type": "FeatureCollection",
  "features": [
    {
      "geometry": {
        "type": "Point",
        "coordinates": [
          76.45,
          19.25
        ]
      },
      "type": "Feature",
      "properties": {
        "hierarchy": [
          "tgn:7558450",
          "tgn:1000004",
          "tgn:7000198",
          "tgn:1001895",
          "tgn:7029392"
        ],
        "placetype": [
          "aat:300008347"
        ],
        "name:en": "Pāthri",
        "id": 7558450
      }
    },
    {
      "geometry": {
        "type": "Point",
        "coordinates": [
          81.736752,
          24.128492
        ]
      },
      "type": "Feature",
      "properties": {
        "hierarchy": [
          "tgn:7558451",
          "tgn:1000004",
          "tgn:7000198",
          "tgn:1001894",
          "tgn:7029392"
        ],
        "placetype": [
          "aat:300008347"
        ],
        "name:en": "Pathraula",
        "id": 7558451
      }
    },
    {
      "geometry": {
        "type": "Point",
        "coordinates": [
          85.313365,
          21.878267
        ]
      },
      "type": "Feature",
      "properties": {
        "hierarchy": [
          "tgn:7558452",
          "tgn:1000004",
          "tgn:7000198",
          "tgn:7016694",
          "tgn:7029392"
        ],
        "placetype": [
          "aat:300008347"
        ],
        "name:en": "Patholi",
        "id": 7558452
      }
    },
    {
      "geometry": {
        "type": "Point",
        "coordinates": [
          75.137067,
          28.155256
        ]
      },
      "type": "Feature",
      "properties": {
        "hierarchy": [
          "tgn:7558453",
          "tgn:1000004",
          "tgn:7000198",
          "tgn:7016788",
          "tgn:7029392"
        ],
        "placetype": [
          "aat:300008347"
        ],
        "name:en": "Pātoda",
        "id": 7558453
      }
    },
    {
      "geometry": {
        "type": "Point",
        "coordinates": [
          77.025449,
          27.125949
        ]
      },
      "type": "Feature",
      "properties": {
        "hierarchy": [
          "tgn:7558454",
          "tgn:1000004",
          "tgn:7000198",
          "tgn:7016788",
          "tgn:7029392"
        ],
        "placetype": [
          "aat:300008347"
        ],
        "name:en": "Pathena",
        "id": 7558454
      }
    },
    {
      "geometry": {
        "type": "Point",
        "coordinates": [
          72.301904,
          24.492209
        ]
      },
      "type": "Feature",
      "properties": {
        "hierarchy": [
          "tgn:7558455",
          "tgn:1000004",
          "tgn:1001869",
          "tgn:7000198",
          "tgn:7029392"
        ],
        "placetype": [
          "aat:300008347"
        ],
        "name:en": "Pānthāwāda",
        "id": 7558455
      }
    },
    {
      "geometry": {
        "type": "Point",
        "coordinates": [
          91.866667,
          26.466667
        ]
      },
      "type": "Feature",
      "properties": {
        "hierarchy": [
          "tgn:7558456",
          "tgn:1000004",
          "tgn:1001832",
          "tgn:7000198",
          "tgn:7029392"
        ],
        "placetype": [
          "aat:300008347"
        ],
        "name:en": "Pathārughāt",
        "id": 7558456
      }
    },
    {
      "geometry": {
        "type": "Point",
        "coordinates": [
          91.152347,
          25.624008
        ]
      },
      "type": "Feature",
      "properties": {
        "hierarchy": [
          "tgn:7558457",
          "tgn:1000004",
          "tgn:7000198",
          "tgn:1003539",
          "tgn:7029392"
        ],
        "placetype": [
          "aat:300008347"
        ],
        "name:en": "Patharkhnang",
        "id": 7558457
      }
    },
    {
      "geometry": {
        "type": "Point",
        "coordinates": [
          92.321368,
          24.608511
        ]
      },
      "type": "Feature",
      "properties": {
        "hierarchy": [
          "tgn:7558458",
          "tgn:1000004",
          "tgn:1001832",
          "tgn:7000198",
          "tgn:7029392"
        ],
        "placetype": [
          "aat:300008347"
        ],
        "name:en": "Pāthārkāndi",
        "id": 7558458
      }
    }
  ]
}
