{
  "type": "FeatureCollection",
  "features": [
    {
      "geometry": {
        "type": "Point",
        "coordinates": [
          32.289468,
          25.865553
        ]
      },
      "type": "Feature",
      "properties": {
        "hierarchy": [
          "tgn:7528410",
          "tgn:7001242",
          "tgn:7016833",
          "tgn:7001334",
          "tgn:7029392"
        ],
        "placetype": [
          "aat:300379998"
        ],
        "name:en": "Umm Ḩayf, Wādī",
        "id": 7528410
      }
    },
    {
      "geometry": {
        "type": "Point",
        "coordinates": [
          34.566667,
          24.633333
        ]
      },
      "type": "Feature",
      "properties": {
        "hierarchy": [
          "tgn:7528411",
          "tgn:7001242",
          "tgn:7001311",
          "tgn:7016833",
          "tgn:7029392"
        ],
        "placetype": [
          "aat:300006207"
        ],
        "name:en": "bi'r Umm Hayalān",
        "id": 7528411
      }
    },
    {
      "geometry": {
        "type": "Point",
        "coordinates": [
          35.260709,
          24.077631
        ]
      },
      "type": "Feature",
      "properties": {
        "hierarchy": [
          "tgn:7528412",
          "tgn:7001242",
          "tgn:7001311",
          "tgn:7016833",
          "tgn:7029392"
        ],
        "placetype": [
          "aat:300008795"
        ],
        "name:en": "Umm Hawk, Jabal",
        "id": 7528412
      }
    },
    {
      "geometry": {
        "type": "Point",
        "coordinates": [
          25.931391,
          29.337232
        ]
      },
      "type": "Feature",
      "properties": {
        "hierarchy": [
          "tgn:7528413",
          "tgn:7001242",
          "tgn:7016833",
          "tgn:1001418",
          "tgn:7029392"
        ],
        "placetype": [
          "aat:300386891"
        ],
        "name:en": "Umm Haweimil, Hatiyet",
        "id": 7528413
      }
    },
    {
      "geometry": {
        "type": "Point",
        "coordinates": [
          25.839752,
          29.452611
        ]
      },
      "type": "Feature",
      "properties": {
        "hierarchy": [
          "tgn:7528414",
          "tgn:7001242",
          "tgn:7016833",
          "tgn:1001418",
          "tgn:7029392"
        ],
        "placetype": [
          "aat:300055621"
        ],
        "name:en": "Umm Haweimil",
        "id": 7528414
      }
    },
    {
      "geometry": {
        "type": "Point",
        "coordinates": [
          33.666667,
          30.316667
        ]
      },
      "type": "Feature",
      "properties": {
        "hierarchy": [
          "tgn:7528415",
          "tgn:7001242",
          "tgn:7016833",
          "tgn:7001335",
          "tgn:7029392"
        ],
        "placetype": [
          "aat:300379998"
        ],
        "name:en": "Umm Hathab, Wâdi",
        "id": 7528415
      }
    },
    {
      "geometry": {
        "type": "Point",
        "coordinates": [
          34.914395,
          24.212307
        ]
      },
      "type": "Feature",
      "properties": {
        "hierarchy": [
          "tgn:7528416",
          "tgn:7001242",
          "tgn:7001311",
          "tgn:7016833",
          "tgn:7029392"
        ],
        "placetype": [
          "aat:300008795"
        ],
        "name:en": "Umm Hasidôk, Gebel",
        "id": 7528416
      }
    },
    {
      "geometry": {
        "type": "Point",
        "coordinates": [
          33.970717,
          29.186981
        ]
      },
      "type": "Feature",
      "properties": {
        "hierarchy": [
          "tgn:7528417",
          "tgn:7001242",
          "tgn:7016833",
          "tgn:7001336",
          "tgn:7029392"
        ],
        "placetype": [
          "aat:300379998"
        ],
        "name:en": "Marzī, Wādī",
        "id": 7528417
      }
    },
    {
      "geometry": {
        "type": "Point",
        "coordinates": [
          34.293414,
          24.535324
        ]
      },
      "type": "Feature",
      "properties": {
        "hierarchy": [
          "tgn:7528418",
          "tgn:7001242",
          "tgn:7001311",
          "tgn:7016833",
          "tgn:7029392"
        ],
        "placetype": [
          "aat:300379998"
        ],
        "name:en": "Umm Hargât, Wādī",
        "id": 7528418
      }
    },
    {
      "geometry": {
        "type": "Point",
        "coordinates": [
          34.815323,
          24.646678
        ]
      },
      "type": "Feature",
      "properties": {
        "hierarchy": [
          "tgn:7528419",
          "tgn:7001242",
          "tgn:7001311",
          "tgn:7016833",
          "tgn:7029392"
        ],
        "placetype": [
          "aat:300008795"
        ],
        "name:en": "Umm Ḩarbah, Jabal",
        "id": 7528419
      }
    }
  ]
}
