{
  "type": "FeatureCollection",
  "features": [
    {
      "geometry": {
        "type": "Point",
        "coordinates": [
          90.902758,
          25.755816
        ]
      },
      "type": "Feature",
      "properties": {
        "hierarchy": [
          "tgn:7588280",
          "tgn:1000004",
          "tgn:1001832",
          "tgn:7000198",
          "tgn:7029392"
        ],
        "placetype": [
          "aat:300008347"
        ],
        "name:en": "Agrophathal",
        "id": 7588280
      }
    },
    {
      "geometry": {
        "type": "Point",
        "coordinates": [
          90.90085,
          25.974709
        ]
      },
      "type": "Feature",
      "properties": {
        "hierarchy": [
          "tgn:7588281",
          "tgn:1000004",
          "tgn:1001832",
          "tgn:7000198",
          "tgn:7029392"
        ],
        "placetype": [
          "aat:300008347"
        ],
        "name:en": "Tilāpāra",
        "id": 7588281
      }
    },
    {
      "geometry": {
        "type": "Point",
        "coordinates": [
          90.653236,
          26.121703
        ]
      },
      "type": "Feature",
      "properties": {
        "hierarchy": [
          "tgn:7588282",
          "tgn:1000004",
          "tgn:1001832",
          "tgn:7000198",
          "tgn:7029392"
        ],
        "placetype": [
          "aat:300008347"
        ],
        "name:en": "Duaapāra",
        "id": 7588282
      }
    },
    {
      "geometry": {
        "type": "Point",
        "coordinates": [
          90.076613,
          26.258249
        ]
      },
      "type": "Feature",
      "properties": {
        "hierarchy": [
          "tgn:7588283",
          "tgn:1000004",
          "tgn:1001832",
          "tgn:7000198",
          "tgn:7029392"
        ],
        "placetype": [
          "aat:300008347"
        ],
        "name:en": "Duligaon",
        "id": 7588283
      }
    },
    {
      "geometry": {
        "type": "Point",
        "coordinates": [
          90.032529,
          26.289738
        ]
      },
      "type": "Feature",
      "properties": {
        "hierarchy": [
          "tgn:7588284",
          "tgn:1000004",
          "tgn:1001832",
          "tgn:7000198",
          "tgn:7029392"
        ],
        "placetype": [
          "aat:300008347"
        ],
        "name:en": "Tipkai",
        "id": 7588284
      }
    },
    {
      "geometry": {
        "type": "Point",
        "coordinates": [
          90.709646,
          26.389059
        ]
      },
      "type": "Feature",
      "properties": {
        "hierarchy": [
          "tgn:7588285",
          "tgn:1000004",
          "tgn:1001832",
          "tgn:7000198",
          "tgn:7029392"
        ],
        "placetype": [
          "aat:300008347"
        ],
        "name:en": "Pākhriguri",
        "id": 7588285
      }
    },
    {
      "geometry": {
        "type": "Point",
        "coordinates": [
          90.816325,
          26.453468
        ]
      },
      "type": "Feature",
      "properties": {
        "hierarchy": [
          "tgn:7588286",
          "tgn:1000004",
          "tgn:1001832",
          "tgn:7000198",
          "tgn:7029392"
        ],
        "placetype": [
          "aat:300008347"
        ],
        "name:en": "Bhātipāra",
        "id": 7588286
      }
    },
    {
      "geometry": {
        "type": "Point",
        "coordinates": [
          90.883692,
          26.50862
        ]
      },
      "type": "Feature",
      "properties": {
        "hierarchy": [
          "tgn:7588287",
          "tgn:1000004",
          "tgn:1001832",
          "tgn:7000198",
          "tgn:7029392"
        ],
        "placetype": [
          "aat:300008347"
        ],
        "name:en": "Ahompathār",
        "id": 7588287
      }
    },
    {
      "geometry": {
        "type": "Point",
        "coordinates": [
          90.517661,
          26.544212
        ]
      },
      "type": "Feature",
      "properties": {
        "hierarchy": [
          "tgn:7588288",
          "tgn:1000004",
          "tgn:1001832",
          "tgn:7000198",
          "tgn:7029392"
        ],
        "placetype": [
          "aat:300008347"
        ],
        "name:en": "Chhātibargaon",
        "id": 7588288
      }
    },
    {
      "geometry": {
        "type": "Point",
        "coordinates": [
          90.475867,
          26.710624
        ]
      },
      "type": "Feature",
      "properties": {
        "hierarchy": [
          "tgn:7588289",
          "tgn:1000004",
          "tgn:1001832",
          "tgn:7000198",
          "tgn:7029392"
        ],
        "placetype": [
          "aat:300008347"
        ],
        "name:en": "Malandubi",
        "id": 7588289
      }
    }
  ]
}
