{
  "type": "FeatureCollection",
  "features": [
    {
      "geometry": {
        "type": "Point",
        "coordinates": [
          -99.034167,
          19.174444
        ]
      },
      "type": "Feature",
      "properties": {
        "hierarchy": [
          "tgn:7397810",
          "tgn:7005575",
          "tgn:1000001",
          "tgn:7005560",
          "tgn:7029392"
        ],
        "placetype": [
          "aat:300008347"
        ],
        "id": 7397810,
        "name:xx": "San Lorenzo Tlacoyucan"
      }
    },
    {
      "geometry": {
        "type": "Point",
        "coordinates": [
          -99.050556,
          19.199722
        ]
      },
      "type": "Feature",
      "properties": {
        "hierarchy": [
          "tgn:7397811",
          "tgn:7005575",
          "tgn:1000001",
          "tgn:7005560",
          "tgn:7029392"
        ],
        "placetype": [
          "aat:300008347"
        ],
        "id": 7397811,
        "name:xx": "San Pedro Atocpan"
      }
    },
    {
      "geometry": {
        "type": "Point",
        "coordinates": [
          -99.246667,
          19.178333
        ]
      },
      "type": "Feature",
      "properties": {
        "hierarchy": [
          "tgn:7397814",
          "tgn:7005575",
          "tgn:1000001",
          "tgn:7005560",
          "tgn:7029392"
        ],
        "placetype": [
          "aat:300008347"
        ],
        "id": 7397814,
        "name:xx": "Caseta Forestal"
      }
    },
    {
      "geometry": {
        "type": "Point",
        "coordinates": [
          -99.486944,
          19.359722
        ]
      },
      "type": "Feature",
      "properties": {
        "hierarchy": [
          "tgn:7397816",
          "tgn:1000001",
          "tgn:1001893",
          "tgn:7005560",
          "tgn:7029392"
        ],
        "placetype": [
          "aat:300008347"
        ],
        "id": 7397816,
        "name:xx": "San Nicolás Peralta"
      }
    },
    {
      "geometry": {
        "type": "Point",
        "coordinates": [
          -99.394167,
          19.446111
        ]
      },
      "type": "Feature",
      "properties": {
        "hierarchy": [
          "tgn:7397817",
          "tgn:1000001",
          "tgn:1001893",
          "tgn:7005560",
          "tgn:7029392"
        ],
        "placetype": [
          "aat:300008795"
        ],
        "id": 7397817,
        "name:xx": "El Coyote, Cerro"
      }
    },
    {
      "geometry": {
        "type": "Point",
        "coordinates": [
          -99.031667,
          19.108333
        ]
      },
      "type": "Feature",
      "properties": {
        "hierarchy": [
          "tgn:7397818",
          "tgn:7005575",
          "tgn:1000001",
          "tgn:7005560",
          "tgn:7029392"
        ],
        "placetype": [
          "aat:300132325"
        ],
        "id": 7397818,
        "name:xx": "Tlaloc, Volcán"
      }
    },
    {
      "geometry": {
        "type": "Point",
        "coordinates": [
          -99.369444,
          19.338611
        ]
      },
      "type": "Feature",
      "properties": {
        "hierarchy": [
          "tgn:7397819",
          "tgn:1000001",
          "tgn:1001893",
          "tgn:7005560",
          "tgn:7029392"
        ],
        "placetype": [
          "aat:300007783"
        ],
        "id": 7397819,
        "name:xx": "Estación San Martín"
      }
    }
  ]
}
