{
  "type": "FeatureCollection",
  "features": [
    {
      "geometry": {
        "type": "Point",
        "coordinates": [
          -98.100556,
          16.690833
        ]
      },
      "type": "Feature",
      "properties": {
        "hierarchy": [
          "tgn:7415790",
          "tgn:1000001",
          "tgn:7005591",
          "tgn:7005560",
          "tgn:7029392"
        ],
        "placetype": [
          "aat:300008347"
        ],
        "id": 7415790,
        "name:es": "San Juan"
      }
    },
    {
      "geometry": {
        "type": "Point",
        "coordinates": [
          -98.018056,
          16.759722
        ]
      },
      "type": "Feature",
      "properties": {
        "hierarchy": [
          "tgn:7415791",
          "tgn:1000001",
          "tgn:7005591",
          "tgn:7005560",
          "tgn:7029392"
        ],
        "placetype": [
          "aat:300008347"
        ],
        "id": 7415791,
        "name:es": "Atotonilco"
      }
    },
    {
      "geometry": {
        "type": "Point",
        "coordinates": [
          -98.072222,
          16.766944
        ]
      },
      "type": "Feature",
      "properties": {
        "hierarchy": [
          "tgn:7415792",
          "tgn:1000001",
          "tgn:7005591",
          "tgn:7005560",
          "tgn:7029392"
        ],
        "placetype": [
          "aat:300008795"
        ],
        "id": 7415792,
        "name:es": "El Papalote, Cerro"
      }
    },
    {
      "geometry": {
        "type": "Point",
        "coordinates": [
          -101.005556,
          20.8125
        ]
      },
      "type": "Feature",
      "properties": {
        "hierarchy": [
          "tgn:7415793",
          "tgn:7005584",
          "tgn:1000001",
          "tgn:7005560",
          "tgn:7029392"
        ],
        "placetype": [
          "aat:300008347"
        ],
        "id": 7415793,
        "name:xx": "Santa Rita"
      }
    },
    {
      "geometry": {
        "type": "Point",
        "coordinates": [
          -101.015556,
          20.850556
        ]
      },
      "type": "Feature",
      "properties": {
        "hierarchy": [
          "tgn:7415794",
          "tgn:7005584",
          "tgn:1000001",
          "tgn:7005560",
          "tgn:7029392"
        ],
        "placetype": [
          "aat:300008811"
        ],
        "id": 7415794,
        "name:xx": "San José, Mesa"
      }
    },
    {
      "geometry": {
        "type": "Point",
        "coordinates": [
          -101.028333,
          20.861944
        ]
      },
      "type": "Feature",
      "properties": {
        "hierarchy": [
          "tgn:7415795",
          "tgn:7005584",
          "tgn:1000001",
          "tgn:7005560",
          "tgn:7029392"
        ],
        "placetype": [
          "aat:300008347"
        ],
        "id": 7415795,
        "name:xx": "San José de los Allende"
      }
    },
    {
      "geometry": {
        "type": "Point",
        "coordinates": [
          -101.046667,
          20.757778
        ]
      },
      "type": "Feature",
      "properties": {
        "hierarchy": [
          "tgn:7415796",
          "tgn:7005584",
          "tgn:1000001",
          "tgn:7005560",
          "tgn:7029392"
        ],
        "placetype": [
          "aat:300266554",
          "aat:300008699"
        ],
        "id": 7415796,
        "name:xx": "El Bordo, Arroyo"
      }
    },
    {
      "geometry": {
        "type": "Point",
        "coordinates": [
          -101.079444,
          20.808611
        ]
      },
      "type": "Feature",
      "properties": {
        "hierarchy": [
          "tgn:7415797",
          "tgn:7005584",
          "tgn:1000001",
          "tgn:7005560",
          "tgn:7029392"
        ],
        "placetype": [
          "aat:300008347"
        ],
        "id": 7415797,
        "name:xx": "Joya de Cortés"
      }
    },
    {
      "geometry": {
        "type": "Point",
        "coordinates": [
          -101.115833,
          20.830278
        ]
      },
      "type": "Feature",
      "properties": {
        "hierarchy": [
          "tgn:7415798",
          "tgn:7005584",
          "tgn:1000001",
          "tgn:7005560",
          "tgn:7029392"
        ],
        "placetype": [
          "aat:300008347"
        ],
        "id": 7415798,
        "name:xx": "Potrerillos"
      }
    },
    {
      "geometry": {
        "type": "Point",
        "coordinates": [
          -101.163889,
          20.8125
        ]
      },
      "type": "Feature",
      "properties": {
        "hierarchy": [
          "tgn:7415799",
          "tgn:7005584",
          "tgn:1000001",
          "tgn:7005560",
          "tgn:7029392"
        ],
        "placetype": [
          "aat:300266554",
          "aat:300008699"
        ],
        "id": 7415799,
        "name:xx": "El Carrizo, Arroyo"
      }
    }
  ]
}
