{
  "type": "FeatureCollection",
  "features": [
    {
      "geometry": {
        "type": "Point",
        "coordinates": [
          79.7675,
          27.0702
        ]
      },
      "type": "Feature",
      "properties": {
        "hierarchy": [
          "tgn:7562750",
          "tgn:1000004",
          "tgn:7000198",
          "tgn:7016722",
          "tgn:7029392"
        ],
        "placetype": [
          "aat:300008347"
        ],
        "name:en": "Jamālpur",
        "id": 7562750
      }
    },
    {
      "geometry": {
        "type": "Point",
        "coordinates": [
          79.7601,
          27.1086
        ]
      },
      "type": "Feature",
      "properties": {
        "hierarchy": [
          "tgn:7562751",
          "tgn:1000004",
          "tgn:7000198",
          "tgn:7016722",
          "tgn:7029392"
        ],
        "placetype": [
          "aat:300008347"
        ],
        "name:en": "Mīrgawān",
        "id": 7562751
      }
    },
    {
      "geometry": {
        "type": "Point",
        "coordinates": [
          79.7704,
          27.0965
        ]
      },
      "type": "Feature",
      "properties": {
        "hierarchy": [
          "tgn:7562752",
          "tgn:1000004",
          "tgn:7000198",
          "tgn:7016722",
          "tgn:7029392"
        ],
        "placetype": [
          "aat:300008347"
        ],
        "name:en": "Masīd Purwa",
        "id": 7562752
      }
    },
    {
      "geometry": {
        "type": "Point",
        "coordinates": [
          79.7799,
          27.0995
        ]
      },
      "type": "Feature",
      "properties": {
        "hierarchy": [
          "tgn:7562753",
          "tgn:1000004",
          "tgn:7000198",
          "tgn:7016722",
          "tgn:7029392"
        ],
        "placetype": [
          "aat:300007783"
        ],
        "name:en": "Khudiāpur Rail Station",
        "id": 7562753
      }
    },
    {
      "geometry": {
        "type": "Point",
        "coordinates": [
          79.777,
          27.0873
        ]
      },
      "type": "Feature",
      "properties": {
        "hierarchy": [
          "tgn:7562754",
          "tgn:1000004",
          "tgn:7000198",
          "tgn:7016722",
          "tgn:7029392"
        ],
        "placetype": [
          "aat:300008347"
        ],
        "name:en": "Khudiāpur",
        "id": 7562754
      }
    },
    {
      "geometry": {
        "type": "Point",
        "coordinates": [
          79.7788,
          27.0887
        ]
      },
      "type": "Feature",
      "properties": {
        "hierarchy": [
          "tgn:7562755",
          "tgn:1000004",
          "tgn:7000198",
          "tgn:7016722",
          "tgn:7029392"
        ],
        "placetype": [
          "aat:300008347"
        ],
        "name:en": "Nekpur",
        "id": 7562755
      }
    },
    {
      "geometry": {
        "type": "Point",
        "coordinates": [
          79.7857,
          27.0958
        ]
      },
      "type": "Feature",
      "properties": {
        "hierarchy": [
          "tgn:7562756",
          "tgn:1000004",
          "tgn:7000198",
          "tgn:7016722",
          "tgn:7029392"
        ],
        "placetype": [
          "aat:300008347"
        ],
        "name:en": "Hardeo Purwa",
        "id": 7562756
      }
    },
    {
      "geometry": {
        "type": "Point",
        "coordinates": [
          79.7925,
          27.0929
        ]
      },
      "type": "Feature",
      "properties": {
        "hierarchy": [
          "tgn:7562757",
          "tgn:1000004",
          "tgn:7000198",
          "tgn:7016722",
          "tgn:7029392"
        ],
        "placetype": [
          "aat:300008347"
        ],
        "name:en": "Gauriāpur",
        "id": 7562757
      }
    },
    {
      "geometry": {
        "type": "Point",
        "coordinates": [
          79.7875,
          27.0917
        ]
      },
      "type": "Feature",
      "properties": {
        "hierarchy": [
          "tgn:7562758",
          "tgn:1000004",
          "tgn:7000198",
          "tgn:7016722",
          "tgn:7029392"
        ],
        "placetype": [
          "aat:300008347"
        ],
        "name:en": "Partābpur",
        "id": 7562758
      }
    },
    {
      "geometry": {
        "type": "Point",
        "coordinates": [
          79.7943,
          27.0896
        ]
      },
      "type": "Feature",
      "properties": {
        "hierarchy": [
          "tgn:7562759",
          "tgn:1000004",
          "tgn:7000198",
          "tgn:7016722",
          "tgn:7029392"
        ],
        "placetype": [
          "aat:300008347"
        ],
        "name:en": "Dingsara",
        "id": 7562759
      }
    }
  ]
}
