{
  "type": "FeatureCollection",
  "features": [
    {
      "geometry": {
        "type": "Point",
        "coordinates": [
          79.898,
          6.96
        ]
      },
      "type": "Feature",
      "properties": {
        "hierarchy": [
          "tgn:7031750",
          "tgn:1000004",
          "tgn:7000408",
          "tgn:1000110",
          "tgn:7029392"
        ],
        "placetype": [
          "aat:300008347"
        ],
        "id": 7031750,
        "name:xx": "Kelaniya"
      }
    },
    {
      "geometry": {
        "type": "Point",
        "coordinates": [
          -8.485,
          40.097
        ]
      },
      "type": "Feature",
      "properties": {
        "hierarchy": [
          "tgn:7031751",
          "tgn:7003820",
          "tgn:1000003",
          "tgn:1000090",
          "tgn:7029392"
        ],
        "placetype": [
          "aat:300008347",
          "aat:300000810",
          "aat:300167671",
          "aat:300008057"
        ],
        "id": 7031751,
        "name:xx": "Conimbriga"
      }
    },
    {
      "geometry": {
        "type": "Point",
        "coordinates": [
          -8.498,
          40.115
        ]
      },
      "type": "Feature",
      "properties": {
        "hierarchy": [
          "tgn:7031753",
          "tgn:7003820",
          "tgn:1000003",
          "tgn:1000090",
          "tgn:7029392"
        ],
        "placetype": [
          "aat:300008347",
          "aat:300008375"
        ],
        "id": 7031753,
        "name:xx": "Condeixa-a-Nova"
      }
    },
    {
      "geometry": {
        "type": "Point",
        "coordinates": [
          -72.304,
          43.478
        ]
      },
      "type": "Feature",
      "properties": {
        "hierarchy": [
          "tgn:7031754",
          "tgn:1000001",
          "tgn:2001427",
          "tgn:7012149",
          "tgn:7007564",
          "tgn:7029392"
        ],
        "placetype": [
          "aat:300008347"
        ],
        "id": 7031754,
        "name:xx": "Cornish"
      }
    },
    {
      "geometry": {
        "type": "Point",
        "coordinates": [
          -6.145278,
          43.5625
        ]
      },
      "type": "Feature",
      "properties": {
        "hierarchy": [
          "tgn:7031755",
          "tgn:7008911",
          "tgn:1000003",
          "tgn:7002763",
          "tgn:1000095",
          "tgn:7029392"
        ],
        "placetype": [
          "aat:300008347"
        ],
        "id": 7031755,
        "name:xx": "Cudillero"
      }
    },
    {
      "geometry": {
        "type": "Point",
        "coordinates": [
          5.745,
          36.313
        ]
      },
      "type": "Feature",
      "properties": {
        "hierarchy": [
          "tgn:7031756",
          "tgn:7001242",
          "tgn:7016752",
          "tgn:1000769",
          "tgn:7029392"
        ],
        "placetype": [
          "aat:300008347"
        ],
        "id": 7031756,
        "name:xx": "Djemila"
      }
    },
    {
      "geometry": {
        "type": "Point",
        "coordinates": [
          -4.15,
          40.85
        ]
      },
      "type": "Feature",
      "properties": {
        "hierarchy": [
          "tgn:7031757",
          "tgn:7002839",
          "tgn:7001158",
          "tgn:1000003",
          "tgn:1000095",
          "tgn:7029392"
        ],
        "placetype": [
          "aat:300008347"
        ],
        "id": 7031757,
        "name:xx": "La Losa"
      }
    },
    {
      "geometry": {
        "type": "Point",
        "coordinates": [
          8.716667,
          48.966667
        ]
      },
      "type": "Feature",
      "properties": {
        "hierarchy": [
          "tgn:7031758",
          "tgn:7003692",
          "tgn:1000003",
          "tgn:7000084",
          "tgn:7029392"
        ],
        "placetype": [
          "aat:300008347"
        ],
        "id": 7031758,
        "name:xx": "Bauschlott"
      }
    },
    {
      "geometry": {
        "type": "Point",
        "coordinates": [
          -1.65,
          54.883333
        ]
      },
      "type": "Feature",
      "properties": {
        "hierarchy": [
          "tgn:7031759",
          "tgn:7002445",
          "tgn:1000003",
          "tgn:7008127",
          "tgn:7008591",
          "tgn:7029392"
        ],
        "placetype": [
          "aat:300007783"
        ],
        "name:en": "Beamish Station",
        "id": 7031759
      }
    }
  ]
}
