{
  "type": "FeatureCollection",
  "features": [
    {
      "geometry": {
        "type": "Point",
        "coordinates": [
          120.399542,
          23.165943
        ]
      },
      "type": "Feature",
      "properties": {
        "hierarchy": [
          "tgn:7482530",
          "tgn:1000004",
          "tgn:7490934",
          "tgn:1000141",
          "tgn:7029392"
        ],
        "placetype": [
          "aat:300008777"
        ],
        "id": 7482530,
        "name:xx": "Sanjian Shan"
      }
    },
    {
      "geometry": {
        "type": "Point",
        "coordinates": [
          120.39893,
          23.180211
        ]
      },
      "type": "Feature",
      "properties": {
        "hierarchy": [
          "tgn:7482531",
          "tgn:1000004",
          "tgn:7490934",
          "tgn:1000141",
          "tgn:7029392"
        ],
        "placetype": [
          "aat:300008347"
        ],
        "id": 7482531,
        "name:xx": "Dajing"
      }
    },
    {
      "geometry": {
        "type": "Point",
        "coordinates": [
          120.3629,
          23.1812
        ]
      },
      "type": "Feature",
      "properties": {
        "hierarchy": [
          "tgn:7482532",
          "tgn:1000004",
          "tgn:7490934",
          "tgn:1000141",
          "tgn:7029392"
        ],
        "placetype": [
          "aat:300008347"
        ],
        "id": 7482532,
        "name:xx": "Chaibu"
      }
    },
    {
      "geometry": {
        "type": "Point",
        "coordinates": [
          120.362623,
          23.184418
        ]
      },
      "type": "Feature",
      "properties": {
        "hierarchy": [
          "tgn:7482533",
          "tgn:1000004",
          "tgn:7490934",
          "tgn:1000141",
          "tgn:7029392"
        ],
        "placetype": [
          "aat:300008347"
        ],
        "id": 7482533,
        "name:xx": "Jiushe"
      }
    },
    {
      "geometry": {
        "type": "Point",
        "coordinates": [
          120.372564,
          23.188607
        ]
      },
      "type": "Feature",
      "properties": {
        "hierarchy": [
          "tgn:7482534",
          "tgn:1000004",
          "tgn:7490934",
          "tgn:1000141",
          "tgn:7029392"
        ],
        "placetype": [
          "aat:300008347"
        ],
        "id": 7482534,
        "name:xx": "Liantan"
      }
    },
    {
      "geometry": {
        "type": "Point",
        "coordinates": [
          120.379592,
          23.185535
        ]
      },
      "type": "Feature",
      "properties": {
        "hierarchy": [
          "tgn:7482535",
          "tgn:1000004",
          "tgn:7490934",
          "tgn:1000141",
          "tgn:7029392"
        ],
        "placetype": [
          "aat:300008777"
        ],
        "id": 7482535,
        "name:xx": "Woniu Shan"
      }
    },
    {
      "geometry": {
        "type": "Point",
        "coordinates": [
          120.375348,
          23.185264
        ]
      },
      "type": "Feature",
      "properties": {
        "hierarchy": [
          "tgn:7482536",
          "tgn:1000004",
          "tgn:7490934",
          "tgn:1000141",
          "tgn:7029392"
        ],
        "placetype": [
          "aat:300006610"
        ],
        "id": 7482536,
        "name:xx": "Guoli Tainan Yishu Xueyuan"
      }
    },
    {
      "geometry": {
        "type": "Point",
        "coordinates": [
          120.359909,
          23.195149
        ]
      },
      "type": "Feature",
      "properties": {
        "hierarchy": [
          "tgn:7482537",
          "tgn:1000004",
          "tgn:7490934",
          "tgn:1000141",
          "tgn:7029392"
        ],
        "placetype": [
          "aat:300007836"
        ],
        "id": 7482537,
        "name:xx": "Wushantou Qiao"
      }
    },
    {
      "geometry": {
        "type": "Point",
        "coordinates": [
          120.363739,
          23.212607
        ]
      },
      "type": "Feature",
      "properties": {
        "hierarchy": [
          "tgn:7482538",
          "tgn:1000004",
          "tgn:7490934",
          "tgn:1000141",
          "tgn:7029392"
        ],
        "placetype": [
          "aat:300007595"
        ],
        "id": 7482538,
        "name:xx": "Desheng Tang"
      }
    },
    {
      "geometry": {
        "type": "Point",
        "coordinates": [
          120.586944,
          23.703333
        ]
      },
      "type": "Feature",
      "properties": {
        "hierarchy": [
          "tgn:7482539",
          "tgn:1000004",
          "tgn:7001014",
          "tgn:1000141",
          "tgn:7029392"
        ],
        "placetype": [
          "aat:300007836"
        ],
        "id": 7482539,
        "name:xx": "Meilin Qiao"
      }
    }
  ]
}
