{
  "type": "FeatureCollection",
  "features": [
    {
      "geometry": {
        "type": "Point",
        "coordinates": [
          120.799058,
          24.234532
        ]
      },
      "type": "Feature",
      "properties": {
        "hierarchy": [
          "tgn:7499271",
          "tgn:1000004",
          "tgn:7001009",
          "tgn:1000141",
          "tgn:7029392"
        ],
        "placetype": [
          "aat:300008347"
        ],
        "id": 7499271,
        "name:xx": "Xiashe"
      }
    },
    {
      "geometry": {
        "type": "Point",
        "coordinates": [
          120.854862,
          24.163453
        ]
      },
      "type": "Feature",
      "properties": {
        "hierarchy": [
          "tgn:7499273",
          "tgn:1000004",
          "tgn:7001009",
          "tgn:1000141",
          "tgn:7029392"
        ],
        "placetype": [
          "aat:300008347"
        ],
        "id": 7499273,
        "name:xx": "Zhuhuding"
      }
    },
    {
      "geometry": {
        "type": "Point",
        "coordinates": [
          120.916048,
          24.030205
        ]
      },
      "type": "Feature",
      "properties": {
        "hierarchy": [
          "tgn:7499274",
          "tgn:7488858",
          "tgn:1000004",
          "tgn:1000141",
          "tgn:7029392"
        ],
        "placetype": [
          "aat:300007836"
        ],
        "id": 7499274,
        "name:xx": "Beicun Qiao"
      }
    },
    {
      "geometry": {
        "type": "Point",
        "coordinates": [
          120.8749,
          24.179846
        ]
      },
      "type": "Feature",
      "properties": {
        "hierarchy": [
          "tgn:7499275",
          "tgn:1000004",
          "tgn:7001009",
          "tgn:1000141",
          "tgn:7029392"
        ],
        "placetype": [
          "aat:300008347"
        ],
        "id": 7499275,
        "name:xx": "Waiheping"
      }
    },
    {
      "geometry": {
        "type": "Point",
        "coordinates": [
          120.764852,
          24.199287
        ]
      },
      "type": "Feature",
      "properties": {
        "hierarchy": [
          "tgn:7499276",
          "tgn:1000004",
          "tgn:7001009",
          "tgn:1000141",
          "tgn:7029392"
        ],
        "placetype": [
          "aat:300007836"
        ],
        "id": 7499276,
        "name:xx": "Minde Qiao"
      }
    },
    {
      "geometry": {
        "type": "Point",
        "coordinates": [
          120.949799,
          24.025084
        ]
      },
      "type": "Feature",
      "properties": {
        "hierarchy": [
          "tgn:7499277",
          "tgn:7488858",
          "tgn:1000004",
          "tgn:1000141",
          "tgn:7029392"
        ],
        "placetype": [
          "aat:300007595"
        ],
        "id": 7499277,
        "name:xx": "Shouzhen Gong"
      }
    },
    {
      "geometry": {
        "type": "Point",
        "coordinates": [
          120.885143,
          24.052481
        ]
      },
      "type": "Feature",
      "properties": {
        "hierarchy": [
          "tgn:7499278",
          "tgn:7488858",
          "tgn:1000004",
          "tgn:1000141",
          "tgn:7029392"
        ],
        "placetype": [
          "aat:300007836"
        ],
        "id": 7499278,
        "name:xx": "Gangmen Qiao"
      }
    },
    {
      "geometry": {
        "type": "Point",
        "coordinates": [
          120.964743,
          23.999659
        ]
      },
      "type": "Feature",
      "properties": {
        "hierarchy": [
          "tgn:7499279",
          "tgn:7488858",
          "tgn:1000004",
          "tgn:1000141",
          "tgn:7029392"
        ],
        "placetype": [
          "aat:300008347"
        ],
        "id": 7499279,
        "name:xx": "Tianluoku"
      }
    }
  ]
}
