{
  "type": "FeatureCollection",
  "features": [
    {
      "geometry": {
        "type": "Point",
        "coordinates": [
          -111.116111,
          30.831667
        ]
      },
      "type": "Feature",
      "properties": {
        "hierarchy": [
          "tgn:7398230",
          "tgn:1000001",
          "tgn:1001960",
          "tgn:7005560",
          "tgn:7029392"
        ],
        "placetype": [
          "aat:300132339"
        ],
        "id": 7398230,
        "name:xx": "Los Chinos, Mesa"
      }
    },
    {
      "geometry": {
        "type": "Point",
        "coordinates": [
          -111.109444,
          30.838611
        ]
      },
      "type": "Feature",
      "properties": {
        "hierarchy": [
          "tgn:7398231",
          "tgn:1000001",
          "tgn:1001960",
          "tgn:7005560",
          "tgn:7029392"
        ],
        "placetype": [
          "aat:300006191"
        ],
        "id": 7398231,
        "name:xx": "Malpaís"
      }
    },
    {
      "geometry": {
        "type": "Point",
        "coordinates": [
          -111.121667,
          30.842778
        ]
      },
      "type": "Feature",
      "properties": {
        "hierarchy": [
          "tgn:7398232",
          "tgn:1000001",
          "tgn:1001960",
          "tgn:7005560",
          "tgn:7029392"
        ],
        "placetype": [
          "aat:300006191"
        ],
        "id": 7398232,
        "name:xx": "Bordo Nuevo"
      }
    },
    {
      "geometry": {
        "type": "Point",
        "coordinates": [
          -111.136111,
          30.826389
        ]
      },
      "type": "Feature",
      "properties": {
        "hierarchy": [
          "tgn:7398233",
          "tgn:1000001",
          "tgn:1001960",
          "tgn:7005560",
          "tgn:7029392"
        ],
        "placetype": [
          "aat:300266554",
          "aat:300008699"
        ],
        "id": 7398233,
        "name:xx": "Los Moros"
      }
    },
    {
      "geometry": {
        "type": "Point",
        "coordinates": [
          -111.135278,
          30.842778
        ]
      },
      "type": "Feature",
      "properties": {
        "hierarchy": [
          "tgn:7398234",
          "tgn:1000001",
          "tgn:1001960",
          "tgn:7005560",
          "tgn:7029392"
        ],
        "placetype": [
          "aat:300266554",
          "aat:300008699"
        ],
        "id": 7398234,
        "name:xx": "Los Angulos"
      }
    },
    {
      "geometry": {
        "type": "Point",
        "coordinates": [
          -111.136944,
          30.813333
        ]
      },
      "type": "Feature",
      "properties": {
        "hierarchy": [
          "tgn:7398235",
          "tgn:1000001",
          "tgn:1001960",
          "tgn:7005560",
          "tgn:7029392"
        ],
        "placetype": [
          "aat:300006191"
        ],
        "id": 7398235,
        "name:xx": "Los Angulos"
      }
    },
    {
      "geometry": {
        "type": "Point",
        "coordinates": [
          -111.159167,
          30.759444
        ]
      },
      "type": "Feature",
      "properties": {
        "hierarchy": [
          "tgn:7398236",
          "tgn:1000001",
          "tgn:1001960",
          "tgn:7005560",
          "tgn:7029392"
        ],
        "placetype": [
          "aat:300266554",
          "aat:300008699"
        ],
        "id": 7398236,
        "name:xx": "El Alamito"
      }
    },
    {
      "geometry": {
        "type": "Point",
        "coordinates": [
          -111.174444,
          30.849722
        ]
      },
      "type": "Feature",
      "properties": {
        "hierarchy": [
          "tgn:7398237",
          "tgn:1000001",
          "tgn:1001960",
          "tgn:7005560",
          "tgn:7029392"
        ],
        "placetype": [
          "aat:300006191"
        ],
        "id": 7398237,
        "name:xx": "Los Caballos"
      }
    },
    {
      "geometry": {
        "type": "Point",
        "coordinates": [
          -111.1925,
          30.840833
        ]
      },
      "type": "Feature",
      "properties": {
        "hierarchy": [
          "tgn:7398238",
          "tgn:1000001",
          "tgn:1001960",
          "tgn:7005560",
          "tgn:7029392"
        ],
        "placetype": [
          "aat:300006191"
        ],
        "id": 7398238,
        "name:xx": "La Víbora"
      }
    },
    {
      "geometry": {
        "type": "Point",
        "coordinates": [
          -111.176111,
          30.757222
        ]
      },
      "type": "Feature",
      "properties": {
        "hierarchy": [
          "tgn:7398239",
          "tgn:1000001",
          "tgn:1001960",
          "tgn:7005560",
          "tgn:7029392"
        ],
        "placetype": [
          "aat:300266554",
          "aat:300008699"
        ],
        "id": 7398239,
        "name:xx": "Chupadero"
      }
    }
  ]
}
