{
  "type": "FeatureCollection",
  "features": [
    {
      "geometry": {
        "type": "Point",
        "coordinates": [
          -110.366667,
          24.116667
        ]
      },
      "type": "Feature",
      "properties": {
        "hierarchy": [
          "tgn:7364500",
          "tgn:1001836",
          "tgn:1000001",
          "tgn:7005560",
          "tgn:7029392"
        ],
        "placetype": [
          "aat:300008347"
        ],
        "id": 7364500,
        "name:xx": "El Zacatal"
      }
    },
    {
      "geometry": {
        "type": "Point",
        "coordinates": [
          -92.583333,
          18.583333
        ]
      },
      "type": "Feature",
      "properties": {
        "hierarchy": [
          "tgn:7364501",
          "tgn:1000001",
          "tgn:7005596",
          "tgn:7005560",
          "tgn:7029392"
        ],
        "placetype": [
          "aat:300008347"
        ],
        "id": 7364501,
        "name:xx": "El Yucatecal"
      }
    },
    {
      "geometry": {
        "type": "Point",
        "coordinates": [
          -95.433333,
          18.283333
        ]
      },
      "type": "Feature",
      "properties": {
        "hierarchy": [
          "tgn:7364502",
          "tgn:1000001",
          "tgn:7005599",
          "tgn:7005560",
          "tgn:7029392"
        ],
        "placetype": [
          "aat:300008347"
        ],
        "id": 7364502,
        "name:xx": "El Yuale"
      }
    },
    {
      "geometry": {
        "type": "Point",
        "coordinates": [
          -98.766667,
          24.416667
        ]
      },
      "type": "Feature",
      "properties": {
        "hierarchy": [
          "tgn:7364503",
          "tgn:1000001",
          "tgn:7005597",
          "tgn:7005560",
          "tgn:7029392"
        ],
        "placetype": [
          "aat:300008795"
        ],
        "id": 7364503,
        "name:xx": "El Yeso, Cerro"
      }
    },
    {
      "geometry": {
        "type": "Point",
        "coordinates": [
          -110.833333,
          30.566667
        ]
      },
      "type": "Feature",
      "properties": {
        "hierarchy": [
          "tgn:7364504",
          "tgn:1000001",
          "tgn:1001960",
          "tgn:7005560",
          "tgn:7029392"
        ],
        "placetype": [
          "aat:300008347"
        ],
        "id": 7364504,
        "name:xx": "El Yeso"
      }
    },
    {
      "geometry": {
        "type": "Point",
        "coordinates": [
          -105.183333,
          29.25
        ]
      },
      "type": "Feature",
      "properties": {
        "hierarchy": [
          "tgn:7364505",
          "tgn:7005581",
          "tgn:1000001",
          "tgn:7005560",
          "tgn:7029392"
        ],
        "placetype": [
          "aat:300008347"
        ],
        "id": 7364505,
        "name:xx": "El Yerbozo"
      }
    },
    {
      "geometry": {
        "type": "Point",
        "coordinates": [
          -99.796667,
          25.025556
        ]
      },
      "type": "Feature",
      "properties": {
        "hierarchy": [
          "tgn:7364506",
          "tgn:1000001",
          "tgn:7005589",
          "tgn:7005560",
          "tgn:7029392"
        ],
        "placetype": [
          "aat:300008347"
        ],
        "id": 7364506,
        "name:xx": "El Yerbanís"
      }
    },
    {
      "geometry": {
        "type": "Point",
        "coordinates": [
          -102.683333,
          23.133333
        ]
      },
      "type": "Feature",
      "properties": {
        "hierarchy": [
          "tgn:7364507",
          "tgn:1000001",
          "tgn:7005601",
          "tgn:7005560",
          "tgn:7029392"
        ],
        "placetype": [
          "aat:300008347"
        ],
        "id": 7364507,
        "name:xx": "El Yerbanís"
      }
    },
    {
      "geometry": {
        "type": "Point",
        "coordinates": [
          -107.816667,
          27.816667
        ]
      },
      "type": "Feature",
      "properties": {
        "hierarchy": [
          "tgn:7364508",
          "tgn:7005581",
          "tgn:1000001",
          "tgn:7005560",
          "tgn:7029392"
        ],
        "placetype": [
          "aat:300008347"
        ],
        "id": 7364508,
        "name:xx": "El Yeposo"
      }
    },
    {
      "geometry": {
        "type": "Point",
        "coordinates": [
          -107.916667,
          28.066667
        ]
      },
      "type": "Feature",
      "properties": {
        "hierarchy": [
          "tgn:7364509",
          "tgn:7005581",
          "tgn:1000001",
          "tgn:7005560",
          "tgn:7029392"
        ],
        "placetype": [
          "aat:300008347"
        ],
        "id": 7364509,
        "name:xx": "El Yepo"
      }
    }
  ]
}
