{
  "type": "FeatureCollection",
  "features": [
    {
      "geometry": {
        "type": "Point",
        "coordinates": [
          121.295103,
          24.839721
        ]
      },
      "type": "Feature",
      "properties": {
        "hierarchy": [
          "tgn:7496450",
          "tgn:1000004",
          "tgn:7001013",
          "tgn:1000141",
          "tgn:7029392"
        ],
        "placetype": [
          "aat:300008347"
        ],
        "id": 7496450,
        "name:xx": "Zhongjiaoban"
      }
    },
    {
      "geometry": {
        "type": "Point",
        "coordinates": [
          121.297611,
          24.854421
        ]
      },
      "type": "Feature",
      "properties": {
        "hierarchy": [
          "tgn:7496451",
          "tgn:1000004",
          "tgn:7001013",
          "tgn:1000141",
          "tgn:7029392"
        ],
        "placetype": [
          "aat:300008347"
        ],
        "id": 7496451,
        "name:xx": "Dongkou"
      }
    },
    {
      "geometry": {
        "type": "Point",
        "coordinates": [
          121.284836,
          24.846511
        ]
      },
      "type": "Feature",
      "properties": {
        "hierarchy": [
          "tgn:7496452",
          "tgn:1000004",
          "tgn:7001013",
          "tgn:1000141",
          "tgn:7029392"
        ],
        "placetype": [
          "aat:300008347"
        ],
        "id": 7496452,
        "name:xx": "Touliaodian"
      }
    },
    {
      "geometry": {
        "type": "Point",
        "coordinates": [
          121.299241,
          24.84225
        ]
      },
      "type": "Feature",
      "properties": {
        "hierarchy": [
          "tgn:7496453",
          "tgn:1000004",
          "tgn:7001013",
          "tgn:1000141",
          "tgn:7029392"
        ],
        "placetype": [
          "aat:300008347"
        ],
        "id": 7496453,
        "name:xx": "Cihu"
      }
    },
    {
      "geometry": {
        "type": "Point",
        "coordinates": [
          121.272003,
          24.844055
        ]
      },
      "type": "Feature",
      "properties": {
        "hierarchy": [
          "tgn:7496454",
          "tgn:1000004",
          "tgn:7001013",
          "tgn:1000141",
          "tgn:7029392"
        ],
        "placetype": [
          "aat:300008347"
        ],
        "id": 7496454,
        "name:xx": "Kantou"
      }
    },
    {
      "geometry": {
        "type": "Point",
        "coordinates": [
          121.27624,
          24.845494
        ]
      },
      "type": "Feature",
      "properties": {
        "hierarchy": [
          "tgn:7496455",
          "tgn:1000004",
          "tgn:7001013",
          "tgn:1000141",
          "tgn:7029392"
        ],
        "placetype": [
          "aat:300008347"
        ],
        "id": 7496455,
        "name:xx": "Shuitou"
      }
    },
    {
      "geometry": {
        "type": "Point",
        "coordinates": [
          121.281899,
          24.855698
        ]
      },
      "type": "Feature",
      "properties": {
        "hierarchy": [
          "tgn:7496456",
          "tgn:1000004",
          "tgn:7001013",
          "tgn:1000141",
          "tgn:7029392"
        ],
        "placetype": [
          "aat:300008347"
        ],
        "id": 7496456,
        "name:xx": "Dingbuwei"
      }
    },
    {
      "geometry": {
        "type": "Point",
        "coordinates": [
          121.261432,
          24.84931
        ]
      },
      "type": "Feature",
      "properties": {
        "hierarchy": [
          "tgn:7496457",
          "tgn:1000004",
          "tgn:7001013",
          "tgn:1000141",
          "tgn:7029392"
        ],
        "placetype": [
          "aat:300008347"
        ],
        "id": 7496457,
        "name:xx": "Hechuandi"
      }
    },
    {
      "geometry": {
        "type": "Point",
        "coordinates": [
          121.292914,
          24.856668
        ]
      },
      "type": "Feature",
      "properties": {
        "hierarchy": [
          "tgn:7496458",
          "tgn:1000004",
          "tgn:7001013",
          "tgn:1000141",
          "tgn:7029392"
        ],
        "placetype": [
          "aat:300008347"
        ],
        "id": 7496458,
        "name:xx": "Shuibiantou"
      }
    }
  ]
}
