{
  "type": "FeatureCollection",
  "features": [
    {
      "geometry": {
        "type": "Point",
        "coordinates": [
          120.22934,
          23.451761
        ]
      },
      "type": "Feature",
      "properties": {
        "hierarchy": [
          "tgn:7481090",
          "tgn:7468018",
          "tgn:1000004",
          "tgn:1000141",
          "tgn:7029392"
        ],
        "placetype": [
          "aat:300007836"
        ],
        "id": 7481090,
        "name:xx": "Yongshun Qiao"
      }
    },
    {
      "geometry": {
        "type": "Point",
        "coordinates": [
          120.244837,
          23.4488
        ]
      },
      "type": "Feature",
      "properties": {
        "hierarchy": [
          "tgn:7481091",
          "tgn:7468018",
          "tgn:1000004",
          "tgn:1000141",
          "tgn:7029392"
        ],
        "placetype": [
          "aat:300007836"
        ],
        "id": 7481091,
        "name:xx": "Paishuilu Qiao"
      }
    },
    {
      "geometry": {
        "type": "Point",
        "coordinates": [
          120.245157,
          23.475562
        ]
      },
      "type": "Feature",
      "properties": {
        "hierarchy": [
          "tgn:7481092",
          "tgn:7468018",
          "tgn:1000004",
          "tgn:1000141",
          "tgn:7029392"
        ],
        "placetype": [
          "aat:300007836"
        ],
        "id": 7481092,
        "name:xx": "Pozi Xi Daqiao"
      }
    },
    {
      "geometry": {
        "type": "Point",
        "coordinates": [
          120.2471,
          23.2565
        ]
      },
      "type": "Feature",
      "properties": {
        "hierarchy": [
          "tgn:7481093",
          "tgn:1000004",
          "tgn:7490934",
          "tgn:1000141",
          "tgn:7029392"
        ],
        "placetype": [
          "aat:300007836"
        ],
        "id": 7481093,
        "name:xx": "Ditougang Daqiao"
      }
    },
    {
      "geometry": {
        "type": "Point",
        "coordinates": [
          120.190581,
          23.26581
        ]
      },
      "type": "Feature",
      "properties": {
        "hierarchy": [
          "tgn:7481094",
          "tgn:1000004",
          "tgn:7490934",
          "tgn:1000141",
          "tgn:7029392"
        ],
        "placetype": [
          "aat:300007836"
        ],
        "id": 7481094,
        "name:xx": "Ergang Qiao"
      }
    },
    {
      "geometry": {
        "type": "Point",
        "coordinates": [
          120.2042,
          23.2531
        ]
      },
      "type": "Feature",
      "properties": {
        "hierarchy": [
          "tgn:7481095",
          "tgn:1000004",
          "tgn:7490934",
          "tgn:1000141",
          "tgn:7029392"
        ],
        "placetype": [
          "aat:300007836"
        ],
        "id": 7481095,
        "name:xx": "Zhaigang Qiao"
      }
    },
    {
      "geometry": {
        "type": "Point",
        "coordinates": [
          120.207276,
          23.260735
        ]
      },
      "type": "Feature",
      "properties": {
        "hierarchy": [
          "tgn:7481096",
          "tgn:1000004",
          "tgn:7490934",
          "tgn:1000141",
          "tgn:7029392"
        ],
        "placetype": [
          "aat:300007836"
        ],
        "id": 7481096,
        "name:xx": "Jingang Qiao"
      }
    },
    {
      "geometry": {
        "type": "Point",
        "coordinates": [
          120.1295,
          23.2521
        ]
      },
      "type": "Feature",
      "properties": {
        "hierarchy": [
          "tgn:7481097",
          "tgn:1000004",
          "tgn:7490934",
          "tgn:1000141",
          "tgn:7029392"
        ],
        "placetype": [
          "aat:300007836"
        ],
        "id": 7481097,
        "name:xx": "Zizhi Qiao"
      }
    },
    {
      "geometry": {
        "type": "Point",
        "coordinates": [
          120.1175,
          23.2523
        ]
      },
      "type": "Feature",
      "properties": {
        "hierarchy": [
          "tgn:7481098",
          "tgn:1000004",
          "tgn:7490934",
          "tgn:1000141",
          "tgn:7029392"
        ],
        "placetype": [
          "aat:300007836"
        ],
        "id": 7481098,
        "name:xx": "Huaguang Qiao"
      }
    },
    {
      "geometry": {
        "type": "Point",
        "coordinates": [
          120.1194,
          23.25667
        ]
      },
      "type": "Feature",
      "properties": {
        "hierarchy": [
          "tgn:7481099",
          "tgn:1000004",
          "tgn:7490934",
          "tgn:1000141",
          "tgn:7029392"
        ],
        "placetype": [
          "aat:300008347"
        ],
        "id": 7481099,
        "name:xx": "Yonghua"
      }
    }
  ]
}
