{
  "type": "FeatureCollection",
  "features": [
    {
      "geometry": {
        "type": "Point",
        "coordinates": [
          31.053611,
          31.57
        ]
      },
      "type": "Feature",
      "properties": {
        "hierarchy": [
          "tgn:7528791",
          "tgn:7001242",
          "tgn:7016833",
          "tgn:1001335",
          "tgn:7029392"
        ],
        "placetype": [
          "aat:300008347"
        ],
        "name:en": "Sûq el-Tatât",
        "id": 7528791
      }
    },
    {
      "geometry": {
        "type": "Point",
        "coordinates": [
          30.85,
          29.283333
        ]
      },
      "type": "Feature",
      "properties": {
        "hierarchy": [
          "tgn:7528793",
          "tgn:7001242",
          "tgn:7001105",
          "tgn:7016833",
          "tgn:7029392"
        ],
        "placetype": [
          "aat:300008347"
        ],
        "name:en": "Sunūfar",
        "id": 7528793
      }
    },
    {
      "geometry": {
        "type": "Point",
        "coordinates": [
          30.476355,
          30.975467
        ]
      },
      "type": "Feature",
      "properties": {
        "hierarchy": [
          "tgn:7528794",
          "tgn:7001242",
          "tgn:1001075",
          "tgn:7016833",
          "tgn:7029392"
        ],
        "placetype": [
          "aat:300008347"
        ],
        "name:en": "Sunţays",
        "id": 7528794
      }
    },
    {
      "geometry": {
        "type": "Point",
        "coordinates": [
          34.790075,
          23.430991
        ]
      },
      "type": "Feature",
      "properties": {
        "hierarchy": [
          "tgn:7528795",
          "tgn:7001242",
          "tgn:7001311",
          "tgn:7016833",
          "tgn:7029392"
        ],
        "placetype": [
          "aat:300006207"
        ],
        "name:en": "Bi'r as Sunţah",
        "id": 7528795
      }
    },
    {
      "geometry": {
        "type": "Point",
        "coordinates": [
          31.798524,
          30.81839
        ]
      },
      "type": "Feature",
      "properties": {
        "hierarchy": [
          "tgn:7528797",
          "tgn:7001242",
          "tgn:7016833",
          "tgn:1001113",
          "tgn:7029392"
        ],
        "placetype": [
          "aat:300008347"
        ],
        "name:en": "As Sunayţah",
        "id": 7528797
      }
    },
    {
      "geometry": {
        "type": "Point",
        "coordinates": [
          31.363551,
          30.576684
        ]
      },
      "type": "Feature",
      "properties": {
        "hierarchy": [
          "tgn:7528798",
          "tgn:7001242",
          "tgn:7016833",
          "tgn:1001113",
          "tgn:7029392"
        ],
        "placetype": [
          "aat:300008347"
        ],
        "id": 7528798,
        "name:xx": "Sunayţat Abū Ţawwālah"
      }
    },
    {
      "geometry": {
        "type": "Point",
        "coordinates": [
          31.278203,
          30.887501
        ]
      },
      "type": "Feature",
      "properties": {
        "hierarchy": [
          "tgn:7528799",
          "tgn:7001242",
          "tgn:1001059",
          "tgn:7016833",
          "tgn:7029392"
        ],
        "placetype": [
          "aat:300008347"
        ],
        "name:en": "As Sinayţah",
        "id": 7528799
      }
    }
  ]
}
