{
  "type": "FeatureCollection",
  "features": [
    {
      "geometry": {
        "type": "Point",
        "coordinates": [
          120.530833,
          23.185833
        ]
      },
      "type": "Feature",
      "properties": {
        "hierarchy": [
          "tgn:7483500",
          "tgn:1000004",
          "tgn:7490934",
          "tgn:1000141",
          "tgn:7029392"
        ],
        "placetype": [
          "aat:300008347"
        ],
        "id": 7483500,
        "name:xx": "Xiangjiaoshan"
      }
    },
    {
      "geometry": {
        "type": "Point",
        "coordinates": [
          120.556667,
          23.190556
        ]
      },
      "type": "Feature",
      "properties": {
        "hierarchy": [
          "tgn:7483501",
          "tgn:1000004",
          "tgn:7490934",
          "tgn:1000141",
          "tgn:7029392"
        ],
        "placetype": [
          "aat:300008798"
        ],
        "id": 7483501,
        "name:xx": "Huliaokeng Shan"
      }
    },
    {
      "geometry": {
        "type": "Point",
        "coordinates": [
          120.525556,
          23.196667
        ]
      },
      "type": "Feature",
      "properties": {
        "hierarchy": [
          "tgn:7483502",
          "tgn:1000004",
          "tgn:7490934",
          "tgn:1000141",
          "tgn:7029392"
        ],
        "placetype": [
          "aat:300008347"
        ],
        "id": 7483502,
        "name:xx": "Gongguan"
      }
    },
    {
      "geometry": {
        "type": "Point",
        "coordinates": [
          120.522778,
          23.195556
        ]
      },
      "type": "Feature",
      "properties": {
        "hierarchy": [
          "tgn:7483503",
          "tgn:1000004",
          "tgn:7490934",
          "tgn:1000141",
          "tgn:7029392"
        ],
        "placetype": [
          "aat:300008347"
        ],
        "id": 7483503,
        "name:xx": "Pizinei"
      }
    },
    {
      "geometry": {
        "type": "Point",
        "coordinates": [
          120.508889,
          23.194444
        ]
      },
      "type": "Feature",
      "properties": {
        "hierarchy": [
          "tgn:7483504",
          "tgn:1000004",
          "tgn:7490934",
          "tgn:1000141",
          "tgn:7029392"
        ],
        "placetype": [
          "aat:300387033"
        ],
        "id": 7483504,
        "name:xx": "Luzhitan Shan"
      }
    },
    {
      "geometry": {
        "type": "Point",
        "coordinates": [
          120.522222,
          23.202778
        ]
      },
      "type": "Feature",
      "properties": {
        "hierarchy": [
          "tgn:7483505",
          "tgn:1000004",
          "tgn:7490934",
          "tgn:1000141",
          "tgn:7029392"
        ],
        "placetype": [
          "aat:300008347"
        ],
        "id": 7483505,
        "name:xx": "Dongshikeng"
      }
    },
    {
      "geometry": {
        "type": "Point",
        "coordinates": [
          120.523056,
          23.205278
        ]
      },
      "type": "Feature",
      "properties": {
        "hierarchy": [
          "tgn:7483506",
          "tgn:1000004",
          "tgn:7490934",
          "tgn:1000141",
          "tgn:7029392"
        ],
        "placetype": [
          "aat:300008347"
        ],
        "id": 7483506,
        "name:xx": "Fangzitou"
      }
    },
    {
      "geometry": {
        "type": "Point",
        "coordinates": [
          120.539722,
          23.204167
        ]
      },
      "type": "Feature",
      "properties": {
        "hierarchy": [
          "tgn:7483507",
          "tgn:1000004",
          "tgn:7490934",
          "tgn:1000141",
          "tgn:7029392"
        ],
        "placetype": [
          "aat:300008347"
        ],
        "id": 7483507,
        "name:xx": "Xinshequ"
      }
    },
    {
      "geometry": {
        "type": "Point",
        "coordinates": [
          120.555,
          23.209444
        ]
      },
      "type": "Feature",
      "properties": {
        "hierarchy": [
          "tgn:7483508",
          "tgn:1000004",
          "tgn:7490934",
          "tgn:1000141",
          "tgn:7029392"
        ],
        "placetype": [
          "aat:300008347"
        ],
        "id": 7483508,
        "name:xx": "Baoziliao"
      }
    },
    {
      "geometry": {
        "type": "Point",
        "coordinates": [
          120.535,
          23.211389
        ]
      },
      "type": "Feature",
      "properties": {
        "hierarchy": [
          "tgn:7483509",
          "tgn:1000004",
          "tgn:7490934",
          "tgn:1000141",
          "tgn:7029392"
        ],
        "placetype": [
          "aat:300007836"
        ],
        "id": 7483509,
        "name:xx": "Ziqiang Qiao"
      }
    }
  ]
}
