{
  "type": "FeatureCollection",
  "features": [
    {
      "geometry": {
        "type": "Point",
        "coordinates": [
          79.447146,
          26.064508
        ]
      },
      "type": "Feature",
      "properties": {
        "hierarchy": [
          "tgn:7565780",
          "tgn:1000004",
          "tgn:7000198",
          "tgn:7016722",
          "tgn:7029392"
        ],
        "placetype": [
          "aat:300008347"
        ],
        "name:en": "R큰ra Addu",
        "id": 7565780
      }
    },
    {
      "geometry": {
        "type": "Point",
        "coordinates": [
          79.459911,
          26.053729
        ]
      },
      "type": "Feature",
      "properties": {
        "hierarchy": [
          "tgn:7565781",
          "tgn:1000004",
          "tgn:7000198",
          "tgn:7016722",
          "tgn:7029392"
        ],
        "placetype": [
          "aat:300008347"
        ],
        "name:en": "Amgaw훮n",
        "id": 7565781
      }
    },
    {
      "geometry": {
        "type": "Point",
        "coordinates": [
          79.474074,
          26.057551
        ]
      },
      "type": "Feature",
      "properties": {
        "hierarchy": [
          "tgn:7565782",
          "tgn:1000004",
          "tgn:7000198",
          "tgn:7016722",
          "tgn:7029392"
        ],
        "placetype": [
          "aat:300008347"
        ],
        "name:en": "Garha Khurd",
        "id": 7565782
      }
    },
    {
      "geometry": {
        "type": "Point",
        "coordinates": [
          79.45962,
          26.066901
        ]
      },
      "type": "Feature",
      "properties": {
        "hierarchy": [
          "tgn:7565783",
          "tgn:1000004",
          "tgn:7000198",
          "tgn:7016722",
          "tgn:7029392"
        ],
        "placetype": [
          "aat:300008347"
        ],
        "name:en": "Lah큰ra",
        "id": 7565783
      }
    },
    {
      "geometry": {
        "type": "Point",
        "coordinates": [
          79.477383,
          26.076227
        ]
      },
      "type": "Feature",
      "properties": {
        "hierarchy": [
          "tgn:7565784",
          "tgn:1000004",
          "tgn:7000198",
          "tgn:7016722",
          "tgn:7029392"
        ],
        "placetype": [
          "aat:300008347"
        ],
        "name:en": "Aunta",
        "id": 7565784
      }
    },
    {
      "geometry": {
        "type": "Point",
        "coordinates": [
          79.436629,
          26.116911
        ]
      },
      "type": "Feature",
      "properties": {
        "hierarchy": [
          "tgn:7565785",
          "tgn:1000004",
          "tgn:7000198",
          "tgn:7016722",
          "tgn:7029392"
        ],
        "placetype": [
          "aat:300008347"
        ],
        "name:en": "Karanpura",
        "id": 7565785
      }
    },
    {
      "geometry": {
        "type": "Point",
        "coordinates": [
          79.152312,
          24.656259
        ]
      },
      "type": "Feature",
      "properties": {
        "hierarchy": [
          "tgn:7565786",
          "tgn:1000004",
          "tgn:7000198",
          "tgn:1001894",
          "tgn:7029392"
        ],
        "placetype": [
          "aat:300008347"
        ],
        "name:en": "Lamera",
        "id": 7565786
      }
    },
    {
      "geometry": {
        "type": "Point",
        "coordinates": [
          79.131854,
          24.660348
        ]
      },
      "type": "Feature",
      "properties": {
        "hierarchy": [
          "tgn:7565787",
          "tgn:1000004",
          "tgn:7000198",
          "tgn:1001894",
          "tgn:7029392"
        ],
        "placetype": [
          "aat:300008347"
        ],
        "name:en": "Gadariy훮na",
        "id": 7565787
      }
    },
    {
      "geometry": {
        "type": "Point",
        "coordinates": [
          79.126031,
          24.66573
        ]
      },
      "type": "Feature",
      "properties": {
        "hierarchy": [
          "tgn:7565788",
          "tgn:1000004",
          "tgn:7000198",
          "tgn:1001894",
          "tgn:7029392"
        ],
        "placetype": [
          "aat:300008347"
        ],
        "name:en": "Dikoli",
        "id": 7565788
      }
    },
    {
      "geometry": {
        "type": "Point",
        "coordinates": [
          79.086228,
          24.663928
        ]
      },
      "type": "Feature",
      "properties": {
        "hierarchy": [
          "tgn:7565789",
          "tgn:1000004",
          "tgn:7000198",
          "tgn:1001894",
          "tgn:7029392"
        ],
        "placetype": [
          "aat:300008347"
        ],
        "name:en": "Sati",
        "id": 7565789
      }
    }
  ]
}
