{
  "type": "FeatureCollection",
  "features": [
    {
      "geometry": {
        "type": "Point",
        "coordinates": [
          120.390278,
          22.9275
        ]
      },
      "type": "Feature",
      "properties": {
        "hierarchy": [
          "tgn:7500902",
          "tgn:1000004",
          "tgn:7490934",
          "tgn:1000141",
          "tgn:7029392"
        ],
        "placetype": [
          "aat:300006495"
        ],
        "id": 7500902,
        "name:xx": "Daping Guoxiao Fenxiao"
      }
    },
    {
      "geometry": {
        "type": "Point",
        "coordinates": [
          120.404167,
          22.947222
        ]
      },
      "type": "Feature",
      "properties": {
        "hierarchy": [
          "tgn:7500903",
          "tgn:1000004",
          "tgn:7490934",
          "tgn:1000141",
          "tgn:7029392"
        ],
        "placetype": [
          "aat:300007836"
        ],
        "id": 7500903,
        "name:xx": "Shicao Qiao"
      }
    },
    {
      "geometry": {
        "type": "Point",
        "coordinates": [
          120.42,
          22.965833
        ]
      },
      "type": "Feature",
      "properties": {
        "hierarchy": [
          "tgn:7500905",
          "tgn:1000004",
          "tgn:7490934",
          "tgn:1000141",
          "tgn:7029392"
        ],
        "placetype": [
          "aat:300008347"
        ],
        "id": 7500905,
        "name:xx": "Kengnei"
      }
    },
    {
      "geometry": {
        "type": "Point",
        "coordinates": [
          120.465556,
          22.975
        ]
      },
      "type": "Feature",
      "properties": {
        "hierarchy": [
          "tgn:7500906",
          "tgn:7001004",
          "tgn:1000004",
          "tgn:1000141",
          "tgn:7029392"
        ],
        "placetype": [
          "aat:300007836"
        ],
        "id": 7500906,
        "name:xx": "Changliaobu Qiao"
      }
    },
    {
      "geometry": {
        "type": "Point",
        "coordinates": [
          120.702778,
          24.381389
        ]
      },
      "type": "Feature",
      "properties": {
        "hierarchy": [
          "tgn:7500907",
          "tgn:7487020",
          "tgn:1000004",
          "tgn:1000141",
          "tgn:7029392"
        ],
        "placetype": [
          "aat:300008347"
        ],
        "id": 7500907,
        "name:xx": "Nanlukou"
      }
    },
    {
      "geometry": {
        "type": "Point",
        "coordinates": [
          120.721389,
          24.387778
        ]
      },
      "type": "Feature",
      "properties": {
        "hierarchy": [
          "tgn:7500908",
          "tgn:7487020",
          "tgn:1000004",
          "tgn:1000141",
          "tgn:7029392"
        ],
        "placetype": [
          "aat:300008347"
        ],
        "id": 7500908,
        "name:xx": "Shigu"
      }
    },
    {
      "geometry": {
        "type": "Point",
        "coordinates": [
          120.691389,
          24.38
        ]
      },
      "type": "Feature",
      "properties": {
        "hierarchy": [
          "tgn:7500909",
          "tgn:7487020",
          "tgn:1000004",
          "tgn:1000141",
          "tgn:7029392"
        ],
        "placetype": [
          "aat:300008347"
        ],
        "id": 7500909,
        "name:xx": "Sitiaohu"
      }
    }
  ]
}
