{
  "type": "FeatureCollection",
  "features": [
    {
      "geometry": {
        "type": "Point",
        "coordinates": [
          -103.733333,
          22.233333
        ]
      },
      "type": "Feature",
      "properties": {
        "hierarchy": [
          "tgn:7377310",
          "tgn:7005586",
          "tgn:1000001",
          "tgn:7005560",
          "tgn:7029392"
        ],
        "placetype": [
          "aat:300008347"
        ],
        "id": 7377310,
        "name:xx": "Laureles"
      }
    },
    {
      "geometry": {
        "type": "Point",
        "coordinates": [
          -101.733333,
          21.183333
        ]
      },
      "type": "Feature",
      "properties": {
        "hierarchy": [
          "tgn:7377311",
          "tgn:7005584",
          "tgn:1000001",
          "tgn:7005560",
          "tgn:7029392"
        ],
        "placetype": [
          "aat:300008347"
        ],
        "id": 7377311,
        "name:xx": "Laurel de Lagunillas"
      }
    },
    {
      "geometry": {
        "type": "Point",
        "coordinates": [
          -103.366667,
          21.816667
        ]
      },
      "type": "Feature",
      "properties": {
        "hierarchy": [
          "tgn:7377312",
          "tgn:1000001",
          "tgn:7005601",
          "tgn:7005560",
          "tgn:7029392"
        ],
        "placetype": [
          "aat:300008347"
        ],
        "id": 7377312,
        "name:xx": "Laurel"
      }
    },
    {
      "geometry": {
        "type": "Point",
        "coordinates": [
          -98.966667,
          24.566667
        ]
      },
      "type": "Feature",
      "properties": {
        "hierarchy": [
          "tgn:7377313",
          "tgn:1000001",
          "tgn:7005597",
          "tgn:7005560",
          "tgn:7029392"
        ],
        "placetype": [
          "aat:300008347"
        ],
        "id": 7377313,
        "name:xx": "La Unión Morales"
      }
    },
    {
      "geometry": {
        "type": "Point",
        "coordinates": [
          -103.35,
          20.516667
        ]
      },
      "type": "Feature",
      "properties": {
        "hierarchy": [
          "tgn:7377314",
          "tgn:7005586",
          "tgn:1000001",
          "tgn:7005560",
          "tgn:7029392"
        ],
        "placetype": [
          "aat:300008347"
        ],
        "id": 7377314,
        "name:xx": "La Unión del Cuatro"
      }
    },
    {
      "geometry": {
        "type": "Point",
        "coordinates": [
          -105.416667,
          21.983333
        ]
      },
      "type": "Feature",
      "properties": {
        "hierarchy": [
          "tgn:7377315",
          "tgn:1000001",
          "tgn:1001906",
          "tgn:7005560",
          "tgn:7029392"
        ],
        "placetype": [
          "aat:300008347"
        ],
        "id": 7377315,
        "name:xx": "La Unión de Corrientes"
      }
    },
    {
      "geometry": {
        "type": "Point",
        "coordinates": [
          -98.433333,
          24.016667
        ]
      },
      "type": "Feature",
      "properties": {
        "hierarchy": [
          "tgn:7377316",
          "tgn:1000001",
          "tgn:7005597",
          "tgn:7005560",
          "tgn:7029392"
        ],
        "placetype": [
          "aat:300000241"
        ],
        "id": 7377316,
        "name:xx": "Rancho La Unión"
      }
    },
    {
      "geometry": {
        "type": "Point",
        "coordinates": [
          -98.483333,
          23.933333
        ]
      },
      "type": "Feature",
      "properties": {
        "hierarchy": [
          "tgn:7377317",
          "tgn:1000001",
          "tgn:7005597",
          "tgn:7005560",
          "tgn:7029392"
        ],
        "placetype": [
          "aat:300266554",
          "aat:300008699"
        ],
        "id": 7377317,
        "name:xx": "La Unión"
      }
    },
    {
      "geometry": {
        "type": "Point",
        "coordinates": [
          -112.284722,
          30.2475
        ]
      },
      "type": "Feature",
      "properties": {
        "hierarchy": [
          "tgn:7377318",
          "tgn:1000001",
          "tgn:1001960",
          "tgn:7005560",
          "tgn:7029392"
        ],
        "placetype": [
          "aat:300008347"
        ],
        "id": 7377318,
        "name:xx": "La Unión"
      }
    },
    {
      "geometry": {
        "type": "Point",
        "coordinates": [
          -102.916667,
          28.866667
        ]
      },
      "type": "Feature",
      "properties": {
        "hierarchy": [
          "tgn:7377319",
          "tgn:1001853",
          "tgn:1000001",
          "tgn:7005560",
          "tgn:7029392"
        ],
        "placetype": [
          "aat:300008347"
        ],
        "id": 7377319,
        "name:xx": "La Unión"
      }
    }
  ]
}
