{
  "type": "FeatureCollection",
  "features": [
    {
      "geometry": {
        "type": "Point",
        "coordinates": [
          121.030556,
          24.893611
        ]
      },
      "type": "Feature",
      "properties": {
        "hierarchy": [
          "tgn:7468900",
          "tgn:1000004",
          "tgn:7471332",
          "tgn:1000141",
          "tgn:7029392"
        ],
        "placetype": [
          "aat:300007836"
        ],
        "id": 7468900,
        "name:xx": "Xinshi Qiao"
      }
    },
    {
      "geometry": {
        "type": "Point",
        "coordinates": [
          120.289673,
          23.068095
        ]
      },
      "type": "Feature",
      "properties": {
        "hierarchy": [
          "tgn:7468901",
          "tgn:1000004",
          "tgn:7490934",
          "tgn:1000141",
          "tgn:7029392"
        ],
        "placetype": [
          "aat:300007783"
        ],
        "id": 7468901,
        "name:xx": "Xinshi Zhan"
      }
    },
    {
      "geometry": {
        "type": "Point",
        "coordinates": [
          121.533333,
          23.666667
        ]
      },
      "type": "Feature",
      "properties": {
        "hierarchy": [
          "tgn:7468903",
          "tgn:7001010",
          "tgn:1000004",
          "tgn:1000141",
          "tgn:7029392"
        ],
        "placetype": [
          "aat:300008795"
        ],
        "id": 7468903,
        "name:xx": "Xinshe Shan"
      }
    },
    {
      "geometry": {
        "type": "Point",
        "coordinates": [
          120.396208,
          23.977744
        ]
      },
      "type": "Feature",
      "properties": {
        "hierarchy": [
          "tgn:7468904",
          "tgn:1000004",
          "tgn:7467799",
          "tgn:1000141",
          "tgn:7029392"
        ],
        "placetype": [
          "aat:300387173"
        ],
        "id": 7468904,
        "name:xx": "Xinsheng Cun"
      }
    },
    {
      "geometry": {
        "type": "Point",
        "coordinates": [
          120.549189,
          23.891191
        ]
      },
      "type": "Feature",
      "properties": {
        "hierarchy": [
          "tgn:7468906",
          "tgn:1000004",
          "tgn:7467799",
          "tgn:1000141",
          "tgn:7029392"
        ],
        "placetype": [
          "aat:300387173"
        ],
        "id": 7468906,
        "name:xx": "Xinsheng Cun"
      }
    },
    {
      "geometry": {
        "type": "Point",
        "coordinates": [
          120.6229,
          24.0161
        ]
      },
      "type": "Feature",
      "properties": {
        "hierarchy": [
          "tgn:7468907",
          "tgn:1000004",
          "tgn:7467799",
          "tgn:1000141",
          "tgn:7029392"
        ],
        "placetype": [
          "aat:300387173"
        ],
        "id": 7468907,
        "name:xx": "Fenyuan Xiang"
      }
    },
    {
      "geometry": {
        "type": "Point",
        "coordinates": [
          120.620182,
          24.009414
        ]
      },
      "type": "Feature",
      "properties": {
        "hierarchy": [
          "tgn:7468908",
          "tgn:7488858",
          "tgn:1000004",
          "tgn:1000141",
          "tgn:7029392"
        ],
        "placetype": [
          "aat:300008347"
        ],
        "id": 7468908,
        "name:xx": "Fenyuan"
      }
    },
    {
      "geometry": {
        "type": "Point",
        "coordinates": [
          120.683333,
          22.566667
        ]
      },
      "type": "Feature",
      "properties": {
        "hierarchy": [
          "tgn:7468909",
          "tgn:1000004",
          "tgn:7492971",
          "tgn:1000141",
          "tgn:7029392"
        ],
        "placetype": [
          "aat:300008347"
        ],
        "id": 7468909,
        "name:xx": "Fendi"
      }
    }
  ]
}
