{
  "type": "FeatureCollection",
  "features": [
    {
      "geometry": {
        "type": "Point",
        "coordinates": [
          79.8021,
          27.0262
        ]
      },
      "type": "Feature",
      "properties": {
        "hierarchy": [
          "tgn:7562910",
          "tgn:1000004",
          "tgn:7000198",
          "tgn:7016722",
          "tgn:7029392"
        ],
        "placetype": [
          "aat:300008347"
        ],
        "name:en": "Tarwa",
        "id": 7562910
      }
    },
    {
      "geometry": {
        "type": "Point",
        "coordinates": [
          79.8028,
          27.0302
        ]
      },
      "type": "Feature",
      "properties": {
        "hierarchy": [
          "tgn:7562911",
          "tgn:1000004",
          "tgn:7000198",
          "tgn:7016722",
          "tgn:7029392"
        ],
        "placetype": [
          "aat:300008347"
        ],
        "name:en": "Aima",
        "id": 7562911
      }
    },
    {
      "geometry": {
        "type": "Point",
        "coordinates": [
          79.7921,
          27.0269
        ]
      },
      "type": "Feature",
      "properties": {
        "hierarchy": [
          "tgn:7562912",
          "tgn:1000004",
          "tgn:7000198",
          "tgn:7016722",
          "tgn:7029392"
        ],
        "placetype": [
          "aat:300008347"
        ],
        "name:en": "Akaria",
        "id": 7562912
      }
    },
    {
      "geometry": {
        "type": "Point",
        "coordinates": [
          79.7732,
          27.016
        ]
      },
      "type": "Feature",
      "properties": {
        "hierarchy": [
          "tgn:7562913",
          "tgn:1000004",
          "tgn:7000198",
          "tgn:7016722",
          "tgn:7029392"
        ],
        "placetype": [
          "aat:300008347"
        ],
        "name:en": "Pachaur",
        "id": 7562913
      }
    },
    {
      "geometry": {
        "type": "Point",
        "coordinates": [
          79.7787,
          27.0046
        ]
      },
      "type": "Feature",
      "properties": {
        "hierarchy": [
          "tgn:7562914",
          "tgn:1000004",
          "tgn:7000198",
          "tgn:7016722",
          "tgn:7029392"
        ],
        "placetype": [
          "aat:300008347"
        ],
        "name:en": "Bh큰r Purwa",
        "id": 7562914
      }
    },
    {
      "geometry": {
        "type": "Point",
        "coordinates": [
          79.7643,
          27.005
        ]
      },
      "type": "Feature",
      "properties": {
        "hierarchy": [
          "tgn:7562915",
          "tgn:1000004",
          "tgn:7000198",
          "tgn:7016722",
          "tgn:7029392"
        ],
        "placetype": [
          "aat:300008347"
        ],
        "name:en": "S카hipur",
        "id": 7562915
      }
    },
    {
      "geometry": {
        "type": "Point",
        "coordinates": [
          79.7502,
          27.0036
        ]
      },
      "type": "Feature",
      "properties": {
        "hierarchy": [
          "tgn:7562916",
          "tgn:1000004",
          "tgn:7000198",
          "tgn:7016722",
          "tgn:7029392"
        ],
        "placetype": [
          "aat:300008347"
        ],
        "name:en": "W훮hidpur",
        "id": 7562916
      }
    },
    {
      "geometry": {
        "type": "Point",
        "coordinates": [
          79.521678,
          27.719214
        ]
      },
      "type": "Feature",
      "properties": {
        "hierarchy": [
          "tgn:7562917",
          "tgn:1000004",
          "tgn:7000198",
          "tgn:7016722",
          "tgn:7029392"
        ],
        "placetype": [
          "aat:300008347"
        ],
        "name:en": "Balia",
        "id": 7562917
      }
    },
    {
      "geometry": {
        "type": "Point",
        "coordinates": [
          79.533089,
          27.723339
        ]
      },
      "type": "Feature",
      "properties": {
        "hierarchy": [
          "tgn:7562918",
          "tgn:1000004",
          "tgn:7000198",
          "tgn:7016722",
          "tgn:7029392"
        ],
        "placetype": [
          "aat:300008347"
        ],
        "name:en": "Chaura Bagarkhet",
        "id": 7562918
      }
    },
    {
      "geometry": {
        "type": "Point",
        "coordinates": [
          79.515925,
          27.722595
        ]
      },
      "type": "Feature",
      "properties": {
        "hierarchy": [
          "tgn:7562919",
          "tgn:1000004",
          "tgn:7000198",
          "tgn:7016722",
          "tgn:7029392"
        ],
        "placetype": [
          "aat:300008347"
        ],
        "name:en": "Bas훮hi",
        "id": 7562919
      }
    }
  ]
}
