{
  "type": "FeatureCollection",
  "features": [
    {
      "geometry": {
        "type": "Point",
        "coordinates": [
          121.138611,
          24.666667
        ]
      },
      "type": "Feature",
      "properties": {
        "hierarchy": [
          "tgn:7492630",
          "tgn:1000004",
          "tgn:7471332",
          "tgn:1000141",
          "tgn:7029392"
        ],
        "placetype": [
          "aat:300008798"
        ],
        "id": 7492630,
        "name:xx": "Bilai Shan"
      }
    },
    {
      "geometry": {
        "type": "Point",
        "coordinates": [
          121.142222,
          24.651944
        ]
      },
      "type": "Feature",
      "properties": {
        "hierarchy": [
          "tgn:7492631",
          "tgn:1000004",
          "tgn:7471332",
          "tgn:1000141",
          "tgn:7029392"
        ],
        "placetype": [
          "aat:300008347"
        ],
        "id": 7492631,
        "name:xx": "Bilai"
      }
    },
    {
      "geometry": {
        "type": "Point",
        "coordinates": [
          120.523056,
          23.696667
        ]
      },
      "type": "Feature",
      "properties": {
        "hierarchy": [
          "tgn:7492632",
          "tgn:1000004",
          "tgn:7001014",
          "tgn:1000141",
          "tgn:7029392"
        ],
        "placetype": [
          "aat:300008347"
        ],
        "id": 7492632,
        "name:xx": "Pikou"
      }
    },
    {
      "geometry": {
        "type": "Point",
        "coordinates": [
          120.881389,
          22.071944
        ]
      },
      "type": "Feature",
      "properties": {
        "hierarchy": [
          "tgn:7492633",
          "tgn:1000004",
          "tgn:7492971",
          "tgn:1000141",
          "tgn:7029392"
        ],
        "placetype": [
          "aat:300008795"
        ],
        "id": 7492633,
        "name:xx": "Piyi Shan"
      }
    },
    {
      "geometry": {
        "type": "Point",
        "coordinates": [
          120.628889,
          23.569444
        ]
      },
      "type": "Feature",
      "properties": {
        "hierarchy": [
          "tgn:7492635",
          "tgn:7468018",
          "tgn:1000004",
          "tgn:1000141",
          "tgn:7029392"
        ],
        "placetype": [
          "aat:300008347"
        ],
        "id": 7492635,
        "name:xx": "Bihu"
      }
    },
    {
      "geometry": {
        "type": "Point",
        "coordinates": [
          121.135833,
          24.025278
        ]
      },
      "type": "Feature",
      "properties": {
        "hierarchy": [
          "tgn:7492636",
          "tgn:7488858",
          "tgn:1000004",
          "tgn:1000141",
          "tgn:7029392"
        ],
        "placetype": [
          "aat:300008347"
        ],
        "id": 7492636,
        "name:xx": "Bihu"
      }
    },
    {
      "geometry": {
        "type": "Point",
        "coordinates": [
          120.387222,
          23.485556
        ]
      },
      "type": "Feature",
      "properties": {
        "hierarchy": [
          "tgn:7492637",
          "tgn:7468018",
          "tgn:1000004",
          "tgn:1000141",
          "tgn:7029392"
        ],
        "placetype": [
          "aat:300008347"
        ],
        "id": 7492637,
        "name:xx": "Pimajiao"
      }
    },
    {
      "geometry": {
        "type": "Point",
        "coordinates": [
          120.52936,
          23.972412
        ]
      },
      "type": "Feature",
      "properties": {
        "hierarchy": [
          "tgn:7492638",
          "tgn:1000004",
          "tgn:7467799",
          "tgn:1000141",
          "tgn:7029392"
        ],
        "placetype": [
          "aat:300008347"
        ],
        "id": 7492638,
        "name:xx": "Pixia"
      }
    },
    {
      "geometry": {
        "type": "Point",
        "coordinates": [
          121.785833,
          24.475
        ]
      },
      "type": "Feature",
      "properties": {
        "hierarchy": [
          "tgn:7492639",
          "tgn:1000004",
          "tgn:7489179",
          "tgn:1000141",
          "tgn:7029392"
        ],
        "placetype": [
          "aat:300008347"
        ],
        "id": 7492639,
        "name:xx": "Bihou"
      }
    }
  ]
}
