{
  "type": "FeatureCollection",
  "features": [
    {
      "geometry": {
        "type": "Point",
        "coordinates": [
          121.509308,
          25.268742
        ]
      },
      "type": "Feature",
      "properties": {
        "hierarchy": [
          "tgn:7475010",
          "tgn:1000004",
          "tgn:1000454",
          "tgn:1000141",
          "tgn:7029392"
        ],
        "placetype": [
          "aat:300007836"
        ],
        "id": 7475010,
        "name:xx": "Xinzhuangzi Qiao"
      }
    },
    {
      "geometry": {
        "type": "Point",
        "coordinates": [
          121.520028,
          25.275798
        ]
      },
      "type": "Feature",
      "properties": {
        "hierarchy": [
          "tgn:7475011",
          "tgn:1000004",
          "tgn:1000454",
          "tgn:1000141",
          "tgn:7029392"
        ],
        "placetype": [
          "aat:300007836"
        ],
        "id": 7475011,
        "name:xx": "Zhongbajia Qiao"
      }
    },
    {
      "geometry": {
        "type": "Point",
        "coordinates": [
          121.520809,
          25.283464
        ]
      },
      "type": "Feature",
      "properties": {
        "hierarchy": [
          "tgn:7475012",
          "tgn:1000004",
          "tgn:1000454",
          "tgn:1000141",
          "tgn:7029392"
        ],
        "placetype": [
          "aat:300007836"
        ],
        "id": 7475012,
        "name:xx": "Baishawan Qiao"
      }
    },
    {
      "geometry": {
        "type": "Point",
        "coordinates": [
          121.509306,
          25.279184
        ]
      },
      "type": "Feature",
      "properties": {
        "hierarchy": [
          "tgn:7475013",
          "tgn:1000004",
          "tgn:1000454",
          "tgn:1000141",
          "tgn:7029392"
        ],
        "placetype": [
          "aat:300005567"
        ],
        "id": 7475013,
        "name:xx": "Linhai Bieshu"
      }
    },
    {
      "geometry": {
        "type": "Point",
        "coordinates": [
          121.510915,
          25.286361
        ]
      },
      "type": "Feature",
      "properties": {
        "hierarchy": [
          "tgn:7475014",
          "tgn:1000004",
          "tgn:1000454",
          "tgn:1000141",
          "tgn:7029392"
        ],
        "placetype": [
          "aat:300387033"
        ],
        "id": 7475014,
        "name:xx": "Xiayuankeng"
      }
    },
    {
      "geometry": {
        "type": "Point",
        "coordinates": [
          121.511104,
          25.28826
        ]
      },
      "type": "Feature",
      "properties": {
        "hierarchy": [
          "tgn:7475015",
          "tgn:1000004",
          "tgn:1000454",
          "tgn:1000141",
          "tgn:7029392"
        ],
        "placetype": [
          "aat:300008347"
        ],
        "id": 7475015,
        "name:xx": "Linshanbi"
      }
    },
    {
      "geometry": {
        "type": "Point",
        "coordinates": [
          121.7671,
          24.759
        ]
      },
      "type": "Feature",
      "properties": {
        "hierarchy": [
          "tgn:7475016",
          "tgn:1000004",
          "tgn:7489179",
          "tgn:1000141",
          "tgn:7029392"
        ],
        "placetype": [
          "aat:300387173"
        ],
        "id": 7475016,
        "name:xx": "Ci'an Li"
      }
    },
    {
      "geometry": {
        "type": "Point",
        "coordinates": [
          120.633333,
          22.45
        ]
      },
      "type": "Feature",
      "properties": {
        "hierarchy": [
          "tgn:7475018",
          "tgn:1000004",
          "tgn:7492971",
          "tgn:1000141",
          "tgn:7029392"
        ],
        "placetype": [
          "aat:300008347"
        ],
        "id": 7475018,
        "name:xx": "Kaojian"
      }
    },
    {
      "geometry": {
        "type": "Point",
        "coordinates": [
          120.50042,
          23.195712
        ]
      },
      "type": "Feature",
      "properties": {
        "hierarchy": [
          "tgn:7475019",
          "tgn:1000004",
          "tgn:7490934",
          "tgn:1000141",
          "tgn:7029392"
        ],
        "placetype": [
          "aat:300008347"
        ],
        "id": 7475019,
        "name:xx": "Xikantou"
      }
    }
  ]
}
