{
  "type": "FeatureCollection",
  "features": [
    {
      "geometry": {
        "type": "Point",
        "coordinates": [
          -98.925,
          19.840278
        ]
      },
      "type": "Feature",
      "properties": {
        "hierarchy": [
          "tgn:7411304",
          "tgn:7005587",
          "tgn:1000001",
          "tgn:7005560",
          "tgn:7029392"
        ],
        "placetype": [
          "aat:300008347"
        ],
        "id": 7411304,
        "name:es": "Tepojaco"
      }
    },
    {
      "geometry": {
        "type": "Point",
        "coordinates": [
          -98.922222,
          19.875
        ]
      },
      "type": "Feature",
      "properties": {
        "hierarchy": [
          "tgn:7411306",
          "tgn:7005587",
          "tgn:1000001",
          "tgn:7005560",
          "tgn:7029392"
        ],
        "placetype": [
          "aat:300008347"
        ],
        "id": 7411306,
        "name:es": "Los Olmos"
      }
    },
    {
      "geometry": {
        "type": "Point",
        "coordinates": [
          -98.938889,
          19.898611
        ]
      },
      "type": "Feature",
      "properties": {
        "hierarchy": [
          "tgn:7411307",
          "tgn:7005587",
          "tgn:1000001",
          "tgn:7005560",
          "tgn:7029392"
        ],
        "placetype": [
          "aat:300008347"
        ],
        "id": 7411307,
        "name:es": "El Dorado"
      }
    },
    {
      "geometry": {
        "type": "Point",
        "coordinates": [
          -98.95,
          19.925
        ]
      },
      "type": "Feature",
      "properties": {
        "hierarchy": [
          "tgn:7411308",
          "tgn:7005587",
          "tgn:1000001",
          "tgn:7005560",
          "tgn:7029392"
        ],
        "placetype": [
          "aat:300008347"
        ],
        "id": 7411308,
        "name:es": "Las Palomas"
      }
    },
    {
      "geometry": {
        "type": "Point",
        "coordinates": [
          -98.941667,
          19.941667
        ]
      },
      "type": "Feature",
      "properties": {
        "hierarchy": [
          "tgn:7411309",
          "tgn:7005587",
          "tgn:1000001",
          "tgn:7005560",
          "tgn:7029392"
        ],
        "placetype": [
          "aat:300008347"
        ],
        "id": 7411309,
        "name:es": "Tepetates"
      }
    }
  ]
}
