{
  "type": "FeatureCollection",
  "features": [
    {
      "geometry": {
        "type": "Point",
        "coordinates": [
          -96.583333,
          15.833333
        ]
      },
      "type": "Feature",
      "properties": {
        "hierarchy": [
          "tgn:7375510",
          "tgn:1000001",
          "tgn:7005591",
          "tgn:7005560",
          "tgn:7029392"
        ],
        "placetype": [
          "aat:300008347"
        ],
        "id": 7375510,
        "name:xx": "Limón"
      }
    },
    {
      "geometry": {
        "type": "Point",
        "coordinates": [
          -87.033333,
          21.566667
        ]
      },
      "type": "Feature",
      "properties": {
        "hierarchy": [
          "tgn:7375511",
          "tgn:1000001",
          "tgn:1001937",
          "tgn:7005560",
          "tgn:7029392"
        ],
        "placetype": [
          "aat:300008713"
        ],
        "id": 7375511,
        "name:xx": "Limbo, Río del"
      }
    },
    {
      "geometry": {
        "type": "Point",
        "coordinates": [
          -103.768056,
          24.180833
        ]
      },
      "type": "Feature",
      "properties": {
        "hierarchy": [
          "tgn:7375512",
          "tgn:7005583",
          "tgn:1000001",
          "tgn:7005560",
          "tgn:7029392"
        ],
        "placetype": [
          "aat:300008347"
        ],
        "id": 7375512,
        "name:xx": "Limas"
      }
    },
    {
      "geometry": {
        "type": "Point",
        "coordinates": [
          -107.375833,
          24.826944
        ]
      },
      "type": "Feature",
      "properties": {
        "hierarchy": [
          "tgn:7375513",
          "tgn:1000001",
          "tgn:7005595",
          "tgn:7005560",
          "tgn:7029392"
        ],
        "placetype": [
          "aat:300008347"
        ],
        "id": 7375513,
        "name:xx": "Lima del Alto"
      }
    },
    {
      "geometry": {
        "type": "Point",
        "coordinates": [
          -104.966667,
          21.216667
        ]
      },
      "type": "Feature",
      "properties": {
        "hierarchy": [
          "tgn:7375514",
          "tgn:1000001",
          "tgn:1001906",
          "tgn:7005560",
          "tgn:7029392"
        ],
        "placetype": [
          "aat:300008347"
        ],
        "id": 7375514,
        "name:xx": "Lima de Abajo"
      }
    },
    {
      "geometry": {
        "type": "Point",
        "coordinates": [
          -95.166667,
          17.916667
        ]
      },
      "type": "Feature",
      "properties": {
        "hierarchy": [
          "tgn:7375515",
          "tgn:1000001",
          "tgn:7005599",
          "tgn:7005560",
          "tgn:7029392"
        ],
        "placetype": [
          "aat:300008347"
        ],
        "id": 7375515,
        "name:xx": "Lima Baja"
      }
    },
    {
      "geometry": {
        "type": "Point",
        "coordinates": [
          -107.383333,
          24.833333
        ]
      },
      "type": "Feature",
      "properties": {
        "hierarchy": [
          "tgn:7375516",
          "tgn:1000001",
          "tgn:7005595",
          "tgn:7005560",
          "tgn:7029392"
        ],
        "placetype": [
          "aat:300008699"
        ],
        "id": 7375516,
        "name:xx": "Lima, Río"
      }
    },
    {
      "geometry": {
        "type": "Point",
        "coordinates": [
          -110.633333,
          28.766667
        ]
      },
      "type": "Feature",
      "properties": {
        "hierarchy": [
          "tgn:7375517",
          "tgn:1000001",
          "tgn:1001960",
          "tgn:7005560",
          "tgn:7029392"
        ],
        "placetype": [
          "aat:300008795"
        ],
        "id": 7375517,
        "name:xx": "Lima, Cerro"
      }
    },
    {
      "geometry": {
        "type": "Point",
        "coordinates": [
          -110.65,
          28.633333
        ]
      },
      "type": "Feature",
      "properties": {
        "hierarchy": [
          "tgn:7375518",
          "tgn:1000001",
          "tgn:1001960",
          "tgn:7005560",
          "tgn:7029392"
        ],
        "placetype": [
          "aat:300266554",
          "aat:300008699"
        ],
        "id": 7375518,
        "name:xx": "Lima, Arroyo de la"
      }
    }
  ]
}
