{
  "type": "FeatureCollection",
  "features": [
    {
      "geometry": {
        "type": "Point",
        "coordinates": [
          120.512962,
          23.682505
        ]
      },
      "type": "Feature",
      "properties": {
        "hierarchy": [
          "tgn:7471020",
          "tgn:1000004",
          "tgn:7001014",
          "tgn:1000141",
          "tgn:7029392"
        ],
        "placetype": [
          "aat:300008347"
        ],
        "id": 7471020,
        "name:xx": "Jiulaoye"
      }
    },
    {
      "geometry": {
        "type": "Point",
        "coordinates": [
          120.365,
          23.8064
        ]
      },
      "type": "Feature",
      "properties": {
        "hierarchy": [
          "tgn:7471021",
          "tgn:1000004",
          "tgn:7001014",
          "tgn:1000141",
          "tgn:7029392"
        ],
        "placetype": [
          "aat:300008347"
        ],
        "id": 7471021,
        "name:xx": "Jiuguzi"
      }
    },
    {
      "geometry": {
        "type": "Point",
        "coordinates": [
          120.106667,
          23.103889
        ]
      },
      "type": "Feature",
      "properties": {
        "hierarchy": [
          "tgn:7471022",
          "tgn:1000004",
          "tgn:7490934",
          "tgn:1000141",
          "tgn:7029392"
        ],
        "placetype": [
          "aat:300008347"
        ],
        "id": 7471022,
        "name:xx": "Jiugu"
      }
    },
    {
      "geometry": {
        "type": "Point",
        "coordinates": [
          121.7975,
          24.886944
        ]
      },
      "type": "Feature",
      "properties": {
        "hierarchy": [
          "tgn:7471023",
          "tgn:1000004",
          "tgn:7489179",
          "tgn:1000141",
          "tgn:7029392"
        ],
        "placetype": [
          "aat:300008798"
        ],
        "id": 7471023,
        "name:xx": "Jiugu Shan"
      }
    },
    {
      "geometry": {
        "type": "Point",
        "coordinates": [
          121.822045,
          24.609745
        ]
      },
      "type": "Feature",
      "properties": {
        "hierarchy": [
          "tgn:7471024",
          "tgn:1000004",
          "tgn:7489179",
          "tgn:1000141",
          "tgn:7029392"
        ],
        "placetype": [
          "aat:300008777"
        ],
        "id": 7471024,
        "name:xx": "Jiugu Shan"
      }
    },
    {
      "geometry": {
        "type": "Point",
        "coordinates": [
          118.258611,
          24.424722
        ]
      },
      "type": "Feature",
      "properties": {
        "hierarchy": [
          "tgn:7471025",
          "tgn:7469009",
          "tgn:1000004",
          "tgn:1000141",
          "tgn:7029392"
        ],
        "placetype": [
          "aat:300007928"
        ],
        "id": 7471025,
        "name:xx": "Jiugong Matou"
      }
    },
    {
      "geometry": {
        "type": "Point",
        "coordinates": [
          120.816667,
          22.016667
        ]
      },
      "type": "Feature",
      "properties": {
        "hierarchy": [
          "tgn:7471026",
          "tgn:1000004",
          "tgn:7492971",
          "tgn:1000141",
          "tgn:7029392"
        ],
        "placetype": [
          "aat:300008347"
        ],
        "id": 7471026,
        "name:xx": "Jiugonglu"
      }
    },
    {
      "geometry": {
        "type": "Point",
        "coordinates": [
          120.228056,
          23.221389
        ]
      },
      "type": "Feature",
      "properties": {
        "hierarchy": [
          "tgn:7471027",
          "tgn:1000004",
          "tgn:7490934",
          "tgn:1000141",
          "tgn:7029392"
        ],
        "placetype": [
          "aat:300008347"
        ],
        "id": 7471027,
        "name:xx": "Jiuguliao"
      }
    },
    {
      "geometry": {
        "type": "Point",
        "coordinates": [
          120.4835,
          22.7388
        ]
      },
      "type": "Feature",
      "properties": {
        "hierarchy": [
          "tgn:7471028",
          "tgn:1000004",
          "tgn:7492971",
          "tgn:1000141",
          "tgn:7029392"
        ],
        "placetype": [
          "aat:300387173"
        ],
        "id": 7471028,
        "name:xx": "Jiukuai Cun"
      }
    }
  ]
}
