{
  "type": "FeatureCollection",
  "features": [
    {
      "geometry": {
        "type": "Point",
        "coordinates": [
          79.1873,
          24.9274
        ]
      },
      "type": "Feature",
      "properties": {
        "hierarchy": [
          "tgn:7564740",
          "tgn:1000004",
          "tgn:7000198",
          "tgn:1001894",
          "tgn:7029392"
        ],
        "placetype": [
          "aat:300008347"
        ],
        "name:en": "Bagai",
        "id": 7564740
      }
    },
    {
      "geometry": {
        "type": "Point",
        "coordinates": [
          79.181047,
          24.934268
        ]
      },
      "type": "Feature",
      "properties": {
        "hierarchy": [
          "tgn:7564741",
          "tgn:1000004",
          "tgn:7000198",
          "tgn:1001894",
          "tgn:7029392"
        ],
        "placetype": [
          "aat:300008347"
        ],
        "name:en": "Rajpura",
        "id": 7564741
      }
    },
    {
      "geometry": {
        "type": "Point",
        "coordinates": [
          79.149717,
          24.919632
        ]
      },
      "type": "Feature",
      "properties": {
        "hierarchy": [
          "tgn:7564742",
          "tgn:1000004",
          "tgn:7000198",
          "tgn:1001894",
          "tgn:7029392"
        ],
        "placetype": [
          "aat:300008347"
        ],
        "name:en": "Alopa",
        "id": 7564742
      }
    },
    {
      "geometry": {
        "type": "Point",
        "coordinates": [
          79.153193,
          24.932789
        ]
      },
      "type": "Feature",
      "properties": {
        "hierarchy": [
          "tgn:7564743",
          "tgn:1000004",
          "tgn:7000198",
          "tgn:1001894",
          "tgn:7029392"
        ],
        "placetype": [
          "aat:300008347"
        ],
        "name:en": "Purwa",
        "id": 7564743
      }
    },
    {
      "geometry": {
        "type": "Point",
        "coordinates": [
          79.154464,
          24.940814
        ]
      },
      "type": "Feature",
      "properties": {
        "hierarchy": [
          "tgn:7564744",
          "tgn:1000004",
          "tgn:7000198",
          "tgn:1001894",
          "tgn:7029392"
        ],
        "placetype": [
          "aat:300008347"
        ],
        "name:en": "Ratangawān",
        "id": 7564744
      }
    },
    {
      "geometry": {
        "type": "Point",
        "coordinates": [
          79.161034,
          24.946045
        ]
      },
      "type": "Feature",
      "properties": {
        "hierarchy": [
          "tgn:7564745",
          "tgn:1000004",
          "tgn:7000198",
          "tgn:1001894",
          "tgn:7029392"
        ],
        "placetype": [
          "aat:300008865"
        ],
        "name:en": "Gura Protected Forest",
        "id": 7564745
      }
    },
    {
      "geometry": {
        "type": "Point",
        "coordinates": [
          79.149885,
          24.945936
        ]
      },
      "type": "Feature",
      "properties": {
        "hierarchy": [
          "tgn:7564746",
          "tgn:1000004",
          "tgn:7000198",
          "tgn:1001894",
          "tgn:7029392"
        ],
        "placetype": [
          "aat:300008347"
        ],
        "name:en": "Gura",
        "id": 7564746
      }
    },
    {
      "geometry": {
        "type": "Point",
        "coordinates": [
          79.146192,
          24.929291
        ]
      },
      "type": "Feature",
      "properties": {
        "hierarchy": [
          "tgn:7564747",
          "tgn:1000004",
          "tgn:7000198",
          "tgn:1001894",
          "tgn:7029392"
        ],
        "placetype": [
          "aat:300008347"
        ],
        "name:en": "Salaiya",
        "id": 7564747
      }
    },
    {
      "geometry": {
        "type": "Point",
        "coordinates": [
          79.137987,
          24.928658
        ]
      },
      "type": "Feature",
      "properties": {
        "hierarchy": [
          "tgn:7564748",
          "tgn:1000004",
          "tgn:7000198",
          "tgn:1001894",
          "tgn:7029392"
        ],
        "placetype": [
          "aat:300008777"
        ],
        "name:en": "Jugon Pahār",
        "id": 7564748
      }
    },
    {
      "geometry": {
        "type": "Point",
        "coordinates": [
          79.137243,
          24.926649
        ]
      },
      "type": "Feature",
      "properties": {
        "hierarchy": [
          "tgn:7564749",
          "tgn:1000004",
          "tgn:7000198",
          "tgn:1001894",
          "tgn:7029392"
        ],
        "placetype": [
          "aat:300008865"
        ],
        "name:en": "Jugon Protected Forest",
        "id": 7564749
      }
    }
  ]
}
