{
  "type": "FeatureCollection",
  "features": [
    {
      "geometry": {
        "type": "Point",
        "coordinates": [
          -100.25,
          20.666667
        ]
      },
      "type": "Feature",
      "properties": {
        "hierarchy": [
          "tgn:7398700",
          "tgn:1000001",
          "tgn:7005593",
          "tgn:7005560",
          "tgn:7029392"
        ],
        "placetype": [
          "aat:300008680"
        ],
        "id": 7398700,
        "name:xx": "Las Palmas, Lago"
      }
    },
    {
      "geometry": {
        "type": "Point",
        "coordinates": [
          -100.2625,
          20.669444
        ]
      },
      "type": "Feature",
      "properties": {
        "hierarchy": [
          "tgn:7398701",
          "tgn:1000001",
          "tgn:7005593",
          "tgn:7005560",
          "tgn:7029392"
        ],
        "placetype": [
          "aat:300008347"
        ],
        "id": 7398701,
        "name:xx": "Santa María Ticomán"
      }
    },
    {
      "geometry": {
        "type": "Point",
        "coordinates": [
          -100.294444,
          20.691667
        ]
      },
      "type": "Feature",
      "properties": {
        "hierarchy": [
          "tgn:7398702",
          "tgn:1000001",
          "tgn:7005593",
          "tgn:7005560",
          "tgn:7029392"
        ],
        "placetype": [
          "aat:300008347"
        ],
        "id": 7398702,
        "name:xx": "Las Mulas"
      }
    },
    {
      "geometry": {
        "type": "Point",
        "coordinates": [
          -100.302778,
          20.645833
        ]
      },
      "type": "Feature",
      "properties": {
        "hierarchy": [
          "tgn:7398703",
          "tgn:1000001",
          "tgn:7005593",
          "tgn:7005560",
          "tgn:7029392"
        ],
        "placetype": [
          "aat:300008347"
        ],
        "id": 7398703,
        "name:xx": "El Conejo"
      }
    },
    {
      "geometry": {
        "type": "Point",
        "coordinates": [
          -100.288889,
          20.634722
        ]
      },
      "type": "Feature",
      "properties": {
        "hierarchy": [
          "tgn:7398704",
          "tgn:1000001",
          "tgn:7005593",
          "tgn:7005560",
          "tgn:7029392"
        ],
        "placetype": [
          "aat:300008347"
        ],
        "id": 7398704,
        "name:xx": "San Antonio"
      }
    },
    {
      "geometry": {
        "type": "Point",
        "coordinates": [
          -100.333333,
          20.669444
        ]
      },
      "type": "Feature",
      "properties": {
        "hierarchy": [
          "tgn:7398705",
          "tgn:1000001",
          "tgn:7005593",
          "tgn:7005560",
          "tgn:7029392"
        ],
        "placetype": [
          "aat:300008811"
        ],
        "id": 7398705,
        "name:xx": "La Calera, Mesa"
      }
    },
    {
      "geometry": {
        "type": "Point",
        "coordinates": [
          -100.333333,
          20.723611
        ]
      },
      "type": "Feature",
      "properties": {
        "hierarchy": [
          "tgn:7398706",
          "tgn:1000001",
          "tgn:7005593",
          "tgn:7005560",
          "tgn:7029392"
        ],
        "placetype": [
          "aat:300008697"
        ],
        "id": 7398706,
        "name:xx": "San José, Poza"
      }
    },
    {
      "geometry": {
        "type": "Point",
        "coordinates": [
          -100.316667,
          20.747222
        ]
      },
      "type": "Feature",
      "properties": {
        "hierarchy": [
          "tgn:7398707",
          "tgn:1000001",
          "tgn:7005593",
          "tgn:7005560",
          "tgn:7029392"
        ],
        "placetype": [
          "aat:300008347"
        ],
        "id": 7398707,
        "name:xx": "Santa María de la Begonia"
      }
    },
    {
      "geometry": {
        "type": "Point",
        "coordinates": [
          -100.341667,
          20.733333
        ]
      },
      "type": "Feature",
      "properties": {
        "hierarchy": [
          "tgn:7398708",
          "tgn:1000001",
          "tgn:7005593",
          "tgn:7005560",
          "tgn:7029392"
        ],
        "placetype": [
          "aat:300006191"
        ],
        "id": 7398708,
        "name:xx": "Bordo Los Sauces"
      }
    },
    {
      "geometry": {
        "type": "Point",
        "coordinates": [
          -100.391667,
          20.741667
        ]
      },
      "type": "Feature",
      "properties": {
        "hierarchy": [
          "tgn:7398709",
          "tgn:1000001",
          "tgn:7005593",
          "tgn:7005560",
          "tgn:7029392"
        ],
        "placetype": [
          "aat:300008697"
        ],
        "id": 7398709,
        "name:xx": "Solana, Poza"
      }
    }
  ]
}
