{
  "type": "FeatureCollection",
  "features": [
    {
      "geometry": {
        "type": "Point",
        "coordinates": [
          120.504197,
          23.568902
        ]
      },
      "type": "Feature",
      "properties": {
        "hierarchy": [
          "tgn:7493280",
          "tgn:7468018",
          "tgn:1000004",
          "tgn:1000141",
          "tgn:7029392"
        ],
        "placetype": [
          "aat:300008347"
        ],
        "id": 7493280,
        "name:xx": "Bengpizi"
      }
    },
    {
      "geometry": {
        "type": "Point",
        "coordinates": [
          120.498076,
          23.564959
        ]
      },
      "type": "Feature",
      "properties": {
        "hierarchy": [
          "tgn:7493281",
          "tgn:7468018",
          "tgn:1000004",
          "tgn:1000141",
          "tgn:7029392"
        ],
        "placetype": [
          "aat:300008347"
        ],
        "id": 7493281,
        "name:xx": "Jingbuzi"
      }
    },
    {
      "geometry": {
        "type": "Point",
        "coordinates": [
          120.490341,
          23.560891
        ]
      },
      "type": "Feature",
      "properties": {
        "hierarchy": [
          "tgn:7493282",
          "tgn:7468018",
          "tgn:1000004",
          "tgn:1000141",
          "tgn:7029392"
        ],
        "placetype": [
          "aat:300008347"
        ],
        "id": 7493282,
        "name:xx": "Erpingziding"
      }
    },
    {
      "geometry": {
        "type": "Point",
        "coordinates": [
          120.498957,
          23.553444
        ]
      },
      "type": "Feature",
      "properties": {
        "hierarchy": [
          "tgn:7493283",
          "tgn:7468018",
          "tgn:1000004",
          "tgn:1000141",
          "tgn:7029392"
        ],
        "placetype": [
          "aat:300008347"
        ],
        "id": 7493283,
        "name:xx": "Dakeng"
      }
    },
    {
      "geometry": {
        "type": "Point",
        "coordinates": [
          120.45542,
          23.613925
        ]
      },
      "type": "Feature",
      "properties": {
        "hierarchy": [
          "tgn:7493284",
          "tgn:7468018",
          "tgn:1000004",
          "tgn:1000141",
          "tgn:7029392"
        ],
        "placetype": [
          "aat:300007783"
        ],
        "id": 7493284,
        "name:xx": "Tangchang Zhan"
      }
    },
    {
      "geometry": {
        "type": "Point",
        "coordinates": [
          120.394582,
          23.505107
        ]
      },
      "type": "Feature",
      "properties": {
        "hierarchy": [
          "tgn:7493285",
          "tgn:7001001",
          "tgn:1000004",
          "tgn:1000141",
          "tgn:7029392"
        ],
        "placetype": [
          "aat:300006075"
        ],
        "id": 7493285,
        "name:xx": "Jiayi Dapaishuigou"
      }
    },
    {
      "geometry": {
        "type": "Point",
        "coordinates": [
          120.455939,
          23.600628
        ]
      },
      "type": "Feature",
      "properties": {
        "hierarchy": [
          "tgn:7493286",
          "tgn:7468018",
          "tgn:1000004",
          "tgn:1000141",
          "tgn:7029392"
        ],
        "placetype": [
          "aat:300007783"
        ],
        "id": 7493286,
        "name:xx": "Dalin Zhan"
      }
    },
    {
      "geometry": {
        "type": "Point",
        "coordinates": [
          120.481273,
          23.673221
        ]
      },
      "type": "Feature",
      "properties": {
        "hierarchy": [
          "tgn:7493289",
          "tgn:1000004",
          "tgn:7001014",
          "tgn:1000141",
          "tgn:7029392"
        ],
        "placetype": [
          "aat:300007783"
        ],
        "id": 7493289,
        "name:xx": "Dounan Zhan"
      }
    }
  ]
}
