{
  "type": "FeatureCollection",
  "features": [
    {
      "geometry": {
        "type": "Point",
        "coordinates": [
          78.856563,
          24.208612
        ]
      },
      "type": "Feature",
      "properties": {
        "hierarchy": [
          "tgn:7582110",
          "tgn:1000004",
          "tgn:7000198",
          "tgn:1001894",
          "tgn:7029392"
        ],
        "placetype": [
          "aat:300167671"
        ],
        "name:en": "Pathargarh",
        "id": 7582110
      }
    },
    {
      "geometry": {
        "type": "Point",
        "coordinates": [
          78.884176,
          24.230092
        ]
      },
      "type": "Feature",
      "properties": {
        "hierarchy": [
          "tgn:7582111",
          "tgn:1000004",
          "tgn:7000198",
          "tgn:7016722",
          "tgn:7029392"
        ],
        "placetype": [
          "aat:300008347"
        ],
        "name:en": "Lakhanjir",
        "id": 7582111
      }
    },
    {
      "geometry": {
        "type": "Point",
        "coordinates": [
          78.896409,
          24.223167
        ]
      },
      "type": "Feature",
      "properties": {
        "hierarchy": [
          "tgn:7582112",
          "tgn:1000004",
          "tgn:7000198",
          "tgn:1001894",
          "tgn:7029392"
        ],
        "placetype": [
          "aat:300008795"
        ],
        "name:en": "Katowa Pahār",
        "id": 7582112
      }
    },
    {
      "geometry": {
        "type": "Point",
        "coordinates": [
          78.914729,
          24.222051
        ]
      },
      "type": "Feature",
      "properties": {
        "hierarchy": [
          "tgn:7582113",
          "tgn:1000004",
          "tgn:7000198",
          "tgn:1001894",
          "tgn:7029392"
        ],
        "placetype": [
          "aat:300008795"
        ],
        "name:en": "Bhonra Pahār",
        "id": 7582113
      }
    },
    {
      "geometry": {
        "type": "Point",
        "coordinates": [
          78.9339,
          24.2128
        ]
      },
      "type": "Feature",
      "properties": {
        "hierarchy": [
          "tgn:7582114",
          "tgn:1000004",
          "tgn:7000198",
          "tgn:1001894",
          "tgn:7029392"
        ],
        "placetype": [
          "aat:300008865"
        ],
        "name:en": "Khairwāha Reserved Forest",
        "id": 7582114
      }
    },
    {
      "geometry": {
        "type": "Point",
        "coordinates": [
          78.948089,
          24.22813
        ]
      },
      "type": "Feature",
      "properties": {
        "hierarchy": [
          "tgn:7582115",
          "tgn:1000004",
          "tgn:7000198",
          "tgn:1001894",
          "tgn:7029392"
        ],
        "placetype": [
          "aat:300008347"
        ],
        "name:en": "Dhawāra",
        "id": 7582115
      }
    },
    {
      "geometry": {
        "type": "Point",
        "coordinates": [
          78.990859,
          24.217065
        ]
      },
      "type": "Feature",
      "properties": {
        "hierarchy": [
          "tgn:7582116",
          "tgn:1000004",
          "tgn:7000198",
          "tgn:1001894",
          "tgn:7029392"
        ],
        "placetype": [
          "aat:300008347"
        ],
        "name:en": "Padrai",
        "id": 7582116
      }
    },
    {
      "geometry": {
        "type": "Point",
        "coordinates": [
          78.991806,
          24.243697
        ]
      },
      "type": "Feature",
      "properties": {
        "hierarchy": [
          "tgn:7582117",
          "tgn:1000004",
          "tgn:7000198",
          "tgn:1001894",
          "tgn:7029392"
        ],
        "placetype": [
          "aat:300008347"
        ],
        "name:en": "Nānakpur",
        "id": 7582117
      }
    },
    {
      "geometry": {
        "type": "Point",
        "coordinates": [
          78.9782,
          24.2227
        ]
      },
      "type": "Feature",
      "properties": {
        "hierarchy": [
          "tgn:7582118",
          "tgn:1000004",
          "tgn:7000198",
          "tgn:1001894",
          "tgn:7029392"
        ],
        "placetype": [
          "aat:300008865"
        ],
        "name:en": "Dulchipur Reserved Forest",
        "id": 7582118
      }
    },
    {
      "geometry": {
        "type": "Point",
        "coordinates": [
          78.970314,
          24.235727
        ]
      },
      "type": "Feature",
      "properties": {
        "hierarchy": [
          "tgn:7582119",
          "tgn:1000004",
          "tgn:7000198",
          "tgn:1001894",
          "tgn:7029392"
        ],
        "placetype": [
          "aat:300008795"
        ],
        "name:en": "Ganaiya Pahār",
        "id": 7582119
      }
    }
  ]
}
