{
  "type": "FeatureCollection",
  "features": [
    {
      "geometry": {
        "type": "Point",
        "coordinates": [
          121.645153,
          24.123888
        ]
      },
      "type": "Feature",
      "properties": {
        "hierarchy": [
          "tgn:7472110",
          "tgn:7001010",
          "tgn:1000004",
          "tgn:1000141",
          "tgn:7029392"
        ],
        "placetype": [
          "aat:300266755"
        ],
        "id": 7472110,
        "name:xx": "Xincheng Gongmu"
      }
    },
    {
      "geometry": {
        "type": "Point",
        "coordinates": [
          121.6589,
          24.1612
        ]
      },
      "type": "Feature",
      "properties": {
        "hierarchy": [
          "tgn:7472111",
          "tgn:7001010",
          "tgn:1000004",
          "tgn:1000141",
          "tgn:7029392"
        ],
        "placetype": [
          "aat:300008347"
        ],
        "id": 7472111,
        "name:xx": "Shangkan"
      }
    },
    {
      "geometry": {
        "type": "Point",
        "coordinates": [
          121.651305,
          24.161571
        ]
      },
      "type": "Feature",
      "properties": {
        "hierarchy": [
          "tgn:7472112",
          "tgn:7001010",
          "tgn:1000004",
          "tgn:1000141",
          "tgn:7029392"
        ],
        "placetype": [
          "aat:300266755"
        ],
        "id": 7472112,
        "name:xx": "Diliu Gongmu"
      }
    },
    {
      "geometry": {
        "type": "Point",
        "coordinates": [
          121.636381,
          24.150903
        ]
      },
      "type": "Feature",
      "properties": {
        "hierarchy": [
          "tgn:7472113",
          "tgn:7001010",
          "tgn:1000004",
          "tgn:1000141",
          "tgn:7029392"
        ],
        "placetype": [
          "aat:300007836"
        ],
        "id": 7472113,
        "name:xx": "Yiyijiuhao Qiao"
      }
    },
    {
      "geometry": {
        "type": "Point",
        "coordinates": [
          121.657381,
          24.184048
        ]
      },
      "type": "Feature",
      "properties": {
        "hierarchy": [
          "tgn:7472114",
          "tgn:7001010",
          "tgn:1000004",
          "tgn:1000141",
          "tgn:7029392"
        ],
        "placetype": [
          "aat:300007836"
        ],
        "id": 7472114,
        "name:xx": "Yiyiwuhao Qiao"
      }
    },
    {
      "geometry": {
        "type": "Point",
        "coordinates": [
          121.655557,
          24.171711
        ]
      },
      "type": "Feature",
      "properties": {
        "hierarchy": [
          "tgn:7472115",
          "tgn:7001010",
          "tgn:1000004",
          "tgn:1000141",
          "tgn:7029392"
        ],
        "placetype": [
          "aat:300007783"
        ],
        "id": 7472115,
        "name:xx": "Chongde Chezhan"
      }
    },
    {
      "geometry": {
        "type": "Point",
        "coordinates": [
          121.693168,
          24.218803
        ]
      },
      "type": "Feature",
      "properties": {
        "hierarchy": [
          "tgn:7472116",
          "tgn:7001010",
          "tgn:1000004",
          "tgn:1000141",
          "tgn:7029392"
        ],
        "placetype": [
          "aat:300008749"
        ],
        "id": 7472116,
        "name:xx": "Qingshui Duanyai"
      }
    },
    {
      "geometry": {
        "type": "Point",
        "coordinates": [
          121.666975,
          24.207063
        ]
      },
      "type": "Feature",
      "properties": {
        "hierarchy": [
          "tgn:7472119",
          "tgn:7001010",
          "tgn:1000004",
          "tgn:1000141",
          "tgn:7029392"
        ],
        "placetype": [
          "aat:300007836"
        ],
        "id": 7472119,
        "name:xx": "Huiyuan Qiao"
      }
    }
  ]
}
