{
  "type": "FeatureCollection",
  "features": [
    {
      "geometry": {
        "type": "Point",
        "coordinates": [
          121.238592,
          25.109597
        ]
      },
      "type": "Feature",
      "properties": {
        "hierarchy": [
          "tgn:7477160",
          "tgn:1000004",
          "tgn:7001013",
          "tgn:1000141",
          "tgn:7029392"
        ],
        "placetype": [
          "aat:300006495"
        ],
        "id": 7477160,
        "name:xx": "Zhuwei Guozhong"
      }
    },
    {
      "geometry": {
        "type": "Point",
        "coordinates": [
          121.234897,
          25.096101
        ]
      },
      "type": "Feature",
      "properties": {
        "hierarchy": [
          "tgn:7477161",
          "tgn:1000004",
          "tgn:7001013",
          "tgn:1000141",
          "tgn:7029392"
        ],
        "placetype": [
          "aat:300008347"
        ],
        "id": 7477161,
        "name:xx": "Pozitou"
      }
    },
    {
      "geometry": {
        "type": "Point",
        "coordinates": [
          121.225731,
          25.054535
        ]
      },
      "type": "Feature",
      "properties": {
        "hierarchy": [
          "tgn:7477162",
          "tgn:1000004",
          "tgn:7001013",
          "tgn:1000141",
          "tgn:7029392"
        ],
        "placetype": [
          "aat:300007836"
        ],
        "id": 7477162,
        "name:xx": "Dahai Qiao"
      }
    },
    {
      "geometry": {
        "type": "Point",
        "coordinates": [
          120.922915,
          23.883455
        ]
      },
      "type": "Feature",
      "properties": {
        "hierarchy": [
          "tgn:7477163",
          "tgn:7488858",
          "tgn:1000004",
          "tgn:1000141",
          "tgn:7029392"
        ],
        "placetype": [
          "aat:300007836"
        ],
        "id": 7477163,
        "name:xx": "Youshui Qiao"
      }
    },
    {
      "geometry": {
        "type": "Point",
        "coordinates": [
          120.922543,
          23.890575
        ]
      },
      "type": "Feature",
      "properties": {
        "hierarchy": [
          "tgn:7477164",
          "tgn:7488858",
          "tgn:1000004",
          "tgn:1000141",
          "tgn:7029392"
        ],
        "placetype": [
          "aat:300007836"
        ],
        "id": 7477164,
        "name:xx": "Tianluo Qiao"
      }
    },
    {
      "geometry": {
        "type": "Point",
        "coordinates": [
          120.879146,
          23.824657
        ]
      },
      "type": "Feature",
      "properties": {
        "hierarchy": [
          "tgn:7477165",
          "tgn:7488858",
          "tgn:1000004",
          "tgn:1000141",
          "tgn:7029392"
        ],
        "placetype": [
          "aat:300008798"
        ],
        "id": 7477165,
        "name:xx": "Xuezibo Shan"
      }
    },
    {
      "geometry": {
        "type": "Point",
        "coordinates": [
          120.775076,
          23.783225
        ]
      },
      "type": "Feature",
      "properties": {
        "hierarchy": [
          "tgn:7477166",
          "tgn:7488858",
          "tgn:1000004",
          "tgn:1000141",
          "tgn:7029392"
        ],
        "placetype": [
          "aat:300006495"
        ],
        "id": 7477166,
        "name:xx": "Ruifeng Guozhong"
      }
    },
    {
      "geometry": {
        "type": "Point",
        "coordinates": [
          120.771325,
          23.864377
        ]
      },
      "type": "Feature",
      "properties": {
        "hierarchy": [
          "tgn:7477167",
          "tgn:7488858",
          "tgn:1000004",
          "tgn:1000141",
          "tgn:7029392"
        ],
        "placetype": [
          "aat:300008347"
        ],
        "id": 7477167,
        "name:xx": "Tiaomikengkou"
      }
    },
    {
      "geometry": {
        "type": "Point",
        "coordinates": [
          120.767815,
          23.898874
        ]
      },
      "type": "Feature",
      "properties": {
        "hierarchy": [
          "tgn:7477168",
          "tgn:7488858",
          "tgn:1000004",
          "tgn:1000141",
          "tgn:7029392"
        ],
        "placetype": [
          "aat:300008347"
        ],
        "id": 7477168,
        "name:xx": "Fanziliaokeng"
      }
    },
    {
      "geometry": {
        "type": "Point",
        "coordinates": [
          120.760207,
          23.900668
        ]
      },
      "type": "Feature",
      "properties": {
        "hierarchy": [
          "tgn:7477169",
          "tgn:7488858",
          "tgn:1000004",
          "tgn:1000141",
          "tgn:7029392"
        ],
        "placetype": [
          "aat:300008347"
        ],
        "id": 7477169,
        "name:xx": "Houhukeng"
      }
    }
  ]
}
