{
  "type": "FeatureCollection",
  "features": [
    {
      "geometry": {
        "type": "Point",
        "coordinates": [
          74.362935,
          34.312527
        ]
      },
      "type": "Feature",
      "properties": {
        "hierarchy": [
          "tgn:7585610",
          "tgn:1000004",
          "tgn:7000198",
          "tgn:7000799",
          "tgn:7029392"
        ],
        "placetype": [
          "aat:300008347"
        ],
        "name:en": "Dundus",
        "id": 7585610
      }
    },
    {
      "geometry": {
        "type": "Point",
        "coordinates": [
          74.358424,
          34.313496
        ]
      },
      "type": "Feature",
      "properties": {
        "hierarchy": [
          "tgn:7585611",
          "tgn:1000004",
          "tgn:7000198",
          "tgn:7000799",
          "tgn:7029392"
        ],
        "placetype": [
          "aat:300008347"
        ],
        "name:en": "Mārigpur",
        "id": 7585611
      }
    },
    {
      "geometry": {
        "type": "Point",
        "coordinates": [
          74.366667,
          34.318056
        ]
      },
      "type": "Feature",
      "properties": {
        "hierarchy": [
          "tgn:7585612",
          "tgn:1000004",
          "tgn:7000198",
          "tgn:7000799",
          "tgn:7029392"
        ],
        "placetype": [
          "aat:300008347"
        ],
        "name:en": "Gund-i-Karīm Khān",
        "id": 7585612
      }
    },
    {
      "geometry": {
        "type": "Point",
        "coordinates": [
          74.367815,
          34.320086
        ]
      },
      "type": "Feature",
      "properties": {
        "hierarchy": [
          "tgn:7585613",
          "tgn:1000004",
          "tgn:7000198",
          "tgn:7000799",
          "tgn:7029392"
        ],
        "placetype": [
          "aat:300008699"
        ],
        "name:en": "Kād",
        "id": 7585613
      }
    },
    {
      "geometry": {
        "type": "Point",
        "coordinates": [
          74.373165,
          34.319198
        ]
      },
      "type": "Feature",
      "properties": {
        "hierarchy": [
          "tgn:7585614",
          "tgn:1000004",
          "tgn:7000198",
          "tgn:7000799",
          "tgn:7029392"
        ],
        "placetype": [
          "aat:300008347"
        ],
        "name:en": "Watargām",
        "id": 7585614
      }
    },
    {
      "geometry": {
        "type": "Point",
        "coordinates": [
          74.395545,
          34.313382
        ]
      },
      "type": "Feature",
      "properties": {
        "hierarchy": [
          "tgn:7585615",
          "tgn:1000004",
          "tgn:7000198",
          "tgn:7000799",
          "tgn:7029392"
        ],
        "placetype": [
          "aat:300008347"
        ],
        "name:en": "Gund-i-Mulrāj",
        "id": 7585615
      }
    },
    {
      "geometry": {
        "type": "Point",
        "coordinates": [
          74.398526,
          34.308694
        ]
      },
      "type": "Feature",
      "properties": {
        "hierarchy": [
          "tgn:7585616",
          "tgn:1000004",
          "tgn:7000198",
          "tgn:7000799",
          "tgn:7029392"
        ],
        "placetype": [
          "aat:300008347"
        ],
        "name:en": "Chatlūr",
        "id": 7585616
      }
    },
    {
      "geometry": {
        "type": "Point",
        "coordinates": [
          74.405556,
          34.315278
        ]
      },
      "type": "Feature",
      "properties": {
        "hierarchy": [
          "tgn:7585617",
          "tgn:1000004",
          "tgn:7000198",
          "tgn:7000799",
          "tgn:7029392"
        ],
        "placetype": [
          "aat:300008347"
        ],
        "name:en": "Rāmhom",
        "id": 7585617
      }
    },
    {
      "geometry": {
        "type": "Point",
        "coordinates": [
          74.397958,
          34.317292
        ]
      },
      "type": "Feature",
      "properties": {
        "hierarchy": [
          "tgn:7585618",
          "tgn:1000004",
          "tgn:7000198",
          "tgn:7000799",
          "tgn:7029392"
        ],
        "placetype": [
          "aat:300008347"
        ],
        "name:en": "Thaggund",
        "id": 7585618
      }
    },
    {
      "geometry": {
        "type": "Point",
        "coordinates": [
          74.416954,
          34.324656
        ]
      },
      "type": "Feature",
      "properties": {
        "hierarchy": [
          "tgn:7585619",
          "tgn:1000004",
          "tgn:7000198",
          "tgn:7000799",
          "tgn:7029392"
        ],
        "placetype": [
          "aat:300008347"
        ],
        "name:en": "Hiub Dāngarpur",
        "id": 7585619
      }
    }
  ]
}
