{
  "type": "FeatureCollection",
  "features": [
    {
      "geometry": {
        "type": "Point",
        "coordinates": [
          79.322367,
          26.47367
        ]
      },
      "type": "Feature",
      "properties": {
        "hierarchy": [
          "tgn:7560730",
          "tgn:1000004",
          "tgn:7000198",
          "tgn:7016722",
          "tgn:7029392"
        ],
        "placetype": [
          "aat:300008347"
        ],
        "name:en": "Tewarlālpur",
        "id": 7560730
      }
    },
    {
      "geometry": {
        "type": "Point",
        "coordinates": [
          79.330289,
          26.474442
        ]
      },
      "type": "Feature",
      "properties": {
        "hierarchy": [
          "tgn:7560731",
          "tgn:1000004",
          "tgn:7000198",
          "tgn:7016722",
          "tgn:7029392"
        ],
        "placetype": [
          "aat:300008347"
        ],
        "name:en": "Kachpura",
        "id": 7560731
      }
    },
    {
      "geometry": {
        "type": "Point",
        "coordinates": [
          79.326637,
          26.484842
        ]
      },
      "type": "Feature",
      "properties": {
        "hierarchy": [
          "tgn:7560732",
          "tgn:1000004",
          "tgn:7000198",
          "tgn:7016722",
          "tgn:7029392"
        ],
        "placetype": [
          "aat:300008347"
        ],
        "name:en": "Umrāosingh ka Adda",
        "id": 7560732
      }
    },
    {
      "geometry": {
        "type": "Point",
        "coordinates": [
          79.21537,
          26.894767
        ]
      },
      "type": "Feature",
      "properties": {
        "hierarchy": [
          "tgn:7560733",
          "tgn:1000004",
          "tgn:7000198",
          "tgn:7016722",
          "tgn:7029392"
        ],
        "placetype": [
          "aat:300008347"
        ],
        "name:en": "Pīpar ka Nagla",
        "id": 7560733
      }
    },
    {
      "geometry": {
        "type": "Point",
        "coordinates": [
          79.208655,
          26.899803
        ]
      },
      "type": "Feature",
      "properties": {
        "hierarchy": [
          "tgn:7560734",
          "tgn:1000004",
          "tgn:7000198",
          "tgn:7016722",
          "tgn:7029392"
        ],
        "placetype": [
          "aat:300008347"
        ],
        "name:en": "Keshopur",
        "id": 7560734
      }
    },
    {
      "geometry": {
        "type": "Point",
        "coordinates": [
          79.185066,
          26.898975
        ]
      },
      "type": "Feature",
      "properties": {
        "hierarchy": [
          "tgn:7560735",
          "tgn:1000004",
          "tgn:7000198",
          "tgn:7016722",
          "tgn:7029392"
        ],
        "placetype": [
          "aat:300008347"
        ],
        "name:en": "Takpura",
        "id": 7560735
      }
    },
    {
      "geometry": {
        "type": "Point",
        "coordinates": [
          79.178234,
          26.895644
        ]
      },
      "type": "Feature",
      "properties": {
        "hierarchy": [
          "tgn:7560736",
          "tgn:1000004",
          "tgn:7000198",
          "tgn:7016722",
          "tgn:7029392"
        ],
        "placetype": [
          "aat:300008347"
        ],
        "name:en": "Takīpura",
        "id": 7560736
      }
    },
    {
      "geometry": {
        "type": "Point",
        "coordinates": [
          79.197466,
          26.902741
        ]
      },
      "type": "Feature",
      "properties": {
        "hierarchy": [
          "tgn:7560737",
          "tgn:1000004",
          "tgn:7000198",
          "tgn:7016722",
          "tgn:7029392"
        ],
        "placetype": [
          "aat:300008347"
        ],
        "name:en": "Nagla Bhānwar",
        "id": 7560737
      }
    },
    {
      "geometry": {
        "type": "Point",
        "coordinates": [
          79.198916,
          26.907019
        ]
      },
      "type": "Feature",
      "properties": {
        "hierarchy": [
          "tgn:7560738",
          "tgn:1000004",
          "tgn:7000198",
          "tgn:7016722",
          "tgn:7029392"
        ],
        "placetype": [
          "aat:300008347"
        ],
        "name:en": "Todarpur",
        "id": 7560738
      }
    },
    {
      "geometry": {
        "type": "Point",
        "coordinates": [
          79.190158,
          26.90832
        ]
      },
      "type": "Feature",
      "properties": {
        "hierarchy": [
          "tgn:7560739",
          "tgn:1000004",
          "tgn:7000198",
          "tgn:7016722",
          "tgn:7029392"
        ],
        "placetype": [
          "aat:300008347"
        ],
        "name:en": "Ghāsīpura",
        "id": 7560739
      }
    }
  ]
}
