{
  "type": "FeatureCollection",
  "features": [
    {
      "geometry": {
        "type": "Point",
        "coordinates": [
          121.622875,
          25.229548
        ]
      },
      "type": "Feature",
      "properties": {
        "hierarchy": [
          "tgn:7497130",
          "tgn:1000004",
          "tgn:1000454",
          "tgn:1000141",
          "tgn:7029392"
        ],
        "placetype": [
          "aat:300007836"
        ],
        "id": 7497130,
        "name:xx": "Sanjie Qiao"
      }
    },
    {
      "geometry": {
        "type": "Point",
        "coordinates": [
          121.415006,
          25.033211
        ]
      },
      "type": "Feature",
      "properties": {
        "hierarchy": [
          "tgn:7497131",
          "tgn:1000004",
          "tgn:1000454",
          "tgn:1000141",
          "tgn:7029392"
        ],
        "placetype": [
          "aat:300266755"
        ],
        "id": 7497131,
        "name:xx": "Xinzhuang Shi Diyi Gongmu"
      }
    },
    {
      "geometry": {
        "type": "Point",
        "coordinates": [
          121.467656,
          25.042064
        ]
      },
      "type": "Feature",
      "properties": {
        "hierarchy": [
          "tgn:7497132",
          "tgn:1000004",
          "tgn:1000454",
          "tgn:1000141",
          "tgn:7029392"
        ],
        "placetype": [
          "aat:300387033"
        ],
        "id": 7497132,
        "name:xx": "Erchongbuzhuang"
      }
    },
    {
      "geometry": {
        "type": "Point",
        "coordinates": [
          121.475838,
          25.045511
        ]
      },
      "type": "Feature",
      "properties": {
        "hierarchy": [
          "tgn:7497133",
          "tgn:1000004",
          "tgn:1000454",
          "tgn:1000141",
          "tgn:7029392"
        ],
        "placetype": [
          "aat:300007595"
        ],
        "id": 7497133,
        "name:xx": "Guangming Si"
      }
    },
    {
      "geometry": {
        "type": "Point",
        "coordinates": [
          121.488799,
          25.070465
        ]
      },
      "type": "Feature",
      "properties": {
        "hierarchy": [
          "tgn:7497134",
          "tgn:1000004",
          "tgn:1000454",
          "tgn:1000141",
          "tgn:7029392"
        ],
        "placetype": [
          "aat:300006495"
        ],
        "id": 7497134,
        "name:xx": "Houde Guoxiao"
      }
    },
    {
      "geometry": {
        "type": "Point",
        "coordinates": [
          121.473001,
          25.071523
        ]
      },
      "type": "Feature",
      "properties": {
        "hierarchy": [
          "tgn:7497135",
          "tgn:1000004",
          "tgn:1000454",
          "tgn:1000141",
          "tgn:7029392"
        ],
        "placetype": [
          "aat:300387033"
        ],
        "id": 7497135,
        "name:xx": "Dayouzhuang"
      }
    },
    {
      "geometry": {
        "type": "Point",
        "coordinates": [
          121.49557,
          25.07454
        ]
      },
      "type": "Feature",
      "properties": {
        "hierarchy": [
          "tgn:7497136",
          "tgn:1000004",
          "tgn:1000959",
          "tgn:1000141",
          "tgn:7029392"
        ],
        "placetype": [
          "aat:300387033"
        ],
        "id": 7497136,
        "name:xx": "Sanchongbuzhuang"
      }
    },
    {
      "geometry": {
        "type": "Point",
        "coordinates": [
          121.44135,
          25.082148
        ]
      },
      "type": "Feature",
      "properties": {
        "hierarchy": [
          "tgn:7497137",
          "tgn:1000004",
          "tgn:1000454",
          "tgn:1000141",
          "tgn:7029392"
        ],
        "placetype": [
          "aat:300007836"
        ],
        "id": 7497137,
        "name:xx": "Wugu Qiao"
      }
    },
    {
      "geometry": {
        "type": "Point",
        "coordinates": [
          121.441201,
          25.087687
        ]
      },
      "type": "Feature",
      "properties": {
        "hierarchy": [
          "tgn:7497138",
          "tgn:1000004",
          "tgn:1000454",
          "tgn:1000141",
          "tgn:7029392"
        ],
        "placetype": [
          "aat:300007836"
        ],
        "id": 7497138,
        "name:xx": "Zhouzi Qiao"
      }
    },
    {
      "geometry": {
        "type": "Point",
        "coordinates": [
          121.386461,
          25.082253
        ]
      },
      "type": "Feature",
      "properties": {
        "hierarchy": [
          "tgn:7497139",
          "tgn:1000004",
          "tgn:1000454",
          "tgn:1000141",
          "tgn:7029392"
        ],
        "placetype": [
          "aat:300387033"
        ],
        "id": 7497139,
        "name:xx": "Shulinkou Shan"
      }
    }
  ]
}
