{
  "type": "FeatureCollection",
  "features": [
    {
      "geometry": {
        "type": "Point",
        "coordinates": [
          78.46259,
          24.768589
        ]
      },
      "type": "Feature",
      "properties": {
        "hierarchy": [
          "tgn:7582510",
          "tgn:1000004",
          "tgn:7000198",
          "tgn:7016722",
          "tgn:7029392"
        ],
        "placetype": [
          "aat:300008347"
        ],
        "name:en": "Pāchauni",
        "id": 7582510
      }
    },
    {
      "geometry": {
        "type": "Point",
        "coordinates": [
          78.479806,
          24.766055
        ]
      },
      "type": "Feature",
      "properties": {
        "hierarchy": [
          "tgn:7582511",
          "tgn:1000004",
          "tgn:7000198",
          "tgn:7016722",
          "tgn:7029392"
        ],
        "placetype": [
          "aat:300008347"
        ],
        "name:en": "Dhobankheri",
        "id": 7582511
      }
    },
    {
      "geometry": {
        "type": "Point",
        "coordinates": [
          78.272328,
          24.803089
        ]
      },
      "type": "Feature",
      "properties": {
        "hierarchy": [
          "tgn:7582512",
          "tgn:1000004",
          "tgn:7000198",
          "tgn:7016722",
          "tgn:7029392"
        ],
        "placetype": [
          "aat:300008347"
        ],
        "name:en": "Sati",
        "id": 7582512
      }
    },
    {
      "geometry": {
        "type": "Point",
        "coordinates": [
          78.492209,
          24.77711
        ]
      },
      "type": "Feature",
      "properties": {
        "hierarchy": [
          "tgn:7582513",
          "tgn:1000004",
          "tgn:7000198",
          "tgn:7016722",
          "tgn:7029392"
        ],
        "placetype": [
          "aat:300008347"
        ],
        "name:en": "Barkhiria",
        "id": 7582513
      }
    },
    {
      "geometry": {
        "type": "Point",
        "coordinates": [
          78.353167,
          24.819991
        ]
      },
      "type": "Feature",
      "properties": {
        "hierarchy": [
          "tgn:7582514",
          "tgn:1000004",
          "tgn:7000198",
          "tgn:7016722",
          "tgn:7029392"
        ],
        "placetype": [
          "aat:300008347"
        ],
        "name:en": "Mangawān",
        "id": 7582514
      }
    },
    {
      "geometry": {
        "type": "Point",
        "coordinates": [
          78.481903,
          24.784597
        ]
      },
      "type": "Feature",
      "properties": {
        "hierarchy": [
          "tgn:7582515",
          "tgn:1000004",
          "tgn:7000198",
          "tgn:7016722",
          "tgn:7029392"
        ],
        "placetype": [
          "aat:300008347"
        ],
        "name:en": "Kāri Toran",
        "id": 7582515
      }
    },
    {
      "geometry": {
        "type": "Point",
        "coordinates": [
          78.475346,
          24.785862
        ]
      },
      "type": "Feature",
      "properties": {
        "hierarchy": [
          "tgn:7582516",
          "tgn:1000004",
          "tgn:7000198",
          "tgn:7016722",
          "tgn:7029392"
        ],
        "placetype": [
          "aat:300008347"
        ],
        "name:en": "Imlia",
        "id": 7582516
      }
    },
    {
      "geometry": {
        "type": "Point",
        "coordinates": [
          78.469695,
          24.802222
        ]
      },
      "type": "Feature",
      "properties": {
        "hierarchy": [
          "tgn:7582517",
          "tgn:1000004",
          "tgn:7000198",
          "tgn:7016722",
          "tgn:7029392"
        ],
        "placetype": [
          "aat:300008699"
        ],
        "name:en": "Barwa Nāla",
        "id": 7582517
      }
    },
    {
      "geometry": {
        "type": "Point",
        "coordinates": [
          78.443388,
          24.783929
        ]
      },
      "type": "Feature",
      "properties": {
        "hierarchy": [
          "tgn:7582518",
          "tgn:1000004",
          "tgn:7000198",
          "tgn:7016722",
          "tgn:7029392"
        ],
        "placetype": [
          "aat:300008347"
        ],
        "name:en": "Bighākhet",
        "id": 7582518
      }
    },
    {
      "geometry": {
        "type": "Point",
        "coordinates": [
          78.435672,
          24.77981
        ]
      },
      "type": "Feature",
      "properties": {
        "hierarchy": [
          "tgn:7582519",
          "tgn:1000004",
          "tgn:7000198",
          "tgn:7016722",
          "tgn:7029392"
        ],
        "placetype": [
          "aat:300008347"
        ],
        "name:en": "Mahara",
        "id": 7582519
      }
    }
  ]
}
