{
  "type": "FeatureCollection",
  "features": [
    {
      "geometry": {
        "type": "Point",
        "coordinates": [
          75.533333,
          15.366667
        ]
      },
      "type": "Feature",
      "properties": {
        "hierarchy": [
          "tgn:7574980",
          "tgn:1000004",
          "tgn:7000198",
          "tgn:1001882",
          "tgn:7029392"
        ],
        "placetype": [
          "aat:300008347"
        ],
        "name:en": "Kurtkoti",
        "id": 7574980
      }
    },
    {
      "geometry": {
        "type": "Point",
        "coordinates": [
          84.811044,
          25.124299
        ]
      },
      "type": "Feature",
      "properties": {
        "hierarchy": [
          "tgn:7574981",
          "tgn:1000004",
          "tgn:1001842",
          "tgn:7000198",
          "tgn:7029392"
        ],
        "placetype": [
          "aat:300008347"
        ],
        "name:en": "Kurtha",
        "id": 7574981
      }
    },
    {
      "geometry": {
        "type": "Point",
        "coordinates": [
          83.75,
          20.066667
        ]
      },
      "type": "Feature",
      "properties": {
        "hierarchy": [
          "tgn:7574982",
          "tgn:1000004",
          "tgn:7000198",
          "tgn:7016694",
          "tgn:7029392"
        ],
        "placetype": [
          "aat:300008347"
        ],
        "name:en": "Kurtamgar",
        "id": 7574982
      }
    },
    {
      "geometry": {
        "type": "Point",
        "coordinates": [
          86.309788,
          26.117948
        ]
      },
      "type": "Feature",
      "properties": {
        "hierarchy": [
          "tgn:7574983",
          "tgn:1000004",
          "tgn:1001842",
          "tgn:7000198",
          "tgn:7029392"
        ],
        "placetype": [
          "aat:300008347"
        ],
        "name:en": "Kurson",
        "id": 7574983
      }
    },
    {
      "geometry": {
        "type": "Point",
        "coordinates": [
          81.047452,
          27.063088
        ]
      },
      "type": "Feature",
      "properties": {
        "hierarchy": [
          "tgn:7574984",
          "tgn:1000004",
          "tgn:7000198",
          "tgn:7016722",
          "tgn:7029392"
        ],
        "placetype": [
          "aat:300008347"
        ],
        "name:en": "Kursi",
        "id": 7574984
      }
    },
    {
      "geometry": {
        "type": "Point",
        "coordinates": [
          76.903804,
          33.535197
        ]
      },
      "type": "Feature",
      "properties": {
        "hierarchy": [
          "tgn:7574985",
          "tgn:1000004",
          "tgn:7000198",
          "tgn:7000799",
          "tgn:7029392"
        ],
        "placetype": [
          "aat:300008347"
        ],
        "name:en": "Kursha Gömpa",
        "id": 7574985
      }
    },
    {
      "geometry": {
        "type": "Point",
        "coordinates": [
          80.766667,
          20.233333
        ]
      },
      "type": "Feature",
      "properties": {
        "hierarchy": [
          "tgn:7574987",
          "tgn:1000004",
          "tgn:7031781",
          "tgn:7000198",
          "tgn:7029392"
        ],
        "placetype": [
          "aat:300008347"
        ],
        "name:en": "Kurse Korhi",
        "id": 7574987
      }
    },
    {
      "geometry": {
        "type": "Point",
        "coordinates": [
          87.40065,
          26.367214
        ]
      },
      "type": "Feature",
      "properties": {
        "hierarchy": [
          "tgn:7574988",
          "tgn:1000004",
          "tgn:1001842",
          "tgn:7000198",
          "tgn:7029392"
        ],
        "placetype": [
          "aat:300008347"
        ],
        "name:en": "Kursākāta",
        "id": 7574988
      }
    },
    {
      "geometry": {
        "type": "Point",
        "coordinates": [
          79.216667,
          9.25
        ]
      },
      "type": "Feature",
      "properties": {
        "hierarchy": [
          "tgn:7574989",
          "tgn:1000004",
          "tgn:7000198",
          "tgn:7001797",
          "tgn:7029392"
        ],
        "placetype": [
          "aat:300008791"
        ],
        "name:en": "Kursadi Tīvu",
        "id": 7574989
      }
    }
  ]
}
