{
  "type": "FeatureCollection",
  "features": [
    {
      "geometry": {
        "type": "Point",
        "coordinates": [
          76.673333,
          12.500556
        ]
      },
      "type": "Feature",
      "properties": {
        "hierarchy": [
          "tgn:7553351",
          "tgn:1000004",
          "tgn:7000198",
          "tgn:1001882",
          "tgn:7029392"
        ],
        "placetype": [
          "aat:300008347"
        ],
        "name:en": "Pāndavapura",
        "id": 7553351
      }
    },
    {
      "geometry": {
        "type": "Point",
        "coordinates": [
          78.55,
          10.233333
        ]
      },
      "type": "Feature",
      "properties": {
        "hierarchy": [
          "tgn:7553352",
          "tgn:1000004",
          "tgn:7000198",
          "tgn:7001797",
          "tgn:7029392"
        ],
        "placetype": [
          "aat:300008347"
        ],
        "name:en": "Neykuppai",
        "id": 7553352
      }
    },
    {
      "geometry": {
        "type": "Point",
        "coordinates": [
          89.166667,
          21.616667
        ]
      },
      "type": "Feature",
      "properties": {
        "hierarchy": [
          "tgn:7553353",
          "tgn:1000004",
          "tgn:7000198",
          "tgn:1001977",
          "tgn:7029392"
        ],
        "placetype": [
          "aat:300008791"
        ],
        "name:en": "New Moore Island",
        "id": 7553353
      }
    },
    {
      "geometry": {
        "type": "Point",
        "coordinates": [
          74.820833,
          12.927778
        ]
      },
      "type": "Feature",
      "properties": {
        "hierarchy": [
          "tgn:7553354",
          "tgn:1000004",
          "tgn:7000198",
          "tgn:1001882",
          "tgn:7029392"
        ],
        "placetype": [
          "aat:300120599"
        ],
        "name:en": "New Mangalore",
        "id": 7553354
      }
    },
    {
      "geometry": {
        "type": "Point",
        "coordinates": [
          70.233333,
          23.016667
        ]
      },
      "type": "Feature",
      "properties": {
        "hierarchy": [
          "tgn:7553355",
          "tgn:1000004",
          "tgn:1001869",
          "tgn:7000198",
          "tgn:7029392"
        ],
        "placetype": [
          "aat:300007783"
        ],
        "name:en": "New Kandla",
        "id": 7553355
      }
    },
    {
      "geometry": {
        "type": "Point",
        "coordinates": [
          88.483333,
          26.683333
        ]
      },
      "type": "Feature",
      "properties": {
        "hierarchy": [
          "tgn:7553356",
          "tgn:1000004",
          "tgn:7000198",
          "tgn:1001977",
          "tgn:7029392"
        ],
        "placetype": [
          "aat:300007783"
        ],
        "name:en": "New Jalpaiguri",
        "id": 7553356
      }
    },
    {
      "geometry": {
        "type": "Point",
        "coordinates": [
          88.442682,
          22.526734
        ]
      },
      "type": "Feature",
      "properties": {
        "hierarchy": [
          "tgn:7553358",
          "tgn:1000004",
          "tgn:7000198",
          "tgn:1001977",
          "tgn:7029392"
        ],
        "placetype": [
          "aat:300006075"
        ],
        "name:en": "New Cut Canal",
        "id": 7553358
      }
    },
    {
      "geometry": {
        "type": "Point",
        "coordinates": [
          76.250761,
          22.857254
        ]
      },
      "type": "Feature",
      "properties": {
        "hierarchy": [
          "tgn:7553359",
          "tgn:1000004",
          "tgn:7000198",
          "tgn:1001894",
          "tgn:7029392"
        ],
        "placetype": [
          "aat:300008347"
        ],
        "name:en": "Newāri",
        "id": 7553359
      }
    }
  ]
}
