{
  "type": "FeatureCollection",
  "features": [
    {
      "geometry": {
        "type": "Point",
        "coordinates": [
          -111.238889,
          30.951389
        ]
      },
      "type": "Feature",
      "properties": {
        "hierarchy": [
          "tgn:7398340",
          "tgn:1000001",
          "tgn:1001960",
          "tgn:7005560",
          "tgn:7029392"
        ],
        "placetype": [
          "aat:300266554",
          "aat:300008699"
        ],
        "id": 7398340,
        "name:xx": "Las Fragüitas"
      }
    },
    {
      "geometry": {
        "type": "Point",
        "coordinates": [
          -111.228889,
          30.966667
        ]
      },
      "type": "Feature",
      "properties": {
        "hierarchy": [
          "tgn:7398341",
          "tgn:1000001",
          "tgn:1001960",
          "tgn:7005560",
          "tgn:7029392"
        ],
        "placetype": [
          "aat:300006191"
        ],
        "id": 7398341,
        "name:xx": "San Bartolo"
      }
    },
    {
      "geometry": {
        "type": "Point",
        "coordinates": [
          -111.006944,
          30.993333
        ]
      },
      "type": "Feature",
      "properties": {
        "hierarchy": [
          "tgn:7398342",
          "tgn:1000001",
          "tgn:1001960",
          "tgn:7005560",
          "tgn:7029392"
        ],
        "placetype": [
          "aat:300008763"
        ],
        "id": 7398342,
        "name:xx": "El Guacomea, Cañón"
      }
    },
    {
      "geometry": {
        "type": "Point",
        "coordinates": [
          -111.043056,
          30.995556
        ]
      },
      "type": "Feature",
      "properties": {
        "hierarchy": [
          "tgn:7398343",
          "tgn:1000001",
          "tgn:1001960",
          "tgn:7005560",
          "tgn:7029392"
        ],
        "placetype": [
          "aat:300008773"
        ],
        "id": 7398343,
        "name:xx": "Nogalitos, Cañada"
      }
    },
    {
      "geometry": {
        "type": "Point",
        "coordinates": [
          -111.0225,
          30.986944
        ]
      },
      "type": "Feature",
      "properties": {
        "hierarchy": [
          "tgn:7398344",
          "tgn:1000001",
          "tgn:1001960",
          "tgn:7005560",
          "tgn:7029392"
        ],
        "placetype": [
          "aat:300008773"
        ],
        "id": 7398344,
        "name:xx": "El Tecolote, Cañada"
      }
    },
    {
      "geometry": {
        "type": "Point",
        "coordinates": [
          -111.004167,
          30.975
        ]
      },
      "type": "Feature",
      "properties": {
        "hierarchy": [
          "tgn:7398345",
          "tgn:1000001",
          "tgn:1001960",
          "tgn:7005560",
          "tgn:7029392"
        ],
        "placetype": [
          "aat:300008773"
        ],
        "id": 7398345,
        "name:xx": "Las Panochas, Cañada"
      }
    },
    {
      "geometry": {
        "type": "Point",
        "coordinates": [
          -111.021667,
          30.965833
        ]
      },
      "type": "Feature",
      "properties": {
        "hierarchy": [
          "tgn:7398346",
          "tgn:1000001",
          "tgn:1001960",
          "tgn:7005560",
          "tgn:7029392"
        ],
        "placetype": [
          "aat:300008773"
        ],
        "id": 7398346,
        "name:xx": "Los Venados, Cañada"
      }
    },
    {
      "geometry": {
        "type": "Point",
        "coordinates": [
          -111.008333,
          30.959722
        ]
      },
      "type": "Feature",
      "properties": {
        "hierarchy": [
          "tgn:7398347",
          "tgn:1000001",
          "tgn:1001960",
          "tgn:7005560",
          "tgn:7029392"
        ],
        "placetype": [
          "aat:300008773"
        ],
        "id": 7398347,
        "name:xx": "El Injerto, Cañada"
      }
    },
    {
      "geometry": {
        "type": "Point",
        "coordinates": [
          -111.005833,
          30.950278
        ]
      },
      "type": "Feature",
      "properties": {
        "hierarchy": [
          "tgn:7398348",
          "tgn:1000001",
          "tgn:1001960",
          "tgn:7005560",
          "tgn:7029392"
        ],
        "placetype": [
          "aat:300008773"
        ],
        "id": 7398348,
        "name:xx": "Los Chigüis, Cañada"
      }
    },
    {
      "geometry": {
        "type": "Point",
        "coordinates": [
          -111.013056,
          30.917778
        ]
      },
      "type": "Feature",
      "properties": {
        "hierarchy": [
          "tgn:7398349",
          "tgn:1000001",
          "tgn:1001960",
          "tgn:7005560",
          "tgn:7029392"
        ],
        "placetype": [
          "aat:300008773"
        ],
        "id": 7398349,
        "name:xx": "Los Novillos, Cañada"
      }
    }
  ]
}
