{
  "type": "FeatureCollection",
  "features": [
    {
      "geometry": {
        "type": "Point",
        "coordinates": [
          77.50437,
          25.47797
        ]
      },
      "type": "Feature",
      "properties": {
        "hierarchy": [
          "tgn:7578690",
          "tgn:1000004",
          "tgn:7000198",
          "tgn:1001894",
          "tgn:7029392"
        ],
        "placetype": [
          "aat:300008347"
        ],
        "name:en": "Sirsod",
        "id": 7578690
      }
    },
    {
      "geometry": {
        "type": "Point",
        "coordinates": [
          76.790387,
          34.094696
        ]
      },
      "type": "Feature",
      "properties": {
        "hierarchy": [
          "tgn:7578691",
          "tgn:1000004",
          "tgn:7000198",
          "tgn:7000799",
          "tgn:7029392"
        ],
        "placetype": [
          "aat:300259572"
        ],
        "name:en": "Sirsir La",
        "id": 7578691
      }
    },
    {
      "geometry": {
        "type": "Point",
        "coordinates": [
          78.641652,
          28.634406
        ]
      },
      "type": "Feature",
      "properties": {
        "hierarchy": [
          "tgn:7578692",
          "tgn:1000004",
          "tgn:7000198",
          "tgn:7016722",
          "tgn:7029392"
        ],
        "placetype": [
          "aat:300007783"
        ],
        "name:en": "Sirsi Mukhdumpur",
        "id": 7578692
      }
    },
    {
      "geometry": {
        "type": "Point",
        "coordinates": [
          78.641524,
          28.639334
        ]
      },
      "type": "Feature",
      "properties": {
        "hierarchy": [
          "tgn:7578694",
          "tgn:1000004",
          "tgn:7000198",
          "tgn:7016722",
          "tgn:7029392"
        ],
        "placetype": [
          "aat:300008347"
        ],
        "name:en": "Sirsi",
        "id": 7578694
      }
    },
    {
      "geometry": {
        "type": "Point",
        "coordinates": [
          83.095521,
          26.540807
        ]
      },
      "type": "Feature",
      "properties": {
        "hierarchy": [
          "tgn:7578695",
          "tgn:1000004",
          "tgn:7000198",
          "tgn:7016722",
          "tgn:7029392"
        ],
        "placetype": [
          "aat:300008347"
        ],
        "name:en": "Sirsi",
        "id": 7578695
      }
    },
    {
      "geometry": {
        "type": "Point",
        "coordinates": [
          77.25,
          25.016667
        ]
      },
      "type": "Feature",
      "properties": {
        "hierarchy": [
          "tgn:7578696",
          "tgn:1000004",
          "tgn:7000198",
          "tgn:1001894",
          "tgn:7029392"
        ],
        "placetype": [
          "aat:300008347"
        ],
        "name:en": "Sirs카",
        "id": 7578696
      }
    },
    {
      "geometry": {
        "type": "Point",
        "coordinates": [
          82.491737,
          24.844827
        ]
      },
      "type": "Feature",
      "properties": {
        "hierarchy": [
          "tgn:7578697",
          "tgn:1000004",
          "tgn:7000198",
          "tgn:7016722",
          "tgn:7029392"
        ],
        "placetype": [
          "aat:300008347"
        ],
        "name:en": "Sirsi",
        "id": 7578697
      }
    },
    {
      "geometry": {
        "type": "Point",
        "coordinates": [
          73.483333,
          20.766667
        ]
      },
      "type": "Feature",
      "properties": {
        "hierarchy": [
          "tgn:7578698",
          "tgn:1000004",
          "tgn:1001869",
          "tgn:7000198",
          "tgn:7029392"
        ],
        "placetype": [
          "aat:300008347"
        ],
        "name:en": "Wagh훮i",
        "id": 7578698
      }
    },
    {
      "geometry": {
        "type": "Point",
        "coordinates": [
          73.716667,
          20.233333
        ]
      },
      "type": "Feature",
      "properties": {
        "hierarchy": [
          "tgn:7578699",
          "tgn:1000004",
          "tgn:7000198",
          "tgn:1001895",
          "tgn:7029392"
        ],
        "placetype": [
          "aat:300008347"
        ],
        "name:en": "W훮gh훮d",
        "id": 7578699
      }
    }
  ]
}
