{
  "type": "FeatureCollection",
  "features": [
    {
      "geometry": {
        "type": "Point",
        "coordinates": [
          32.138176,
          29.535837
        ]
      },
      "type": "Feature",
      "properties": {
        "hierarchy": [
          "tgn:7533110",
          "tgn:7001242",
          "tgn:7016833",
          "tgn:1001110",
          "tgn:7029392"
        ],
        "placetype": [
          "aat:300379998"
        ],
        "name:en": "Malam, Wādī",
        "id": 7533110
      }
    },
    {
      "geometry": {
        "type": "Point",
        "coordinates": [
          32.155483,
          29.481058
        ]
      },
      "type": "Feature",
      "properties": {
        "hierarchy": [
          "tgn:7533111",
          "tgn:7001242",
          "tgn:7016833",
          "tgn:1001110",
          "tgn:7029392"
        ],
        "placetype": [
          "aat:300379998"
        ],
        "name:en": "Maksarā, Wādī al",
        "id": 7533111
      }
    },
    {
      "geometry": {
        "type": "Point",
        "coordinates": [
          32.127416,
          29.469945
        ]
      },
      "type": "Feature",
      "properties": {
        "hierarchy": [
          "tgn:7533112",
          "tgn:7001242",
          "tgn:7016833",
          "tgn:1001110",
          "tgn:7029392"
        ],
        "placetype": [
          "aat:300379998"
        ],
        "name:en": "Muzāri', Wādī al",
        "id": 7533112
      }
    },
    {
      "geometry": {
        "type": "Point",
        "coordinates": [
          32.112002,
          29.500156
        ]
      },
      "type": "Feature",
      "properties": {
        "hierarchy": [
          "tgn:7533113",
          "tgn:7001242",
          "tgn:7016833",
          "tgn:1001110",
          "tgn:7029392"
        ],
        "placetype": [
          "aat:300379998"
        ],
        "name:en": "Kutrah, Wādī al",
        "id": 7533113
      }
    },
    {
      "geometry": {
        "type": "Point",
        "coordinates": [
          32.052396,
          29.533316
        ]
      },
      "type": "Feature",
      "properties": {
        "hierarchy": [
          "tgn:7533114",
          "tgn:7001242",
          "tgn:7016833",
          "tgn:1001110",
          "tgn:7029392"
        ],
        "placetype": [
          "aat:300379998"
        ],
        "name:en": "Minaydrah, Wādī",
        "id": 7533114
      }
    },
    {
      "geometry": {
        "type": "Point",
        "coordinates": [
          31.641527,
          30.705955
        ]
      },
      "type": "Feature",
      "properties": {
        "hierarchy": [
          "tgn:7533115",
          "tgn:7001242",
          "tgn:7016833",
          "tgn:1001113",
          "tgn:7029392"
        ],
        "placetype": [
          "aat:300008347"
        ],
        "id": 7533115,
        "name:xx": "'Izbat Dawwārah"
      }
    },
    {
      "geometry": {
        "type": "Point",
        "coordinates": [
          31.639038,
          30.701822
        ]
      },
      "type": "Feature",
      "properties": {
        "hierarchy": [
          "tgn:7533116",
          "tgn:7001242",
          "tgn:7016833",
          "tgn:1001113",
          "tgn:7029392"
        ],
        "placetype": [
          "aat:300008347"
        ],
        "id": 7533116,
        "name:xx": "'Izbat as Sajjād"
      }
    },
    {
      "geometry": {
        "type": "Point",
        "coordinates": [
          31.623917,
          30.691726
        ]
      },
      "type": "Feature",
      "properties": {
        "hierarchy": [
          "tgn:7533117",
          "tgn:7001242",
          "tgn:7016833",
          "tgn:1001113",
          "tgn:7029392"
        ],
        "placetype": [
          "aat:300008347"
        ],
        "id": 7533117,
        "name:xx": "'Izbat al Birins"
      }
    },
    {
      "geometry": {
        "type": "Point",
        "coordinates": [
          31.682192,
          30.733152
        ]
      },
      "type": "Feature",
      "properties": {
        "hierarchy": [
          "tgn:7533118",
          "tgn:7001242",
          "tgn:7016833",
          "tgn:1001113",
          "tgn:7029392"
        ],
        "placetype": [
          "aat:300008347"
        ],
        "id": 7533118,
        "name:xx": "'Izbat as Sīs"
      }
    },
    {
      "geometry": {
        "type": "Point",
        "coordinates": [
          31.671572,
          30.740639
        ]
      },
      "type": "Feature",
      "properties": {
        "hierarchy": [
          "tgn:7533119",
          "tgn:7001242",
          "tgn:7016833",
          "tgn:1001113",
          "tgn:7029392"
        ],
        "placetype": [
          "aat:300008347"
        ],
        "id": 7533119,
        "name:xx": "'Izbat al Farnawānī"
      }
    }
  ]
}
