{
  "type": "FeatureCollection",
  "features": [
    {
      "geometry": {
        "type": "Point",
        "coordinates": [
          -101.406944,
          20.884722
        ]
      },
      "type": "Feature",
      "properties": {
        "hierarchy": [
          "tgn:7416021",
          "tgn:7005584",
          "tgn:1000001",
          "tgn:7005560",
          "tgn:7029392"
        ],
        "placetype": [
          "aat:300007783"
        ],
        "id": 7416021,
        "name:xx": "Estación El Cerrito"
      }
    },
    {
      "geometry": {
        "type": "Point",
        "coordinates": [
          -101.36,
          20.890556
        ]
      },
      "type": "Feature",
      "properties": {
        "hierarchy": [
          "tgn:7416022",
          "tgn:7005584",
          "tgn:1000001",
          "tgn:7005560",
          "tgn:7029392"
        ],
        "placetype": [
          "aat:300008347"
        ],
        "id": 7416022,
        "name:xx": "El Espejo"
      }
    },
    {
      "geometry": {
        "type": "Point",
        "coordinates": [
          -101.343611,
          20.880556
        ]
      },
      "type": "Feature",
      "properties": {
        "hierarchy": [
          "tgn:7416023",
          "tgn:7005584",
          "tgn:1000001",
          "tgn:7005560",
          "tgn:7029392"
        ],
        "placetype": [
          "aat:300008347"
        ],
        "id": 7416023,
        "name:xx": "San Andrés de la Baraña"
      }
    },
    {
      "geometry": {
        "type": "Point",
        "coordinates": [
          -101.359722,
          20.871111
        ]
      },
      "type": "Feature",
      "properties": {
        "hierarchy": [
          "tgn:7416024",
          "tgn:7005584",
          "tgn:1000001",
          "tgn:7005560",
          "tgn:7029392"
        ],
        "placetype": [
          "aat:300008347"
        ],
        "id": 7416024,
        "name:xx": "El Medio Sitio"
      }
    },
    {
      "geometry": {
        "type": "Point",
        "coordinates": [
          -101.263889,
          20.859167
        ]
      },
      "type": "Feature",
      "properties": {
        "hierarchy": [
          "tgn:7416025",
          "tgn:7005584",
          "tgn:1000001",
          "tgn:7005560",
          "tgn:7029392"
        ],
        "placetype": [
          "aat:300008795"
        ],
        "id": 7416025,
        "name:xx": "El Sombrero, Cerro"
      }
    },
    {
      "geometry": {
        "type": "Point",
        "coordinates": [
          -101.272222,
          20.876389
        ]
      },
      "type": "Feature",
      "properties": {
        "hierarchy": [
          "tgn:7416026",
          "tgn:7005584",
          "tgn:1000001",
          "tgn:7005560",
          "tgn:7029392"
        ],
        "placetype": [
          "aat:300008347"
        ],
        "id": 7416026,
        "name:xx": "El Zangarro"
      }
    },
    {
      "geometry": {
        "type": "Point",
        "coordinates": [
          -101.300556,
          20.883889
        ]
      },
      "type": "Feature",
      "properties": {
        "hierarchy": [
          "tgn:7416027",
          "tgn:7005584",
          "tgn:1000001",
          "tgn:7005560",
          "tgn:7029392"
        ],
        "placetype": [
          "aat:300008347"
        ],
        "id": 7416027,
        "name:xx": "El Capulín"
      }
    },
    {
      "geometry": {
        "type": "Point",
        "coordinates": [
          -101.342778,
          20.857222
        ]
      },
      "type": "Feature",
      "properties": {
        "hierarchy": [
          "tgn:7416028",
          "tgn:7005584",
          "tgn:1000001",
          "tgn:7005560",
          "tgn:7029392"
        ],
        "placetype": [
          "aat:300008347"
        ],
        "id": 7416028,
        "name:xx": "La Paz"
      }
    },
    {
      "geometry": {
        "type": "Point",
        "coordinates": [
          -101.367222,
          20.851389
        ]
      },
      "type": "Feature",
      "properties": {
        "hierarchy": [
          "tgn:7416029",
          "tgn:7005584",
          "tgn:1000001",
          "tgn:7005560",
          "tgn:7029392"
        ],
        "placetype": [
          "aat:300008347"
        ],
        "id": 7416029,
        "name:xx": "San Ramón de Gallegos"
      }
    }
  ]
}
