{
  "type": "FeatureCollection",
  "features": [
    {
      "geometry": {
        "type": "Point",
        "coordinates": [
          77.021944,
          31.204722
        ]
      },
      "type": "Feature",
      "properties": {
        "hierarchy": [
          "tgn:7568030",
          "tgn:1000004",
          "tgn:7000198",
          "tgn:1001996",
          "tgn:7029392"
        ],
        "placetype": [
          "aat:300008347"
        ],
        "name:en": "Rūg",
        "id": 7568030
      }
    },
    {
      "geometry": {
        "type": "Point",
        "coordinates": [
          77.039722,
          31.204722
        ]
      },
      "type": "Feature",
      "properties": {
        "hierarchy": [
          "tgn:7568031",
          "tgn:1000004",
          "tgn:7000198",
          "tgn:1001996",
          "tgn:7029392"
        ],
        "placetype": [
          "aat:300008347"
        ],
        "name:en": "Pipliāhār",
        "id": 7568031
      }
    },
    {
      "geometry": {
        "type": "Point",
        "coordinates": [
          77.011944,
          31.205556
        ]
      },
      "type": "Feature",
      "properties": {
        "hierarchy": [
          "tgn:7568032",
          "tgn:1000004",
          "tgn:7000198",
          "tgn:1001996",
          "tgn:7029392"
        ],
        "placetype": [
          "aat:300008863"
        ],
        "name:en": "Okhru Protected Forest",
        "id": 7568032
      }
    },
    {
      "geometry": {
        "type": "Point",
        "coordinates": [
          77.015278,
          31.214167
        ]
      },
      "type": "Feature",
      "properties": {
        "hierarchy": [
          "tgn:7568033",
          "tgn:1000004",
          "tgn:7000198",
          "tgn:1001996",
          "tgn:7029392"
        ],
        "placetype": [
          "aat:300008863"
        ],
        "name:en": "Madrayān Protected Forest",
        "id": 7568033
      }
    },
    {
      "geometry": {
        "type": "Point",
        "coordinates": [
          77.03,
          31.206389
        ]
      },
      "type": "Feature",
      "properties": {
        "hierarchy": [
          "tgn:7568034",
          "tgn:1000004",
          "tgn:7000198",
          "tgn:1001996",
          "tgn:7029392"
        ],
        "placetype": [
          "aat:300008863"
        ],
        "name:en": "Nihārag Protected Forest",
        "id": 7568034
      }
    },
    {
      "geometry": {
        "type": "Point",
        "coordinates": [
          77.036944,
          31.208333
        ]
      },
      "type": "Feature",
      "properties": {
        "hierarchy": [
          "tgn:7568035",
          "tgn:1000004",
          "tgn:7000198",
          "tgn:1001996",
          "tgn:7029392"
        ],
        "placetype": [
          "aat:300008347"
        ],
        "name:en": "Nihārag",
        "id": 7568035
      }
    },
    {
      "geometry": {
        "type": "Point",
        "coordinates": [
          77.105879,
          31.212437
        ]
      },
      "type": "Feature",
      "properties": {
        "hierarchy": [
          "tgn:7568036",
          "tgn:1000004",
          "tgn:7000198",
          "tgn:1001996",
          "tgn:7029392"
        ],
        "placetype": [
          "aat:300008347"
        ],
        "name:en": "Sharog",
        "id": 7568036
      }
    },
    {
      "geometry": {
        "type": "Point",
        "coordinates": [
          77.050299,
          31.230078
        ]
      },
      "type": "Feature",
      "properties": {
        "hierarchy": [
          "tgn:7568037",
          "tgn:1000004",
          "tgn:7000198",
          "tgn:1001996",
          "tgn:7029392"
        ],
        "placetype": [
          "aat:300266554",
          "aat:300008699"
        ],
        "name:en": "Nayāsery ka Khad",
        "id": 7568037
      }
    },
    {
      "geometry": {
        "type": "Point",
        "coordinates": [
          77.085556,
          31.214722
        ]
      },
      "type": "Feature",
      "properties": {
        "hierarchy": [
          "tgn:7568038",
          "tgn:1000004",
          "tgn:7000198",
          "tgn:1001996",
          "tgn:7029392"
        ],
        "placetype": [
          "aat:300008347"
        ],
        "name:en": "Jharog",
        "id": 7568038
      }
    },
    {
      "geometry": {
        "type": "Point",
        "coordinates": [
          77.122222,
          31.218333
        ]
      },
      "type": "Feature",
      "properties": {
        "hierarchy": [
          "tgn:7568039",
          "tgn:1000004",
          "tgn:7000198",
          "tgn:1001996",
          "tgn:7029392"
        ],
        "placetype": [
          "aat:300008863"
        ],
        "name:en": "Bāg Protected Forest",
        "id": 7568039
      }
    }
  ]
}
