{
  "type": "FeatureCollection",
  "features": [
    {
      "geometry": {
        "type": "Point",
        "coordinates": [
          120.700699,
          24.23799
        ]
      },
      "type": "Feature",
      "properties": {
        "hierarchy": [
          "tgn:7503660",
          "tgn:1000004",
          "tgn:7001009",
          "tgn:1000141",
          "tgn:7029392"
        ],
        "placetype": [
          "aat:300008347"
        ],
        "id": 7503660,
        "name:xx": "Sanzhang"
      }
    },
    {
      "geometry": {
        "type": "Point",
        "coordinates": [
          120.680484,
          24.241377
        ]
      },
      "type": "Feature",
      "properties": {
        "hierarchy": [
          "tgn:7503661",
          "tgn:1000004",
          "tgn:7001009",
          "tgn:1000141",
          "tgn:7029392"
        ],
        "placetype": [
          "aat:300008347"
        ],
        "id": 7503661,
        "name:xx": "Dingniubu"
      }
    },
    {
      "geometry": {
        "type": "Point",
        "coordinates": [
          120.687973,
          24.229494
        ]
      },
      "type": "Feature",
      "properties": {
        "hierarchy": [
          "tgn:7503662",
          "tgn:1000004",
          "tgn:7001009",
          "tgn:1000141",
          "tgn:7029392"
        ],
        "placetype": [
          "aat:300008347"
        ],
        "id": 7503662,
        "name:xx": "Niubuzi"
      }
    },
    {
      "geometry": {
        "type": "Point",
        "coordinates": [
          120.6841,
          24.244594
        ]
      },
      "type": "Feature",
      "properties": {
        "hierarchy": [
          "tgn:7503663",
          "tgn:1000004",
          "tgn:7001009",
          "tgn:1000141",
          "tgn:7029392"
        ],
        "placetype": [
          "aat:300008347"
        ],
        "id": 7503663,
        "name:xx": "Shitougong"
      }
    },
    {
      "geometry": {
        "type": "Point",
        "coordinates": [
          120.6612,
          24.2205
        ]
      },
      "type": "Feature",
      "properties": {
        "hierarchy": [
          "tgn:7503664",
          "tgn:1000004",
          "tgn:7001009",
          "tgn:1000141",
          "tgn:7029392"
        ],
        "placetype": [
          "aat:300006610"
        ],
        "id": 7503664,
        "name:xx": "Huiming Xueyuan"
      }
    },
    {
      "geometry": {
        "type": "Point",
        "coordinates": [
          120.642123,
          24.219947
        ]
      },
      "type": "Feature",
      "properties": {
        "hierarchy": [
          "tgn:7503666",
          "tgn:1000004",
          "tgn:7001009",
          "tgn:1000141",
          "tgn:7029392"
        ],
        "placetype": [
          "aat:300000498"
        ],
        "id": 7503666,
        "name:xx": "Daya Shequ"
      }
    },
    {
      "geometry": {
        "type": "Point",
        "coordinates": [
          120.626797,
          24.239214
        ]
      },
      "type": "Feature",
      "properties": {
        "hierarchy": [
          "tgn:7503667",
          "tgn:1000004",
          "tgn:7001009",
          "tgn:1000141",
          "tgn:7029392"
        ],
        "placetype": [
          "aat:300008347"
        ],
        "id": 7503667,
        "name:xx": "Qingquangang"
      }
    },
    {
      "geometry": {
        "type": "Point",
        "coordinates": [
          120.6269,
          24.2215
        ]
      },
      "type": "Feature",
      "properties": {
        "hierarchy": [
          "tgn:7503668",
          "tgn:1000004",
          "tgn:7001009",
          "tgn:1000141",
          "tgn:7029392"
        ],
        "placetype": [
          "aat:300008347"
        ],
        "id": 7503668,
        "name:xx": "Xincuo"
      }
    }
  ]
}
