{
  "type": "FeatureCollection",
  "features": [
    {
      "geometry": {
        "type": "Point",
        "coordinates": [
          79.13204,
          27.757173
        ]
      },
      "type": "Feature",
      "properties": {
        "hierarchy": [
          "tgn:7562140",
          "tgn:1000004",
          "tgn:7000198",
          "tgn:7016722",
          "tgn:7029392"
        ],
        "placetype": [
          "aat:300008347"
        ],
        "name:en": "Alokhar",
        "id": 7562140
      }
    },
    {
      "geometry": {
        "type": "Point",
        "coordinates": [
          79.160264,
          27.781948
        ]
      },
      "type": "Feature",
      "properties": {
        "hierarchy": [
          "tgn:7562141",
          "tgn:1000004",
          "tgn:7000198",
          "tgn:7016722",
          "tgn:7029392"
        ],
        "placetype": [
          "aat:300008347"
        ],
        "name:en": "Hardayāl Ka Nagla",
        "id": 7562141
      }
    },
    {
      "geometry": {
        "type": "Point",
        "coordinates": [
          79.160573,
          27.753019
        ]
      },
      "type": "Feature",
      "properties": {
        "hierarchy": [
          "tgn:7562142",
          "tgn:1000004",
          "tgn:7000198",
          "tgn:7016722",
          "tgn:7029392"
        ],
        "placetype": [
          "aat:300008347"
        ],
        "name:en": "Hansi Nagla",
        "id": 7562142
      }
    },
    {
      "geometry": {
        "type": "Point",
        "coordinates": [
          79.129973,
          27.760592
        ]
      },
      "type": "Feature",
      "properties": {
        "hierarchy": [
          "tgn:7562143",
          "tgn:1000004",
          "tgn:7000198",
          "tgn:7016722",
          "tgn:7029392"
        ],
        "placetype": [
          "aat:300008347"
        ],
        "name:en": "Shimbhu Nagla",
        "id": 7562143
      }
    },
    {
      "geometry": {
        "type": "Point",
        "coordinates": [
          79.122706,
          27.758072
        ]
      },
      "type": "Feature",
      "properties": {
        "hierarchy": [
          "tgn:7562144",
          "tgn:1000004",
          "tgn:7000198",
          "tgn:7016722",
          "tgn:7029392"
        ],
        "placetype": [
          "aat:300008347"
        ],
        "name:en": "Nardauli",
        "id": 7562144
      }
    },
    {
      "geometry": {
        "type": "Point",
        "coordinates": [
          79.108486,
          27.759595
        ]
      },
      "type": "Feature",
      "properties": {
        "hierarchy": [
          "tgn:7562145",
          "tgn:1000004",
          "tgn:7000198",
          "tgn:7016722",
          "tgn:7029392"
        ],
        "placetype": [
          "aat:300008347"
        ],
        "name:en": "Qila",
        "id": 7562145
      }
    },
    {
      "geometry": {
        "type": "Point",
        "coordinates": [
          79.051532,
          27.782262
        ]
      },
      "type": "Feature",
      "properties": {
        "hierarchy": [
          "tgn:7562146",
          "tgn:1000004",
          "tgn:7000198",
          "tgn:7016722",
          "tgn:7029392"
        ],
        "placetype": [
          "aat:300008347"
        ],
        "name:en": "Tarsi",
        "id": 7562146
      }
    },
    {
      "geometry": {
        "type": "Point",
        "coordinates": [
          79.08355,
          27.781503
        ]
      },
      "type": "Feature",
      "properties": {
        "hierarchy": [
          "tgn:7562147",
          "tgn:1000004",
          "tgn:7000198",
          "tgn:7016722",
          "tgn:7029392"
        ],
        "placetype": [
          "aat:300008347"
        ],
        "name:en": "Mahāula",
        "id": 7562147
      }
    },
    {
      "geometry": {
        "type": "Point",
        "coordinates": [
          79.078438,
          27.777517
        ]
      },
      "type": "Feature",
      "properties": {
        "hierarchy": [
          "tgn:7562148",
          "tgn:1000004",
          "tgn:7000198",
          "tgn:7016722",
          "tgn:7029392"
        ],
        "placetype": [
          "aat:300008347"
        ],
        "name:en": "Inda Jashanpur",
        "id": 7562148
      }
    },
    {
      "geometry": {
        "type": "Point",
        "coordinates": [
          79.093073,
          27.769303
        ]
      },
      "type": "Feature",
      "properties": {
        "hierarchy": [
          "tgn:7562149",
          "tgn:1000004",
          "tgn:7000198",
          "tgn:7016722",
          "tgn:7029392"
        ],
        "placetype": [
          "aat:300008347"
        ],
        "name:en": "Nibia",
        "id": 7562149
      }
    }
  ]
}
