{
  "type": "FeatureCollection",
  "features": [
    {
      "geometry": {
        "type": "Point",
        "coordinates": [
          78.341867,
          24.97723
        ]
      },
      "type": "Feature",
      "properties": {
        "hierarchy": [
          "tgn:7585180",
          "tgn:1000004",
          "tgn:7000198",
          "tgn:7016722",
          "tgn:7029392"
        ],
        "placetype": [
          "aat:300008347"
        ],
        "name:en": "Kotra",
        "id": 7585180
      }
    },
    {
      "geometry": {
        "type": "Point",
        "coordinates": [
          78.368,
          24.9582
        ]
      },
      "type": "Feature",
      "properties": {
        "hierarchy": [
          "tgn:7585181",
          "tgn:1000004",
          "tgn:7000198",
          "tgn:7016722",
          "tgn:7029392"
        ],
        "placetype": [
          "aat:300008865"
        ],
        "name:en": "Rājpur Reserved Forest",
        "id": 7585181
      }
    },
    {
      "geometry": {
        "type": "Point",
        "coordinates": [
          78.40888,
          24.926213
        ]
      },
      "type": "Feature",
      "properties": {
        "hierarchy": [
          "tgn:7585182",
          "tgn:1000004",
          "tgn:7000198",
          "tgn:7016722",
          "tgn:7029392"
        ],
        "placetype": [
          "aat:300008347"
        ],
        "name:en": "Chak",
        "id": 7585182
      }
    },
    {
      "geometry": {
        "type": "Point",
        "coordinates": [
          78.394795,
          24.946536
        ]
      },
      "type": "Feature",
      "properties": {
        "hierarchy": [
          "tgn:7585183",
          "tgn:1000004",
          "tgn:7000198",
          "tgn:7016722",
          "tgn:7029392"
        ],
        "placetype": [
          "aat:300008865"
        ],
        "name:en": "Bijrotha Reserved Forest",
        "id": 7585183
      }
    },
    {
      "geometry": {
        "type": "Point",
        "coordinates": [
          78.397158,
          24.931953
        ]
      },
      "type": "Feature",
      "properties": {
        "hierarchy": [
          "tgn:7585184",
          "tgn:1000004",
          "tgn:7000198",
          "tgn:7016722",
          "tgn:7029392"
        ],
        "placetype": [
          "aat:300008347"
        ],
        "name:en": "Lālaun",
        "id": 7585184
      }
    },
    {
      "geometry": {
        "type": "Point",
        "coordinates": [
          78.359064,
          24.939369
        ]
      },
      "type": "Feature",
      "properties": {
        "hierarchy": [
          "tgn:7585185",
          "tgn:1000004",
          "tgn:7000198",
          "tgn:7016722",
          "tgn:7029392"
        ],
        "placetype": [
          "aat:300008865"
        ],
        "name:en": "Gulenda Reserved Forest",
        "id": 7585185
      }
    },
    {
      "geometry": {
        "type": "Point",
        "coordinates": [
          78.367439,
          24.938674
        ]
      },
      "type": "Feature",
      "properties": {
        "hierarchy": [
          "tgn:7585186",
          "tgn:1000004",
          "tgn:7000198",
          "tgn:7016722",
          "tgn:7029392"
        ],
        "placetype": [
          "aat:300008347"
        ],
        "name:en": "Gulenda",
        "id": 7585186
      }
    },
    {
      "geometry": {
        "type": "Point",
        "coordinates": [
          78.344311,
          24.932027
        ]
      },
      "type": "Feature",
      "properties": {
        "hierarchy": [
          "tgn:7585187",
          "tgn:1000004",
          "tgn:7000198",
          "tgn:7016722",
          "tgn:7029392"
        ],
        "placetype": [
          "aat:300008347"
        ],
        "name:en": "Burera",
        "id": 7585187
      }
    },
    {
      "geometry": {
        "type": "Point",
        "coordinates": [
          78.337005,
          24.925125
        ]
      },
      "type": "Feature",
      "properties": {
        "hierarchy": [
          "tgn:7585188",
          "tgn:1000004",
          "tgn:7000198",
          "tgn:7016722",
          "tgn:7029392"
        ],
        "placetype": [
          "aat:300008699"
        ],
        "name:en": "Ganyāi",
        "id": 7585188
      }
    },
    {
      "geometry": {
        "type": "Point",
        "coordinates": [
          78.317127,
          24.970954
        ]
      },
      "type": "Feature",
      "properties": {
        "hierarchy": [
          "tgn:7585189",
          "tgn:1000004",
          "tgn:7000198",
          "tgn:7016722",
          "tgn:7029392"
        ],
        "placetype": [
          "aat:300008699"
        ],
        "name:en": "Kherār Nāla",
        "id": 7585189
      }
    }
  ]
}
