{
  "type": "FeatureCollection",
  "features": [
    {
      "geometry": {
        "type": "Point",
        "coordinates": [
          79.317243,
          27.048867
        ]
      },
      "type": "Feature",
      "properties": {
        "hierarchy": [
          "tgn:7562250",
          "tgn:1000004",
          "tgn:7000198",
          "tgn:7016722",
          "tgn:7029392"
        ],
        "placetype": [
          "aat:300008347"
        ],
        "name:en": "Dhura",
        "id": 7562250
      }
    },
    {
      "geometry": {
        "type": "Point",
        "coordinates": [
          79.33203,
          27.052772
        ]
      },
      "type": "Feature",
      "properties": {
        "hierarchy": [
          "tgn:7562251",
          "tgn:1000004",
          "tgn:7000198",
          "tgn:7016722",
          "tgn:7029392"
        ],
        "placetype": [
          "aat:300008347"
        ],
        "name:en": "Kishanpur",
        "id": 7562251
      }
    },
    {
      "geometry": {
        "type": "Point",
        "coordinates": [
          79.476199,
          27.953207
        ]
      },
      "type": "Feature",
      "properties": {
        "hierarchy": [
          "tgn:7562252",
          "tgn:1000004",
          "tgn:7000198",
          "tgn:7016722",
          "tgn:7029392"
        ],
        "placetype": [
          "aat:300008347"
        ],
        "name:en": "Jalebi Nagla",
        "id": 7562252
      }
    },
    {
      "geometry": {
        "type": "Point",
        "coordinates": [
          79.237673,
          27.777146
        ]
      },
      "type": "Feature",
      "properties": {
        "hierarchy": [
          "tgn:7562253",
          "tgn:1000004",
          "tgn:7000198",
          "tgn:7016722",
          "tgn:7029392"
        ],
        "placetype": [
          "aat:300008347"
        ],
        "name:en": "Tilokpur",
        "id": 7562253
      }
    },
    {
      "geometry": {
        "type": "Point",
        "coordinates": [
          79.229255,
          27.76493
        ]
      },
      "type": "Feature",
      "properties": {
        "hierarchy": [
          "tgn:7562254",
          "tgn:1000004",
          "tgn:7000198",
          "tgn:7016722",
          "tgn:7029392"
        ],
        "placetype": [
          "aat:300008347"
        ],
        "name:en": "Durjan Nagla",
        "id": 7562254
      }
    },
    {
      "geometry": {
        "type": "Point",
        "coordinates": [
          79.215396,
          27.76473
        ]
      },
      "type": "Feature",
      "properties": {
        "hierarchy": [
          "tgn:7562255",
          "tgn:1000004",
          "tgn:7000198",
          "tgn:7016722",
          "tgn:7029392"
        ],
        "placetype": [
          "aat:300008347"
        ],
        "name:en": "HadÄ«khera",
        "id": 7562255
      }
    },
    {
      "geometry": {
        "type": "Point",
        "coordinates": [
          79.241882,
          27.753306
        ]
      },
      "type": "Feature",
      "properties": {
        "hierarchy": [
          "tgn:7562256",
          "tgn:1000004",
          "tgn:7000198",
          "tgn:7016722",
          "tgn:7029392"
        ],
        "placetype": [
          "aat:300008347"
        ],
        "name:en": "Darya Nagla",
        "id": 7562256
      }
    },
    {
      "geometry": {
        "type": "Point",
        "coordinates": [
          79.229054,
          27.755563
        ]
      },
      "type": "Feature",
      "properties": {
        "hierarchy": [
          "tgn:7562257",
          "tgn:1000004",
          "tgn:7000198",
          "tgn:7016722",
          "tgn:7029392"
        ],
        "placetype": [
          "aat:300008347"
        ],
        "name:en": "Magaria Nagla",
        "id": 7562257
      }
    },
    {
      "geometry": {
        "type": "Point",
        "coordinates": [
          79.23367,
          27.752606
        ]
      },
      "type": "Feature",
      "properties": {
        "hierarchy": [
          "tgn:7562258",
          "tgn:1000004",
          "tgn:7000198",
          "tgn:7016722",
          "tgn:7029392"
        ],
        "placetype": [
          "aat:300008347"
        ],
        "name:en": "Gutainya",
        "id": 7562258
      }
    },
    {
      "geometry": {
        "type": "Point",
        "coordinates": [
          79.218838,
          27.760151
        ]
      },
      "type": "Feature",
      "properties": {
        "hierarchy": [
          "tgn:7562259",
          "tgn:1000004",
          "tgn:7000198",
          "tgn:7016722",
          "tgn:7029392"
        ],
        "placetype": [
          "aat:300008347"
        ],
        "name:en": "Lalomai",
        "id": 7562259
      }
    }
  ]
}
