{
  "type": "FeatureCollection",
  "features": [
    {
      "geometry": {
        "type": "Point",
        "coordinates": [
          30.471552,
          30.269614
        ]
      },
      "type": "Feature",
      "properties": {
        "hierarchy": [
          "tgn:7544150",
          "tgn:7001242",
          "tgn:1001075",
          "tgn:7016833",
          "tgn:7029392"
        ],
        "placetype": [
          "aat:300008777"
        ],
        "name:en": "Tīn, Qārat at",
        "id": 7544150
      }
    },
    {
      "geometry": {
        "type": "Point",
        "coordinates": [
          29.743476,
          30.898743
        ]
      },
      "type": "Feature",
      "properties": {
        "hierarchy": [
          "tgn:7544151",
          "tgn:7001242",
          "tgn:7016833",
          "tgn:1001079",
          "tgn:7029392"
        ],
        "placetype": [
          "aat:300008347"
        ],
        "name:en": "Al 'Awwāmah",
        "id": 7544151
      }
    },
    {
      "geometry": {
        "type": "Point",
        "coordinates": [
          29.666735,
          30.982521
        ]
      },
      "type": "Feature",
      "properties": {
        "hierarchy": [
          "tgn:7544152",
          "tgn:7001242",
          "tgn:7016833",
          "tgn:1001079",
          "tgn:7029392"
        ],
        "placetype": [
          "aat:300008347"
        ],
        "name:en": "Qaryat Shākūsh",
        "id": 7544152
      }
    },
    {
      "geometry": {
        "type": "Point",
        "coordinates": [
          29.585142,
          30.983642
        ]
      },
      "type": "Feature",
      "properties": {
        "hierarchy": [
          "tgn:7544153",
          "tgn:7001242",
          "tgn:7016833",
          "tgn:1001079",
          "tgn:7029392"
        ],
        "placetype": [
          "aat:300008347"
        ],
        "name:en": "Qaryat Shurūq",
        "id": 7544153
      }
    },
    {
      "geometry": {
        "type": "Point",
        "coordinates": [
          29.635987,
          30.966436
        ]
      },
      "type": "Feature",
      "properties": {
        "hierarchy": [
          "tgn:7544154",
          "tgn:7001242",
          "tgn:7016833",
          "tgn:1001079",
          "tgn:7029392"
        ],
        "placetype": [
          "aat:300008347"
        ],
        "name:en": "'Izbat as Sarāḩnah",
        "id": 7544154
      }
    },
    {
      "geometry": {
        "type": "Point",
        "coordinates": [
          29.551261,
          30.963098
        ]
      },
      "type": "Feature",
      "properties": {
        "hierarchy": [
          "tgn:7544155",
          "tgn:7001242",
          "tgn:7016833",
          "tgn:1001079",
          "tgn:7029392"
        ],
        "placetype": [
          "aat:300008347"
        ],
        "name:en": "Naj' 'Azzām",
        "id": 7544155
      }
    },
    {
      "geometry": {
        "type": "Point",
        "coordinates": [
          29.716504,
          30.969304
        ]
      },
      "type": "Feature",
      "properties": {
        "hierarchy": [
          "tgn:7544156",
          "tgn:7001242",
          "tgn:7016833",
          "tgn:1001079",
          "tgn:7029392"
        ],
        "placetype": [
          "aat:300005433"
        ],
        "name:en": "Sakan Maḩaţţat as Salām",
        "id": 7544156
      }
    },
    {
      "geometry": {
        "type": "Point",
        "coordinates": [
          29.631247,
          30.944783
        ]
      },
      "type": "Feature",
      "properties": {
        "hierarchy": [
          "tgn:7544157",
          "tgn:7001242",
          "tgn:7016833",
          "tgn:1001079",
          "tgn:7029392"
        ],
        "placetype": [
          "aat:300008347"
        ],
        "name:en": "Qaryat al Mīthāq",
        "id": 7544157
      }
    },
    {
      "geometry": {
        "type": "Point",
        "coordinates": [
          29.741864,
          30.939468
        ]
      },
      "type": "Feature",
      "properties": {
        "hierarchy": [
          "tgn:7544158",
          "tgn:7001242",
          "tgn:7016833",
          "tgn:1001079",
          "tgn:7029392"
        ],
        "placetype": [
          "aat:300008347"
        ],
        "name:en": "Naj' Ḩabbūn",
        "id": 7544158
      }
    },
    {
      "geometry": {
        "type": "Point",
        "coordinates": [
          29.605349,
          30.93459
        ]
      },
      "type": "Feature",
      "properties": {
        "hierarchy": [
          "tgn:7544159",
          "tgn:7001242",
          "tgn:7016833",
          "tgn:1001079",
          "tgn:7029392"
        ],
        "placetype": [
          "aat:300008347"
        ],
        "name:en": "Qaryat Bahīj",
        "id": 7544159
      }
    }
  ]
}
