{
  "type": "FeatureCollection",
  "features": [
    {
      "geometry": {
        "type": "Point",
        "coordinates": [
          119.624384,
          23.583688
        ]
      },
      "type": "Feature",
      "properties": {
        "hierarchy": [
          "tgn:7477721",
          "tgn:1000004",
          "tgn:7004300",
          "tgn:1000141",
          "tgn:7029392"
        ],
        "placetype": [
          "aat:300007595"
        ],
        "id": 7477721,
        "name:xx": "Tailing Dian"
      }
    },
    {
      "geometry": {
        "type": "Point",
        "coordinates": [
          119.62321,
          23.580422
        ]
      },
      "type": "Feature",
      "properties": {
        "hierarchy": [
          "tgn:7477722",
          "tgn:1000004",
          "tgn:7004300",
          "tgn:1000141",
          "tgn:7029392"
        ],
        "placetype": [
          "aat:300007595"
        ],
        "id": 7477722,
        "name:xx": "Tianjun Dian"
      }
    },
    {
      "geometry": {
        "type": "Point",
        "coordinates": [
          119.636495,
          23.580594
        ]
      },
      "type": "Feature",
      "properties": {
        "hierarchy": [
          "tgn:7477723",
          "tgn:1000004",
          "tgn:7004300",
          "tgn:1000141",
          "tgn:7029392"
        ],
        "placetype": [
          "aat:300007595"
        ],
        "id": 7477723,
        "name:xx": "Xiquan Chansi"
      }
    },
    {
      "geometry": {
        "type": "Point",
        "coordinates": [
          119.623803,
          23.575958
        ]
      },
      "type": "Feature",
      "properties": {
        "hierarchy": [
          "tgn:7477724",
          "tgn:1000004",
          "tgn:7004300",
          "tgn:1000141",
          "tgn:7029392"
        ],
        "placetype": [
          "aat:300006191"
        ],
        "id": 7477724,
        "name:xx": "Chenggong Shuiku"
      }
    },
    {
      "geometry": {
        "type": "Point",
        "coordinates": [
          119.622116,
          23.569286
        ]
      },
      "type": "Feature",
      "properties": {
        "hierarchy": [
          "tgn:7477725",
          "tgn:1000004",
          "tgn:7004300",
          "tgn:1000141",
          "tgn:7029392"
        ],
        "placetype": [
          "aat:300007595"
        ],
        "id": 7477725,
        "name:xx": "Yuantong Si"
      }
    },
    {
      "geometry": {
        "type": "Point",
        "coordinates": [
          119.633835,
          23.559388
        ]
      },
      "type": "Feature",
      "properties": {
        "hierarchy": [
          "tgn:7477726",
          "tgn:1000004",
          "tgn:7004300",
          "tgn:1000141",
          "tgn:7029392"
        ],
        "placetype": [
          "aat:300007595"
        ],
        "id": 7477726,
        "name:xx": "Xiyijiangjun Miao"
      }
    },
    {
      "geometry": {
        "type": "Point",
        "coordinates": [
          120.8171,
          23.777
        ]
      },
      "type": "Feature",
      "properties": {
        "hierarchy": [
          "tgn:7477727",
          "tgn:7488858",
          "tgn:1000004",
          "tgn:1000141",
          "tgn:7029392"
        ],
        "placetype": [
          "aat:300387027"
        ],
        "id": 7477727,
        "name:xx": "Taida Shiyanlin"
      }
    },
    {
      "geometry": {
        "type": "Point",
        "coordinates": [
          120.7847,
          23.8263
        ]
      },
      "type": "Feature",
      "properties": {
        "hierarchy": [
          "tgn:7477728",
          "tgn:7488858",
          "tgn:1000004",
          "tgn:1000141",
          "tgn:7029392"
        ],
        "placetype": [
          "aat:300007783"
        ],
        "id": 7477728,
        "name:xx": "Jiji Chezhan"
      }
    },
    {
      "geometry": {
        "type": "Point",
        "coordinates": [
          120.802161,
          23.829049
        ]
      },
      "type": "Feature",
      "properties": {
        "hierarchy": [
          "tgn:7477729",
          "tgn:7488858",
          "tgn:1000004",
          "tgn:1000141",
          "tgn:7029392"
        ],
        "placetype": [
          "aat:300387503"
        ],
        "id": 7477729,
        "name:xx": "Luanda Linguanchu"
      }
    }
  ]
}
