{
  "type": "FeatureCollection",
  "features": [
    {
      "geometry": {
        "type": "Point",
        "coordinates": [
          74.541558,
          28.565511
        ]
      },
      "type": "Feature",
      "properties": {
        "hierarchy": [
          "tgn:7592740",
          "tgn:1000004",
          "tgn:7000198",
          "tgn:7016788",
          "tgn:7029392"
        ],
        "placetype": [
          "aat:300008750"
        ],
        "name:en": "Ghaghu Dhora",
        "id": 7592740
      }
    },
    {
      "geometry": {
        "type": "Point",
        "coordinates": [
          74.743809,
          28.665951
        ]
      },
      "type": "Feature",
      "properties": {
        "hierarchy": [
          "tgn:7592741",
          "tgn:1000004",
          "tgn:7000198",
          "tgn:7016788",
          "tgn:7029392"
        ],
        "placetype": [
          "aat:300386891"
        ],
        "name:en": "Chikno Johar",
        "id": 7592741
      }
    },
    {
      "geometry": {
        "type": "Point",
        "coordinates": [
          74.728479,
          28.602
        ]
      },
      "type": "Feature",
      "properties": {
        "hierarchy": [
          "tgn:7592742",
          "tgn:1000004",
          "tgn:7000198",
          "tgn:7016788",
          "tgn:7029392"
        ],
        "placetype": [
          "aat:300008750"
        ],
        "name:en": "Shāhi Dhora",
        "id": 7592742
      }
    },
    {
      "geometry": {
        "type": "Point",
        "coordinates": [
          74.667099,
          28.60675
        ]
      },
      "type": "Feature",
      "properties": {
        "hierarchy": [
          "tgn:7592743",
          "tgn:1000004",
          "tgn:7000198",
          "tgn:7016788",
          "tgn:7029392"
        ],
        "placetype": [
          "aat:300008750"
        ],
        "name:en": "Karni Dhora",
        "id": 7592743
      }
    },
    {
      "geometry": {
        "type": "Point",
        "coordinates": [
          74.649888,
          28.65192
        ]
      },
      "type": "Feature",
      "properties": {
        "hierarchy": [
          "tgn:7592744",
          "tgn:1000004",
          "tgn:7000198",
          "tgn:7016788",
          "tgn:7029392"
        ],
        "placetype": [
          "aat:300386891"
        ],
        "name:en": "Rin Johar",
        "id": 7592744
      }
    },
    {
      "geometry": {
        "type": "Point",
        "coordinates": [
          74.61353,
          28.611327
        ]
      },
      "type": "Feature",
      "properties": {
        "hierarchy": [
          "tgn:7592745",
          "tgn:1000004",
          "tgn:7000198",
          "tgn:7016788",
          "tgn:7029392"
        ],
        "placetype": [
          "aat:300008347"
        ],
        "id": 7592745,
        "name:xx": "Kānarwās Ki Dhāni"
      }
    },
    {
      "geometry": {
        "type": "Point",
        "coordinates": [
          74.584828,
          28.612676
        ]
      },
      "type": "Feature",
      "properties": {
        "hierarchy": [
          "tgn:7592746",
          "tgn:1000004",
          "tgn:7000198",
          "tgn:7016788",
          "tgn:7029392"
        ],
        "placetype": [
          "aat:300008750"
        ],
        "name:en": "Marūr Dhora",
        "id": 7592746
      }
    },
    {
      "geometry": {
        "type": "Point",
        "coordinates": [
          74.507791,
          28.599679
        ]
      },
      "type": "Feature",
      "properties": {
        "hierarchy": [
          "tgn:7592747",
          "tgn:1000004",
          "tgn:7000198",
          "tgn:7016788",
          "tgn:7029392"
        ],
        "placetype": [
          "aat:300008777"
        ],
        "name:en": "Lalariyo",
        "id": 7592747
      }
    },
    {
      "geometry": {
        "type": "Point",
        "coordinates": [
          74.735466,
          28.736021
        ]
      },
      "type": "Feature",
      "properties": {
        "hierarchy": [
          "tgn:7592748",
          "tgn:1000004",
          "tgn:7000198",
          "tgn:7016788",
          "tgn:7029392"
        ],
        "placetype": [
          "aat:300008777"
        ],
        "name:en": "Dhāman Chūli",
        "id": 7592748
      }
    },
    {
      "geometry": {
        "type": "Point",
        "coordinates": [
          74.739692,
          28.681961
        ]
      },
      "type": "Feature",
      "properties": {
        "hierarchy": [
          "tgn:7592749",
          "tgn:1000004",
          "tgn:7000198",
          "tgn:7016788",
          "tgn:7029392"
        ],
        "placetype": [
          "aat:300008777"
        ],
        "name:en": "Tāin",
        "id": 7592749
      }
    }
  ]
}
