{
  "type": "FeatureCollection",
  "features": [
    {
      "geometry": {
        "type": "Point",
        "coordinates": [
          120.554167,
          23.573889
        ]
      },
      "type": "Feature",
      "properties": {
        "hierarchy": [
          "tgn:7485340",
          "tgn:7468018",
          "tgn:1000004",
          "tgn:1000141",
          "tgn:7029392"
        ],
        "placetype": [
          "aat:300008347"
        ],
        "id": 7485340,
        "name:xx": "Sheziling"
      }
    },
    {
      "geometry": {
        "type": "Point",
        "coordinates": [
          120.540278,
          23.573333
        ]
      },
      "type": "Feature",
      "properties": {
        "hierarchy": [
          "tgn:7485341",
          "tgn:7468018",
          "tgn:1000004",
          "tgn:1000141",
          "tgn:7029392"
        ],
        "placetype": [
          "aat:300008347"
        ],
        "id": 7485341,
        "name:xx": "Suiziyuan"
      }
    },
    {
      "geometry": {
        "type": "Point",
        "coordinates": [
          120.511389,
          23.569167
        ]
      },
      "type": "Feature",
      "properties": {
        "hierarchy": [
          "tgn:7485342",
          "tgn:7468018",
          "tgn:1000004",
          "tgn:1000141",
          "tgn:7029392"
        ],
        "placetype": [
          "aat:300008347"
        ],
        "id": 7485342,
        "name:xx": "Changlongkou"
      }
    },
    {
      "geometry": {
        "type": "Point",
        "coordinates": [
          120.519167,
          23.574444
        ]
      },
      "type": "Feature",
      "properties": {
        "hierarchy": [
          "tgn:7485343",
          "tgn:7468018",
          "tgn:1000004",
          "tgn:1000141",
          "tgn:7029392"
        ],
        "placetype": [
          "aat:300008347"
        ],
        "id": 7485343,
        "name:xx": "Baicidong"
      }
    },
    {
      "geometry": {
        "type": "Point",
        "coordinates": [
          120.534167,
          23.576944
        ]
      },
      "type": "Feature",
      "properties": {
        "hierarchy": [
          "tgn:7485344",
          "tgn:7468018",
          "tgn:1000004",
          "tgn:1000141",
          "tgn:7029392"
        ],
        "placetype": [
          "aat:300008347"
        ],
        "id": 7485344,
        "name:xx": "Zhiliaokeng"
      }
    },
    {
      "geometry": {
        "type": "Point",
        "coordinates": [
          120.560278,
          23.588056
        ]
      },
      "type": "Feature",
      "properties": {
        "hierarchy": [
          "tgn:7485346",
          "tgn:7468018",
          "tgn:1000004",
          "tgn:1000141",
          "tgn:7029392"
        ],
        "placetype": [
          "aat:300008347"
        ],
        "id": 7485346,
        "name:xx": "Shulin"
      }
    },
    {
      "geometry": {
        "type": "Point",
        "coordinates": [
          120.564444,
          23.593889
        ]
      },
      "type": "Feature",
      "properties": {
        "hierarchy": [
          "tgn:7485347",
          "tgn:1000004",
          "tgn:7001014",
          "tgn:1000141",
          "tgn:7029392"
        ],
        "placetype": [
          "aat:300008347"
        ],
        "id": 7485347,
        "name:xx": "Neicuo"
      }
    },
    {
      "geometry": {
        "type": "Point",
        "coordinates": [
          120.560833,
          23.591667
        ]
      },
      "type": "Feature",
      "properties": {
        "hierarchy": [
          "tgn:7485348",
          "tgn:1000004",
          "tgn:7001014",
          "tgn:1000141",
          "tgn:7029392"
        ],
        "placetype": [
          "aat:300008347"
        ],
        "id": 7485348,
        "name:xx": "Xiazhuang"
      }
    },
    {
      "geometry": {
        "type": "Point",
        "coordinates": [
          120.519722,
          23.582222
        ]
      },
      "type": "Feature",
      "properties": {
        "hierarchy": [
          "tgn:7485349",
          "tgn:7468018",
          "tgn:1000004",
          "tgn:1000141",
          "tgn:7029392"
        ],
        "placetype": [
          "aat:300008777"
        ],
        "id": 7485349,
        "name:xx": "Zhongkeng Shan"
      }
    }
  ]
}
