{
  "type": "FeatureCollection",
  "features": [
    {
      "geometry": {
        "type": "Point",
        "coordinates": [
          120.7433,
          23.8511
        ]
      },
      "type": "Feature",
      "properties": {
        "hierarchy": [
          "tgn:7468390",
          "tgn:7488858",
          "tgn:1000004",
          "tgn:1000141",
          "tgn:7029392"
        ],
        "placetype": [
          "aat:300008347"
        ],
        "id": 7468390,
        "name:xx": "Qiedongkeng"
      }
    },
    {
      "geometry": {
        "type": "Point",
        "coordinates": [
          120.3557,
          23.036
        ]
      },
      "type": "Feature",
      "properties": {
        "hierarchy": [
          "tgn:7468391",
          "tgn:1000004",
          "tgn:7490934",
          "tgn:1000141",
          "tgn:7029392"
        ],
        "placetype": [
          "aat:300008347"
        ],
        "id": 7468391,
        "name:xx": "Qiedongkeng"
      }
    },
    {
      "geometry": {
        "type": "Point",
        "coordinates": [
          120.54,
          23.03
        ]
      },
      "type": "Feature",
      "properties": {
        "hierarchy": [
          "tgn:7468392",
          "tgn:7001004",
          "tgn:1000004",
          "tgn:1000141",
          "tgn:7029392"
        ],
        "placetype": [
          "aat:300008347"
        ],
        "id": 7468392,
        "name:xx": "Qiedonghu"
      }
    },
    {
      "geometry": {
        "type": "Point",
        "coordinates": [
          121.279213,
          25.052049
        ]
      },
      "type": "Feature",
      "properties": {
        "hierarchy": [
          "tgn:7468393",
          "tgn:1000004",
          "tgn:7001013",
          "tgn:1000141",
          "tgn:7029392"
        ],
        "placetype": [
          "aat:300008699"
        ],
        "id": 7468393,
        "name:xx": "Qiedong Xi"
      }
    },
    {
      "geometry": {
        "type": "Point",
        "coordinates": [
          121.677789,
          25.063124
        ]
      },
      "type": "Feature",
      "properties": {
        "hierarchy": [
          "tgn:7468394",
          "tgn:1000004",
          "tgn:1000454",
          "tgn:1000141",
          "tgn:7029392"
        ],
        "placetype": [
          "aat:300008347"
        ],
        "id": 7468394,
        "name:xx": "Qiedongjiao"
      }
    },
    {
      "geometry": {
        "type": "Point",
        "coordinates": [
          120.855264,
          24.03285
        ]
      },
      "type": "Feature",
      "properties": {
        "hierarchy": [
          "tgn:7468395",
          "tgn:7488858",
          "tgn:1000004",
          "tgn:1000141",
          "tgn:7029392"
        ],
        "placetype": [
          "aat:300008347"
        ],
        "id": 7468395,
        "name:xx": "Zhukengkou"
      }
    },
    {
      "geometry": {
        "type": "Point",
        "coordinates": [
          121.073192,
          22.917452
        ]
      },
      "type": "Feature",
      "properties": {
        "hierarchy": [
          "tgn:7468396",
          "tgn:1000004",
          "tgn:7491221",
          "tgn:1000141",
          "tgn:7029392"
        ],
        "placetype": [
          "aat:300008798"
        ],
        "id": 7468396,
        "name:xx": "Quru Shan"
      }
    },
    {
      "geometry": {
        "type": "Point",
        "coordinates": [
          120.749708,
          22.534463
        ]
      },
      "type": "Feature",
      "properties": {
        "hierarchy": [
          "tgn:7468397",
          "tgn:1000004",
          "tgn:7491221",
          "tgn:1000141",
          "tgn:7029392"
        ],
        "placetype": [
          "aat:300008798"
        ],
        "id": 7468397,
        "name:xx": "Charen Shan"
      }
    },
    {
      "geometry": {
        "type": "Point",
        "coordinates": [
          120.55,
          24.233333
        ]
      },
      "type": "Feature",
      "properties": {
        "hierarchy": [
          "tgn:7468398",
          "tgn:1000004",
          "tgn:7001009",
          "tgn:1000141",
          "tgn:7029392"
        ],
        "placetype": [
          "aat:300008347"
        ],
        "id": 7468398,
        "name:xx": "Zhurenli"
      }
    },
    {
      "geometry": {
        "type": "Point",
        "coordinates": [
          121.1858,
          22.9425
        ]
      },
      "type": "Feature",
      "properties": {
        "hierarchy": [
          "tgn:7468399",
          "tgn:1000004",
          "tgn:7491221",
          "tgn:1000141",
          "tgn:7029392"
        ],
        "placetype": [
          "aat:300008798"
        ],
        "id": 7468399,
        "name:xx": "Zhuiyuan Shan"
      }
    }
  ]
}
