{
  "type": "FeatureCollection",
  "features": [
    {
      "geometry": {
        "type": "Point",
        "coordinates": [
          121.407129,
          24.940477
        ]
      },
      "type": "Feature",
      "properties": {
        "hierarchy": [
          "tgn:7493370",
          "tgn:1000004",
          "tgn:1000454",
          "tgn:1000141",
          "tgn:7029392"
        ],
        "placetype": [
          "aat:300008777"
        ],
        "id": 7493370,
        "name:xx": "Changshou Shan"
      }
    },
    {
      "geometry": {
        "type": "Point",
        "coordinates": [
          121.401743,
          24.974246
        ]
      },
      "type": "Feature",
      "properties": {
        "hierarchy": [
          "tgn:7493371",
          "tgn:1000004",
          "tgn:1000454",
          "tgn:1000141",
          "tgn:7029392"
        ],
        "placetype": [
          "aat:300007836"
        ],
        "id": 7493371,
        "name:xx": "Shuanglian Qiao"
      }
    },
    {
      "geometry": {
        "type": "Point",
        "coordinates": [
          121.377308,
          24.884081
        ]
      },
      "type": "Feature",
      "properties": {
        "hierarchy": [
          "tgn:7493372",
          "tgn:1000004",
          "tgn:1000454",
          "tgn:1000141",
          "tgn:7029392"
        ],
        "placetype": [
          "aat:300007836"
        ],
        "id": 7493372,
        "name:xx": "Hezuo Qiao"
      }
    },
    {
      "geometry": {
        "type": "Point",
        "coordinates": [
          121.357805,
          24.905658
        ]
      },
      "type": "Feature",
      "properties": {
        "hierarchy": [
          "tgn:7493373",
          "tgn:1000004",
          "tgn:1000454",
          "tgn:1000141",
          "tgn:7029392"
        ],
        "placetype": [
          "aat:300007836"
        ],
        "id": 7493373,
        "name:xx": "Erjiu Qiao"
      }
    },
    {
      "geometry": {
        "type": "Point",
        "coordinates": [
          121.369694,
          24.912004
        ]
      },
      "type": "Feature",
      "properties": {
        "hierarchy": [
          "tgn:7493374",
          "tgn:1000004",
          "tgn:1000454",
          "tgn:1000141",
          "tgn:7029392"
        ],
        "placetype": [
          "aat:300007836"
        ],
        "id": 7493374,
        "name:xx": "Fuli Qiao"
      }
    },
    {
      "geometry": {
        "type": "Point",
        "coordinates": [
          121.307976,
          24.824943
        ]
      },
      "type": "Feature",
      "properties": {
        "hierarchy": [
          "tgn:7493375",
          "tgn:1000004",
          "tgn:7001013",
          "tgn:1000141",
          "tgn:7029392"
        ],
        "placetype": [
          "aat:300007836"
        ],
        "id": 7493375,
        "name:xx": "Baiji Erhao Qiao"
      }
    },
    {
      "geometry": {
        "type": "Point",
        "coordinates": [
          121.306649,
          24.825745
        ]
      },
      "type": "Feature",
      "properties": {
        "hierarchy": [
          "tgn:7493376",
          "tgn:1000004",
          "tgn:7001013",
          "tgn:1000141",
          "tgn:7029392"
        ],
        "placetype": [
          "aat:300007836"
        ],
        "id": 7493376,
        "name:xx": "Baiji Yihao Qiao"
      }
    },
    {
      "geometry": {
        "type": "Point",
        "coordinates": [
          121.264692,
          24.9046
        ]
      },
      "type": "Feature",
      "properties": {
        "hierarchy": [
          "tgn:7493378",
          "tgn:1000004",
          "tgn:7001013",
          "tgn:1000141",
          "tgn:7029392"
        ],
        "placetype": [
          "aat:300007595"
        ],
        "id": 7493378,
        "name:xx": "Yongchang Gong"
      }
    },
    {
      "geometry": {
        "type": "Point",
        "coordinates": [
          121.288017,
          24.959897
        ]
      },
      "type": "Feature",
      "properties": {
        "hierarchy": [
          "tgn:7493379",
          "tgn:1000004",
          "tgn:7001013",
          "tgn:1000141",
          "tgn:7029392"
        ],
        "placetype": [
          "aat:300007836"
        ],
        "id": 7493379,
        "name:xx": "Wenchang Qiao"
      }
    }
  ]
}
