{
  "type": "FeatureCollection",
  "features": [
    {
      "geometry": {
        "type": "Point",
        "coordinates": [
          -97.698611,
          20.3625
        ]
      },
      "type": "Feature",
      "properties": {
        "hierarchy": [
          "tgn:7412870",
          "tgn:1000001",
          "tgn:7005598",
          "tgn:7005560",
          "tgn:7029392"
        ],
        "placetype": [
          "aat:300008347"
        ],
        "id": 7412870,
        "name:xx": "José María Morelos"
      }
    },
    {
      "geometry": {
        "type": "Point",
        "coordinates": [
          -97.706944,
          20.3625
        ]
      },
      "type": "Feature",
      "properties": {
        "hierarchy": [
          "tgn:7412871",
          "tgn:1000001",
          "tgn:7005598",
          "tgn:7005560",
          "tgn:7029392"
        ],
        "placetype": [
          "aat:300008699"
        ],
        "id": 7412871,
        "name:xx": "San José del Río"
      }
    },
    {
      "geometry": {
        "type": "Point",
        "coordinates": [
          -97.7375,
          20.386111
        ]
      },
      "type": "Feature",
      "properties": {
        "hierarchy": [
          "tgn:7412872",
          "tgn:1000001",
          "tgn:7005598",
          "tgn:7005560",
          "tgn:7029392"
        ],
        "placetype": [
          "aat:300008347"
        ],
        "id": 7412872,
        "name:xx": "Santa María Cuevas"
      }
    },
    {
      "geometry": {
        "type": "Point",
        "coordinates": [
          -97.748611,
          20.388889
        ]
      },
      "type": "Feature",
      "properties": {
        "hierarchy": [
          "tgn:7412873",
          "tgn:1000001",
          "tgn:7005598",
          "tgn:7005560",
          "tgn:7029392"
        ],
        "placetype": [
          "aat:300008347"
        ],
        "id": 7412873,
        "name:xx": "Miahuapán El Bajío"
      }
    },
    {
      "geometry": {
        "type": "Point",
        "coordinates": [
          -97.763889,
          20.377778
        ]
      },
      "type": "Feature",
      "properties": {
        "hierarchy": [
          "tgn:7412874",
          "tgn:1000001",
          "tgn:7005598",
          "tgn:7005560",
          "tgn:7029392"
        ],
        "placetype": [
          "aat:300008347"
        ],
        "id": 7412874,
        "name:xx": "Santa Cruz Pocitos"
      }
    },
    {
      "geometry": {
        "type": "Point",
        "coordinates": [
          -97.766667,
          20.345833
        ]
      },
      "type": "Feature",
      "properties": {
        "hierarchy": [
          "tgn:7412875",
          "tgn:1000001",
          "tgn:7005598",
          "tgn:7005560",
          "tgn:7029392"
        ],
        "placetype": [
          "aat:300008347"
        ],
        "id": 7412875,
        "name:xx": "Santa Beatriz La Nueva"
      }
    },
    {
      "geometry": {
        "type": "Point",
        "coordinates": [
          -97.752778,
          20.340278
        ]
      },
      "type": "Feature",
      "properties": {
        "hierarchy": [
          "tgn:7412876",
          "tgn:1000001",
          "tgn:7005598",
          "tgn:7005560",
          "tgn:7029392"
        ],
        "placetype": [
          "aat:300008347"
        ],
        "id": 7412876,
        "name:xx": "Lomas de Jonguito"
      }
    },
    {
      "geometry": {
        "type": "Point",
        "coordinates": [
          -97.780556,
          20.334722
        ]
      },
      "type": "Feature",
      "properties": {
        "hierarchy": [
          "tgn:7412877",
          "tgn:1000001",
          "tgn:7005598",
          "tgn:7005560",
          "tgn:7029392"
        ],
        "placetype": [
          "aat:300008347"
        ],
        "id": 7412877,
        "name:xx": "La Providencia"
      }
    },
    {
      "geometry": {
        "type": "Point",
        "coordinates": [
          -97.781944,
          20.336111
        ]
      },
      "type": "Feature",
      "properties": {
        "hierarchy": [
          "tgn:7412878",
          "tgn:1000001",
          "tgn:7005598",
          "tgn:7005560",
          "tgn:7029392"
        ],
        "placetype": [
          "aat:300008347"
        ],
        "id": 7412878,
        "name:xx": "San Miguel"
      }
    },
    {
      "geometry": {
        "type": "Point",
        "coordinates": [
          -97.783333,
          20.338889
        ]
      },
      "type": "Feature",
      "properties": {
        "hierarchy": [
          "tgn:7412879",
          "tgn:1000001",
          "tgn:7005598",
          "tgn:7005560",
          "tgn:7029392"
        ],
        "placetype": [
          "aat:300008347"
        ],
        "id": 7412879,
        "name:xx": "San José"
      }
    }
  ]
}
